{"type": "FeatureCollection", "features": [{"type": "Feature", "geometry": {"type": "Point", "coordinates": [121.51442760995316, 25.03206767653766]}, "properties": {"name": "中正區電動車充電站1", "address": "臺北市中正區", "district": "中正區", "city": "taipei", "charger_type": "AC", "slots": 2}}, {"type": "Feature", "geometry": {"type": "Point", "coordinates": [121.5174290499911, 25.034401147282026]}, "properties": {"name": "中正區電動車充電站2", "address": "臺北市中正區", "district": "中正區", "city": "taipei", "charger_type": "DC", "slots": 4}}, {"type": "Feature", "geometry": {"type": "Point", "coordinates": [121.52212301923777, 25.031788943015375]}, "properties": {"name": "中正區電動車充電站3", "address": "臺北市中正區", "district": "中正區", "city": "taipei", "charger_type": "AC+DC", "slots": 6}}, {"type": "Feature", "geometry": {"type": "Point", "coordinates": [121.51590157159053, 25.038524862802284]}, "properties": {"name": "中正區電動車充電站4", "address": "臺北市中正區", "district": "中正區", "city": "taipei", "charger_type": "AC", "slots": 8}}, {"type": "Feature", "geometry": {"type": "Point", "coordinates": [121.50808747198575, 25.061155091983476]}, "properties": {"name": "大同區電動車充電站1", "address": "臺北市大同區", "district": "大同區", "city": "taipei", "charger_type": "AC", "slots": 2}}, {"type": "Feature", "geometry": {"type": "Point", "coordinates": [121.51263132897695, 25.05879529123084]}, "properties": {"name": "大同區電動車充電站2", "address": "臺北市大同區", "district": "大同區", "city": "taipei", "charger_type": "DC", "slots": 4}}, {"type": "Feature", "geometry": {"type": "Point", "coordinates": [121.51405076307762, 25.064196990882856]}, "properties": {"name": "大同區電動車充電站3", "address": "臺北市大同區", "district": "大同區", "city": "taipei", "charger_type": "AC+DC", "slots": 6}}, {"type": "Feature", "geometry": {"type": "Point", "coordinates": [121.52078307269804, 25.059723692062132]}, "properties": {"name": "大同區電動車充電站4", "address": "臺北市大同區", "district": "大同區", "city": "taipei", "charger_type": "AC", "slots": 8}}, {"type": "Feature", "geometry": {"type": "Point", "coordinates": [121.54424711175324, 25.07233167705486]}, "properties": {"name": "中山區電動車充電站1", "address": "臺北市中山區", "district": "中山區", "city": "taipei", "charger_type": "AC", "slots": 2}}, {"type": "Feature", "geometry": {"type": "Point", "coordinates": [121.53299168608285, 25.070854864271293]}, "properties": {"name": "中山區電動車充電站2", "address": "臺北市中山區", "district": "中山區", "city": "taipei", "charger_type": "DC", "slots": 4}}, {"type": "Feature", "geometry": {"type": "Point", "coordinates": [121.53957279188376, 25.073714701458645]}, "properties": {"name": "中山區電動車充電站3", "address": "臺北市中山區", "district": "中山區", "city": "taipei", "charger_type": "AC+DC", "slots": 6}}, {"type": "Feature", "geometry": {"type": "Point", "coordinates": [121.52938470801243, 25.071502503889224]}, "properties": {"name": "中山區電動車充電站4", "address": "臺北市中山區", "district": "中山區", "city": "taipei", "charger_type": "AC", "slots": 8}}, {"type": "Feature", "geometry": {"type": "Point", "coordinates": [121.55774763658438, 25.0566664846543]}, "properties": {"name": "松山區電動車充電站1", "address": "臺北市松山區", "district": "松山區", "city": "taipei", "charger_type": "AC", "slots": 2}}, {"type": "Feature", "geometry": {"type": "Point", "coordinates": [121.55437910642334, 25.05498176191212]}, "properties": {"name": "松山區電動車充電站2", "address": "臺北市松山區", "district": "松山區", "city": "taipei", "charger_type": "DC", "slots": 4}}, {"type": "Feature", "geometry": {"type": "Point", "coordinates": [121.55951303997062, 25.047837135293367]}, "properties": {"name": "松山區電動車充電站3", "address": "臺北市松山區", "district": "松山區", "city": "taipei", "charger_type": "AC+DC", "slots": 6}}, {"type": "Feature", "geometry": {"type": "Point", "coordinates": [121.5599858860481, 25.052134258610085]}, "properties": {"name": "松山區電動車充電站4", "address": "臺北市松山區", "district": "松山區", "city": "taipei", "charger_type": "AC", "slots": 8}}, {"type": "Feature", "geometry": {"type": "Point", "coordinates": [121.54584423133798, 25.030234854026734]}, "properties": {"name": "大安區電動車充電站1", "address": "臺北市大安區", "district": "大安區", "city": "taipei", "charger_type": "AC", "slots": 2}}, {"type": "Feature", "geometry": {"type": "Point", "coordinates": [121.54554690464508, 25.032113393871402]}, "properties": {"name": "大安區電動車充電站2", "address": "臺北市大安區", "district": "大安區", "city": "taipei", "charger_type": "DC", "slots": 4}}, {"type": "Feature", "geometry": {"type": "Point", "coordinates": [121.545051969659, 25.03315445926517]}, "properties": {"name": "大安區電動車充電站3", "address": "臺北市大安區", "district": "大安區", "city": "taipei", "charger_type": "AC+DC", "slots": 6}}, {"type": "Feature", "geometry": {"type": "Point", "coordinates": [121.54534144974225, 25.023642926143243]}, "properties": {"name": "大安區電動車充電站4", "address": "臺北市大安區", "district": "大安區", "city": "taipei", "charger_type": "AC", "slots": 8}}, {"type": "Feature", "geometry": {"type": "Point", "coordinates": [121.4971531710426, 25.036073180885897]}, "properties": {"name": "萬華區電動車充電站1", "address": "臺北市萬華區", "district": "萬華區", "city": "taipei", "charger_type": "AC", "slots": 2}}, {"type": "Feature", "geometry": {"type": "Point", "coordinates": [121.50181775628702, 25.02824213401194]}, "properties": {"name": "萬華區電動車充電站2", "address": "臺北市萬華區", "district": "萬華區", "city": "taipei", "charger_type": "DC", "slots": 4}}, {"type": "Feature", "geometry": {"type": "Point", "coordinates": [121.49482176722606, 25.038759693839015]}, "properties": {"name": "萬華區電動車充電站3", "address": "臺北市萬華區", "district": "萬華區", "city": "taipei", "charger_type": "AC+DC", "slots": 6}}, {"type": "Feature", "geometry": {"type": "Point", "coordinates": [121.4929102411271, 25.02891455676395]}, "properties": {"name": "萬華區電動車充電站4", "address": "臺北市萬華區", "district": "萬華區", "city": "taipei", "charger_type": "AC", "slots": 8}}, {"type": "Feature", "geometry": {"type": "Point", "coordinates": [121.56543052414375, 25.04054383329938]}, "properties": {"name": "信義區電動車充電站1", "address": "臺北市信義區", "district": "信義區", "city": "taipei", "charger_type": "AC", "slots": 2}}, {"type": "Feature", "geometry": {"type": "Point", "coordinates": [121.56529363797925, 25.039615791591707]}, "properties": {"name": "信義區電動車充電站2", "address": "臺北市信義區", "district": "信義區", "city": "taipei", "charger_type": "DC", "slots": 4}}, {"type": "Feature", "geometry": {"type": "Point", "coordinates": [121.57008756191308, 25.029111521353013]}, "properties": {"name": "信義區電動車充電站3", "address": "臺北市信義區", "district": "信義區", "city": "taipei", "charger_type": "AC+DC", "slots": 6}}, {"type": "Feature", "geometry": {"type": "Point", "coordinates": [121.56999503700068, 25.03270956527798]}, "properties": {"name": "信義區電動車充電站4", "address": "臺北市信義區", "district": "信義區", "city": "taipei", "charger_type": "AC", "slots": 8}}, {"type": "Feature", "geometry": {"type": "Point", "coordinates": [121.5292038159007, 25.096944949611473]}, "properties": {"name": "士林區電動車充電站1", "address": "臺北市士林區", "district": "士林區", "city": "taipei", "charger_type": "AC", "slots": 2}}, {"type": "Feature", "geometry": {"type": "Point", "coordinates": [121.52171944406082, 25.086842715319197]}, "properties": {"name": "士林區電動車充電站2", "address": "臺北市士林區", "district": "士林區", "city": "taipei", "charger_type": "DC", "slots": 4}}, {"type": "Feature", "geometry": {"type": "Point", "coordinates": [121.5317062926859, 25.087252112240094]}, "properties": {"name": "士林區電動車充電站3", "address": "臺北市士林區", "district": "士林區", "city": "taipei", "charger_type": "AC+DC", "slots": 6}}, {"type": "Feature", "geometry": {"type": "Point", "coordinates": [121.5317640033514, 25.098762249550383]}, "properties": {"name": "士林區電動車充電站4", "address": "臺北市士林區", "district": "士林區", "city": "taipei", "charger_type": "AC", "slots": 8}}, {"type": "Feature", "geometry": {"type": "Point", "coordinates": [121.50158746739321, 25.139579075884512]}, "properties": {"name": "北投區電動車充電站1", "address": "臺北市北投區", "district": "北投區", "city": "taipei", "charger_type": "AC", "slots": 2}}, {"type": "Feature", "geometry": {"type": "Point", "coordinates": [121.5054763159568, 25.136773402304332]}, "properties": {"name": "北投區電動車充電站2", "address": "臺北市北投區", "district": "北投區", "city": "taipei", "charger_type": "DC", "slots": 4}}, {"type": "Feature", "geometry": {"type": "Point", "coordinates": [121.4958524007905, 25.136550911497423]}, "properties": {"name": "北投區電動車充電站3", "address": "臺北市北投區", "district": "北投區", "city": "taipei", "charger_type": "AC+DC", "slots": 6}}, {"type": "Feature", "geometry": {"type": "Point", "coordinates": [121.49022269848162, 25.132485156932308]}, "properties": {"name": "北投區電動車充電站4", "address": "臺北市北投區", "district": "北投區", "city": "taipei", "charger_type": "AC", "slots": 8}}, {"type": "Feature", "geometry": {"type": "Point", "coordinates": [121.58737657644375, 25.08656525410998]}, "properties": {"name": "內湖區電動車充電站1", "address": "臺北市內湖區", "district": "內湖區", "city": "taipei", "charger_type": "AC", "slots": 2}}, {"type": "Feature", "geometry": {"type": "Point", "coordinates": [121.59085745275762, 25.085152961466434]}, "properties": {"name": "內湖區電動車充電站2", "address": "臺北市內湖區", "district": "內湖區", "city": "taipei", "charger_type": "DC", "slots": 4}}, {"type": "Feature", "geometry": {"type": "Point", "coordinates": [121.59325867681963, 25.090844670268474]}, "properties": {"name": "內湖區電動車充電站3", "address": "臺北市內湖區", "district": "內湖區", "city": "taipei", "charger_type": "AC+DC", "slots": 6}}, {"type": "Feature", "geometry": {"type": "Point", "coordinates": [121.58183353763519, 25.079541150435386]}, "properties": {"name": "內湖區電動車充電站4", "address": "臺北市內湖區", "district": "內湖區", "city": "taipei", "charger_type": "AC", "slots": 8}}, {"type": "Feature", "geometry": {"type": "Point", "coordinates": [121.59920039439434, 25.061147757523436]}, "properties": {"name": "南港區電動車充電站1", "address": "臺北市南港區", "district": "南港區", "city": "taipei", "charger_type": "AC", "slots": 2}}, {"type": "Feature", "geometry": {"type": "Point", "coordinates": [121.60778251811601, 25.06164409453989]}, "properties": {"name": "南港區電動車充電站2", "address": "臺北市南港區", "district": "南港區", "city": "taipei", "charger_type": "DC", "slots": 4}}, {"type": "Feature", "geometry": {"type": "Point", "coordinates": [121.60234187520119, 25.048011472658562]}, "properties": {"name": "南港區電動車充電站3", "address": "臺北市南港區", "district": "南港區", "city": "taipei", "charger_type": "AC+DC", "slots": 6}}, {"type": "Feature", "geometry": {"type": "Point", "coordinates": [121.61198168562225, 25.061550202214846]}, "properties": {"name": "南港區電動車充電站4", "address": "臺北市南港區", "district": "南港區", "city": "taipei", "charger_type": "AC", "slots": 8}}, {"type": "Feature", "geometry": {"type": "Point", "coordinates": [121.56553504279248, 24.994632733692725]}, "properties": {"name": "文山區電動車充電站1", "address": "臺北市文山區", "district": "文山區", "city": "taipei", "charger_type": "AC", "slots": 2}}, {"type": "Feature", "geometry": {"type": "Point", "coordinates": [121.56293643220012, 25.00324018452611]}, "properties": {"name": "文山區電動車充電站2", "address": "臺北市文山區", "district": "文山區", "city": "taipei", "charger_type": "DC", "slots": 4}}, {"type": "Feature", "geometry": {"type": "Point", "coordinates": [121.5655698333497, 24.99598199390365]}, "properties": {"name": "文山區電動車充電站3", "address": "臺北市文山區", "district": "文山區", "city": "taipei", "charger_type": "AC+DC", "slots": 6}}, {"type": "Feature", "geometry": {"type": "Point", "coordinates": [121.56225507197796, 25.002296148936455]}, "properties": {"name": "文山區電動車充電站4", "address": "臺北市文山區", "district": "文山區", "city": "taipei", "charger_type": "AC", "slots": 8}}, {"type": "Feature", "geometry": {"type": "Point", "coordinates": [121.4003706247793, 25.158758300110225]}, "properties": {"name": "十三行博物館", "address": "新北市八里區博物館路200號", "district": "八里區", "city": "newtaipei", "charger_type": "AC", "slots": "2", "fee": "N"}}, {"type": "Feature", "geometry": {"type": "Point", "coordinates": [121.4089277795016, 25.163390241944374]}, "properties": {"name": "八里第一立體停車場", "address": "新北市八里區舊城路12號", "district": "八里區", "city": "newtaipei", "charger_type": "AC", "slots": "2", "fee": "N"}}, {"type": "Feature", "geometry": {"type": "Point", "coordinates": [121.41333558537247, 25.158206028054636]}, "properties": {"name": "八里永續教育中心", "address": "新北市八里區觀海大道36號", "district": "八里區", "city": "newtaipei", "charger_type": "AC", "slots": "2", "fee": "N"}}, {"type": "Feature", "geometry": {"type": "Point", "coordinates": [121.50327630423624, 25.210172366438556]}, "properties": {"name": "三芝中正立體停車場", "address": "新北市三芝區中山路二段48-1號", "district": "三芝區", "city": "newtaipei", "charger_type": "AC", "slots": "2", "fee": "N"}}, {"type": "Feature", "geometry": {"type": "Point", "coordinates": [121.49803815243898, 25.209284346155368]}, "properties": {"name": "三芝遊客中心", "address": "新北市三芝區埔頭坑164之2號", "district": "三芝區", "city": "newtaipei", "charger_type": "AC", "slots": "2", "fee": "N"}}, {"type": "Feature", "geometry": {"type": "Point", "coordinates": [121.48702955260464, 25.059929854171163]}, "properties": {"name": "新北正義國小停車場", "address": "新北市三重區信義西街31號", "district": "三重區", "city": "newtaipei", "charger_type": "AC", "slots": "2", "fee": "N"}}, {"type": "Feature", "geometry": {"type": "Point", "coordinates": [121.4944243444061, 25.05392346058968]}, "properties": {"name": "三重中山立體停車場", "address": "新北市三重區新北大道一段7號", "district": "三重區", "city": "newtaipei", "charger_type": "AC", "slots": "4", "fee": "N"}}, {"type": "Feature", "geometry": {"type": "Point", "coordinates": [121.48512847933975, 25.06049412937697]}, "properties": {"name": "三重三張地下停車場", "address": "新北市三重區大智路188號", "district": "三重區", "city": "newtaipei", "charger_type": "AC", "slots": "2", "fee": "N"}}, {"type": "Feature", "geometry": {"type": "Point", "coordinates": [121.49440888271762, 25.067087203092893]}, "properties": {"name": "三重溪美立體停車場", "address": "新北市三重區自強路四段55號", "district": "三重區", "city": "newtaipei", "charger_type": "AC", "slots": "2", "fee": "N"}}, {"type": "Feature", "geometry": {"type": "Point", "coordinates": [121.4807896739937, 25.0643708842477]}, "properties": {"name": "三重玫瑰平面停車場", "address": "新北市三重區集美街57號", "district": "三重區", "city": "newtaipei", "charger_type": "AC", "slots": "2", "fee": "N"}}, {"type": "Feature", "geometry": {"type": "Point", "coordinates": [121.48791145378371, 25.06904548047123]}, "properties": {"name": "二重國中地下停車場", "address": "新北市三重區忠孝路三段89號B2", "district": "三重區", "city": "newtaipei", "charger_type": "AC", "slots": "4", "fee": "N"}}, {"type": "Feature", "geometry": {"type": "Point", "coordinates": [121.4849387814594, 25.05977023428391]}, "properties": {"name": "三重厚德國小停車場", "address": "新北市三重區忠孝路一段70號", "district": "三重區", "city": "newtaipei", "charger_type": "AC", "slots": "2", "fee": "N"}}, {"type": "Feature", "geometry": {"type": "Point", "coordinates": [121.48223693699458, 25.055354555505396]}, "properties": {"name": "三重碧華國小停車場", "address": "新北市三重區五華街160號", "district": "三重區", "city": "newtaipei", "charger_type": "AC", "slots": "2", "fee": "N"}}, {"type": "Feature", "geometry": {"type": "Point", "coordinates": [121.49276853101541, 25.060675477897128]}, "properties": {"name": "三重五常停車場", "address": "新北市三重區五華街7巷30號B1", "district": "三重區", "city": "newtaipei", "charger_type": "AC", "slots": "2", "fee": "N"}}, {"type": "Feature", "geometry": {"type": "Point", "coordinates": [121.489804299809, 25.06366727147573]}, "properties": {"name": "聯邦公園地下停車場", "address": "新北市三重區中華路125號B1", "district": "三重區", "city": "newtaipei", "charger_type": "AC", "slots": "2", "fee": "N"}}, {"type": "Feature", "geometry": {"type": "Point", "coordinates": [121.48875433535231, 25.05374171927578]}, "properties": {"name": "永福國小地下停車場", "address": "新北市三重區永福街66號B1", "district": "三重區", "city": "newtaipei", "charger_type": "AC", "slots": "2", "fee": "N"}}, {"type": "Feature", "geometry": {"type": "Point", "coordinates": [121.49178871344728, 25.057297102354624]}, "properties": {"name": "正義地下停車場", "address": "新北市三重區雙園街1號B1", "district": "三重區", "city": "newtaipei", "charger_type": "AC", "slots": "2", "fee": "N"}}, {"type": "Feature", "geometry": {"type": "Point", "coordinates": [121.48121478216493, 25.062433247614525]}, "properties": {"name": "龍門公園地下停車場", "address": "新北市三重區公園街32號 平面", "district": "三重區", "city": "newtaipei", "charger_type": "AC", "slots": "2", "fee": "N"}}, {"type": "Feature", "geometry": {"type": "Point", "coordinates": [121.48029776244519, 25.065642518014215]}, "properties": {"name": "文中小平面停車場", "address": "新北市三重區新北大道一段159號 (對面停車場)", "district": "三重區", "city": "newtaipei", "charger_type": "AC", "slots": "2", "fee": "N"}}, {"type": "Feature", "geometry": {"type": "Point", "coordinates": [121.48251451792555, 25.0568552216307]}, "properties": {"name": "光興國小停車場", "address": "新北市三重區正義南路62號", "district": "三重區", "city": "newtaipei", "charger_type": "AC", "slots": "2", "fee": "N"}}, {"type": "Feature", "geometry": {"type": "Point", "coordinates": [121.37321512682831, 24.929956952854916]}, "properties": {"name": "三峽碳中和樂園停車場", "address": "新北市三峽區中正路三段262號", "district": "三峽區", "city": "newtaipei", "charger_type": "AC", "slots": "2", "fee": "N"}}, {"type": "Feature", "geometry": {"type": "Point", "coordinates": [121.36166086687906, 24.93910849657011]}, "properties": {"name": "三峽國小停車場", "address": "新北市三峽區中山路16號", "district": "三峽區", "city": "newtaipei", "charger_type": "AC", "slots": "2", "fee": "N"}}, {"type": "Feature", "geometry": {"type": "Point", "coordinates": [121.35934536882368, 24.938434498022083]}, "properties": {"name": "台北大學地下停車場", "address": "新北市三峽區大學路151號", "district": "三峽區", "city": "newtaipei", "charger_type": "AC", "slots": "2", "fee": "N"}}, {"type": "Feature", "geometry": {"type": "Point", "coordinates": [121.43631500768512, 24.967179874103095]}, "properties": {"name": "土城延吉停車場", "address": "新北市土城區德峰街65號", "district": "土城區", "city": "newtaipei", "charger_type": "AC", "slots": "2", "fee": "N"}}, {"type": "Feature", "geometry": {"type": "Point", "coordinates": [121.43801046714765, 24.96789195393442]}, "properties": {"name": "土城中州停車場", "address": "新北市土城區中州路11號", "district": "土城區", "city": "newtaipei", "charger_type": "AC", "slots": "2", "fee": "N"}}, {"type": "Feature", "geometry": {"type": "Point", "coordinates": [121.44457692228156, 24.965512482396576]}, "properties": {"name": "土城裕生立體停車場", "address": "新北市土城區裕生路106號", "district": "土城區", "city": "newtaipei", "charger_type": "AC", "slots": "2", "fee": "N"}}, {"type": "Feature", "geometry": {"type": "Point", "coordinates": [121.43423776523568, 24.977739754627756]}, "properties": {"name": "土城金城立體停車場", "address": "新北市土城區金城路二段266號", "district": "土城區", "city": "newtaipei", "charger_type": "AC", "slots": "2", "fee": "N"}}, {"type": "Feature", "geometry": {"type": "Point", "coordinates": [121.43780690569744, 24.97028034339139]}, "properties": {"name": "土城永豐停車場", "address": "新北市土城區立德路113號", "district": "土城區", "city": "newtaipei", "charger_type": "AC", "slots": "2", "fee": "N"}}, {"type": "Feature", "geometry": {"type": "Point", "coordinates": [121.4367879392225, 24.965938384285778]}, "properties": {"name": "土城明德停車場", "address": "新北市土城區延吉街與永豐路交界處", "district": "土城區", "city": "newtaipei", "charger_type": "AC", "slots": "2", "fee": "N"}}, {"type": "Feature", "geometry": {"type": "Point", "coordinates": [121.50156748891126, 24.998217368425568]}, "properties": {"name": "捷運南勢角站", "address": "新北市中和區和平街68號對面", "district": "中和區", "city": "newtaipei", "charger_type": "AC", "slots": "2", "fee": "N"}}]}