{"type": "FeatureCollection", "features": [{"type": "Feature", "geometry": {"type": "Point", "coordinates": [121.5366, 25.0698]}, "properties": {"name": "台北花博公園超級充電站", "address": "台北市中山區玉門街1號", "district": "中山區", "city": "taipei", "charger_type": "DC", "slots": 0}}, {"type": "Feature", "geometry": {"type": "Point", "coordinates": [121.5881, 25.0838]}, "properties": {"name": "台北內湖服務體驗中心超級充電站", "address": "台北市內湖區舊宗路二段1號", "district": "內湖區", "city": "taipei", "charger_type": "DC", "slots": 0}}, {"type": "Feature", "geometry": {"type": "Point", "coordinates": [121.6068, 25.055]}, "properties": {"name": "台北南港展覽館2館超級充電站", "address": "台北市南港區經貿二路2號 B1F 165-170車位", "district": "南港區", "city": "taipei", "charger_type": "DC", "slots": 0}}, {"type": "Feature", "geometry": {"type": "Point", "coordinates": [121.498, 25.1319]}, "properties": {"name": "北投雅樂軒超級充電站", "address": "台北市北投區大業路300巷1號 B2", "district": "北投區", "city": "taipei", "charger_type": "DC", "slots": 0}}, {"type": "Feature", "geometry": {"type": "Point", "coordinates": [121.533700638234, 25.01698105364]}, "properties": {"name": "臺灣大學超級充電站", "address": "台北市大安區羅斯福路四段1號", "district": "大安區", "city": "taipei", "charger_type": "DC", "slots": 0}}, {"type": "Feature", "geometry": {"type": "Point", "coordinates": [121.5243, 25.093]}, "properties": {"name": "福林超級充電站", "address": "台北市士林區中山北路五段465號旁", "district": "士林區", "city": "taipei", "charger_type": "DC", "slots": 0}}, {"type": "Feature", "geometry": {"type": "Point", "coordinates": [121.5648, 25.033]}, "properties": {"name": "松山超級充電站", "address": "台北市信義區市民大道六段246號", "district": "信義區", "city": "taipei", "charger_type": "DC", "slots": 0}}, {"type": "Feature", "geometry": {"type": "Point", "coordinates": [121.5648, 25.033]}, "properties": {"name": "信義交易廣場充電站", "address": "台北市信義區松仁路101號B3樓", "district": "信義區", "city": "taipei", "charger_type": "DC", "slots": 0}}, {"type": "Feature", "geometry": {"type": "Point", "coordinates": [121.5243, 25.093]}, "properties": {"name": "大葉高島屋充電站", "address": "台北市士林區忠誠路二段55號B2", "district": "士林區", "city": "taipei", "charger_type": "DC", "slots": 0}}, {"type": "Feature", "geometry": {"type": "Point", "coordinates": [121.4981, 25.0348]}, "properties": {"name": "台北萬華家樂福桂林店超級充電站", "address": "台北市萬華區桂林路1號 7F", "district": "萬華區", "city": "taipei", "charger_type": "DC", "slots": 0}}, {"type": "Feature", "geometry": {"type": "Point", "coordinates": [121.5366, 25.0698]}, "properties": {"name": "台北大直NOKE忠泰樂生活超級充電站", "address": "台北市中山區樂群三路200號 B2", "district": "中山區", "city": "taipei", "charger_type": "DC", "slots": 0}}, {"type": "Feature", "geometry": {"type": "Point", "coordinates": [121.533700638234, 25.01698105364]}, "properties": {"name": "臺大體育館超級充電站", "address": "台北市大安區羅斯福路四段1號 B2", "district": "大安區", "city": "taipei", "charger_type": "DC", "slots": 0}}, {"type": "Feature", "geometry": {"type": "Point", "coordinates": [121.543, 25.0267]}, "properties": {"name": "台北政治大學公企中心超級充電站", "address": "台北市大安區金華街187號 B2", "district": "大安區", "city": "taipei", "charger_type": "DC", "slots": 0}}, {"type": "Feature", "geometry": {"type": "Point", "coordinates": [121.552283401393, 25.038171259238]}, "properties": {"name": "台北富邦超級充電站", "address": "台北市大安區仁愛路四段169號B3", "district": "大安區", "city": "taipei", "charger_type": "DC", "slots": 0}}, {"type": "Feature", "geometry": {"type": "Point", "coordinates": [121.5366, 25.0698]}, "properties": {"name": "台北大倉久和大飯站", "address": "台北市中山區南京東路?段9號", "district": "中山區", "city": "taipei", "charger_type": "AC+DC", "slots": 0}}, {"type": "Feature", "geometry": {"type": "Point", "coordinates": [121.6068, 25.055]}, "properties": {"name": "台北新光南軟站", "address": "台北市南港區經貿二路196號", "district": "南港區", "city": "taipei", "charger_type": "AC+DC", "slots": 0}}, {"type": "Feature", "geometry": {"type": "Point", "coordinates": [121.5578, 25.0502]}, "properties": {"name": "台日交流協會", "address": "台北市松山區慶城街28號", "district": "松山區", "city": "taipei", "charger_type": "AC+DC", "slots": 0}}, {"type": "Feature", "geometry": {"type": "Point", "coordinates": [121.5881, 25.0838]}, "properties": {"name": "台北內湖亞太經貿廣場A棟站", "address": "台北市內湖區舊宗路二段187號 B2", "district": "內湖區", "city": "taipei", "charger_type": "AC+DC", "slots": 0}}, {"type": "Feature", "geometry": {"type": "Point", "coordinates": [121.506864550294, 25.036455609387]}, "properties": {"name": "台北花園大酒店", "address": "台北市中正區中華路二段1號", "district": "中正區", "city": "taipei", "charger_type": "AC+DC", "slots": 0}}, {"type": "Feature", "geometry": {"type": "Point", "coordinates": [121.5881, 25.0838]}, "properties": {"name": "EVALUE內湖旗艦站", "address": "臺北市內湖區民權東路6段186-8號", "district": "內湖區", "city": "taipei", "charger_type": "AC+DC", "slots": 0}}, {"type": "Feature", "geometry": {"type": "Point", "coordinates": [121.558745178189, 25.084286395034]}, "properties": {"name": "維多麗亞酒店", "address": "台北市中山區敬業四路168號", "district": "中山區", "city": "taipei", "charger_type": "AC+DC", "slots": 0}}, {"type": "Feature", "geometry": {"type": "Point", "coordinates": [121.5199, 25.033]}, "properties": {"name": "台糖台北會館", "address": "台北市中正區中華路?段39號1至21樓及B1至B4", "district": "中正區", "city": "taipei", "charger_type": "AC+DC", "slots": 0}}, {"type": "Feature", "geometry": {"type": "Point", "coordinates": [121.572950073319, 25.062783418718]}, "properties": {"name": "燦坤內湖總部站", "address": "台北市內湖區堤頂大道一段331號 1F&B2", "district": "內湖區", "city": "taipei", "charger_type": "AC+DC", "slots": 0}}, {"type": "Feature", "geometry": {"type": "Point", "coordinates": [121.5243, 25.093]}, "properties": {"name": "雀客藏居_台北陽明山", "address": "台北市士林區格致路237號", "district": "士林區", "city": "taipei", "charger_type": "AC+DC", "slots": 0}}, {"type": "Feature", "geometry": {"type": "Point", "coordinates": [121.564733628912, 25.031360292356]}, "properties": {"name": "台北市信義之星", "address": "臺北市信義區松智路14號B2", "district": "信義區", "city": "taipei", "charger_type": "AC+DC", "slots": 0}}, {"type": "Feature", "geometry": {"type": "Point", "coordinates": [121.563904071955, 25.034026198571]}, "properties": {"name": "台北金融大樓股份有限公司(101購物中心)", "address": "台北市信義區市府路45號B3、B4", "district": "信義區", "city": "taipei", "charger_type": "AC+DC", "slots": 0}}, {"type": "Feature", "geometry": {"type": "Point", "coordinates": [121.5366, 25.0698]}, "properties": {"name": "順益汽車_濱江營業所", "address": "台北市中山區濱江街309號", "district": "中山區", "city": "taipei", "charger_type": "AC+DC", "slots": 0}}, {"type": "Feature", "geometry": {"type": "Point", "coordinates": [121.5881, 25.0838]}, "properties": {"name": "台北企業總部園區", "address": "台北市內湖區南京東路六段370號W棟B1停車場", "district": "內湖區", "city": "taipei", "charger_type": "AC+DC", "slots": 0}}, {"type": "Feature", "geometry": {"type": "Point", "coordinates": [121.5578, 25.0502]}, "properties": {"name": "台北松山運動中心", "address": "台北市松山區敦化北路1號", "district": "松山區", "city": "taipei", "charger_type": "AC+DC", "slots": 0}}, {"type": "Feature", "geometry": {"type": "Point", "coordinates": [121.5687, 24.9961]}, "properties": {"name": "台北市文山運動中心", "address": "台北市文山區興隆路三段222號B1停車場", "district": "文山區", "city": "taipei", "charger_type": "AC+DC", "slots": 0}}, {"type": "Feature", "geometry": {"type": "Point", "coordinates": [121.5366, 25.0698]}, "properties": {"name": "台北中崙第一停車場", "address": "台北市中山區八德路二段210巷10號", "district": "中山區", "city": "taipei", "charger_type": "AC+DC", "slots": 0}}, {"type": "Feature", "geometry": {"type": "Point", "coordinates": [121.5199, 25.033]}, "properties": {"name": "台北世貿公園地下停車場", "address": "台北市南港經貿二路88巷19號", "district": "中正區", "city": "taipei", "charger_type": "AC+DC", "slots": 0}}, {"type": "Feature", "geometry": {"type": "Point", "coordinates": [121.4981, 25.0348]}, "properties": {"name": "台北萬華車站地下停車場", "address": "台北市萬華區西園路一段306巷1號", "district": "萬華區", "city": "taipei", "charger_type": "AC+DC", "slots": 0}}, {"type": "Feature", "geometry": {"type": "Point", "coordinates": [121.543, 25.0267]}, "properties": {"name": "國立台灣大學_新南地下停車場", "address": "台北市大安區新生南路三段_新南停車場B1", "district": "大安區", "city": "taipei", "charger_type": "AC+DC", "slots": 0}}, {"type": "Feature", "geometry": {"type": "Point", "coordinates": [121.543, 25.0267]}, "properties": {"name": "國立台灣大學_芳蘭第一平面停車場", "address": "106台北市大安區芳蘭路71號", "district": "大安區", "city": "taipei", "charger_type": "AC+DC", "slots": 0}}, {"type": "Feature", "geometry": {"type": "Point", "coordinates": [121.5199, 25.033]}, "properties": {"name": "國立台灣大學_水源校區臨時停車場", "address": "100台北市中正區思源街18號", "district": "中正區", "city": "taipei", "charger_type": "AC+DC", "slots": 0}}, {"type": "Feature", "geometry": {"type": "Point", "coordinates": [121.543, 25.0267]}, "properties": {"name": "\t國立台灣大學_生醫工程館地下停車場", "address": "台北市大安區芳蘭路49號B2", "district": "大安區", "city": "taipei", "charger_type": "AC+DC", "slots": 0}}, {"type": "Feature", "geometry": {"type": "Point", "coordinates": [121.606793348494, 25.056171522036]}, "properties": {"name": "台北興中立體停車場", "address": "台北市南港區興中路44巷1號", "district": "南港區", "city": "taipei", "charger_type": "AC+DC", "slots": 0}}, {"type": "Feature", "geometry": {"type": "Point", "coordinates": [121.5881, 25.0838]}, "properties": {"name": "\t台北洲子立體停車場", "address": "台北市內湖區瑞光路513巷22弄2號", "district": "內湖區", "city": "taipei", "charger_type": "AC+DC", "slots": 0}}, {"type": "Feature", "geometry": {"type": "Point", "coordinates": [121.5881, 25.0838]}, "properties": {"name": "台北東湖國小地下停車場", "address": "台北市內湖區東湖路115號", "district": "內湖區", "city": "taipei", "charger_type": "AC+DC", "slots": 0}}, {"type": "Feature", "geometry": {"type": "Point", "coordinates": [121.504228441745, 25.131171785822]}, "properties": {"name": "台北大豐公園地下停車場", "address": "台北市北投區大興街145號B1", "district": "北投區", "city": "taipei", "charger_type": "AC+DC", "slots": 0}}, {"type": "Feature", "geometry": {"type": "Point", "coordinates": [121.503435513705, 25.118453966043]}, "properties": {"name": "台北立農公園地下停車場", "address": "台北市北投區承德路七段372號B1", "district": "北投區", "city": "taipei", "charger_type": "AC+DC", "slots": 0}}, {"type": "Feature", "geometry": {"type": "Point", "coordinates": [121.6068, 25.055]}, "properties": {"name": "台北南港國小地下停車場", "address": "台北市南港區東興街59號", "district": "南港區", "city": "taipei", "charger_type": "AC+DC", "slots": 0}}, {"type": "Feature", "geometry": {"type": "Point", "coordinates": [121.6068, 25.055]}, "properties": {"name": "台北玉成公園地下停車場", "address": "台北市南港區成福路116號", "district": "南港區", "city": "taipei", "charger_type": "AC+DC", "slots": 0}}, {"type": "Feature", "geometry": {"type": "Point", "coordinates": [121.5687, 24.9961]}, "properties": {"name": "歐特儀_捷運木柵站轉乘停車場", "address": "台北市文山區木柵路四段135號B1樓", "district": "文山區", "city": "taipei", "charger_type": "AC+DC", "slots": 0}}, {"type": "Feature", "geometry": {"type": "Point", "coordinates": [121.543, 25.0267]}, "properties": {"name": "聯合醫院_台北仁愛院區", "address": "台北市大安區仁愛路四段10號", "district": "大安區", "city": "taipei", "charger_type": "AC+DC", "slots": 0}}, {"type": "Feature", "geometry": {"type": "Point", "coordinates": [121.5648, 25.033]}, "properties": {"name": "聯合醫院_台北松德院區", "address": "台北市信義區松德路309號", "district": "信義區", "city": "taipei", "charger_type": "AC+DC", "slots": 0}}, {"type": "Feature", "geometry": {"type": "Point", "coordinates": [121.519249650426, 25.029111553463]}, "properties": {"name": "聯合醫院_台北婦幼院區", "address": "台北市中正區福州街12號", "district": "中正區", "city": "taipei", "charger_type": "AC+DC", "slots": 0}}, {"type": "Feature", "geometry": {"type": "Point", "coordinates": [121.531565599857, 25.105194046677]}, "properties": {"name": "聯合醫院_台北陽明院區", "address": "台北市士林區雨聲街105號", "district": "士林區", "city": "taipei", "charger_type": "AC+DC", "slots": 0}}, {"type": "Feature", "geometry": {"type": "Point", "coordinates": [121.5129, 25.063]}, "properties": {"name": "聯合醫院_台北中興院區", "address": "台北市大同區鄭州路145號", "district": "大同區", "city": "taipei", "charger_type": "AC+DC", "slots": 0}}, {"type": "Feature", "geometry": {"type": "Point", "coordinates": [121.5199, 25.033]}, "properties": {"name": "聯合醫院_台北和平院區", "address": "台北市中正區中華路二段33號", "district": "中正區", "city": "taipei", "charger_type": "AC+DC", "slots": 0}}, {"type": "Feature", "geometry": {"type": "Point", "coordinates": [121.5129, 25.063]}, "properties": {"name": "台北大龍國小地下停車場 ", "address": "台北市大同區哈密街47號B1", "district": "大同區", "city": "taipei", "charger_type": "AC+DC", "slots": 0}}, {"type": "Feature", "geometry": {"type": "Point", "coordinates": [121.5243, 25.093]}, "properties": {"name": "台北蘭雅公園地下停車場", "address": "台北市士林區德行東路129巷31號", "district": "士林區", "city": "taipei", "charger_type": "AC+DC", "slots": 0}}, {"type": "Feature", "geometry": {"type": "Point", "coordinates": [121.4981, 25.0348]}, "properties": {"name": "台北青年公園高爾夫球場", "address": "台北市萬華區國興路5號", "district": "萬華區", "city": "taipei", "charger_type": "AC+DC", "slots": 0}}, {"type": "Feature", "geometry": {"type": "Point", "coordinates": [121.5243, 25.093]}, "properties": {"name": "台北前港公園地下停車場", "address": "台北市士林區前港街45號", "district": "士林區", "city": "taipei", "charger_type": "AC+DC", "slots": 0}}, {"type": "Feature", "geometry": {"type": "Point", "coordinates": [121.5243, 25.093]}, "properties": {"name": "台北海光公園地下停車場", "address": "台北市士林區葫蘆街83號B1樓", "district": "士林區", "city": "taipei", "charger_type": "AC+DC", "slots": 0}}, {"type": "Feature", "geometry": {"type": "Point", "coordinates": [121.5129, 25.063]}, "properties": {"name": "台北啟聰學校地下停車場", "address": "台北市大同區延平北路四段205號", "district": "大同區", "city": "taipei", "charger_type": "AC+DC", "slots": 0}}, {"type": "Feature", "geometry": {"type": "Point", "coordinates": [121.5648, 25.033]}, "properties": {"name": "\t台北南山廣場", "address": "台北市信義區松仁路100號B4", "district": "信義區", "city": "taipei", "charger_type": "AC+DC", "slots": 0}}, {"type": "Feature", "geometry": {"type": "Point", "coordinates": [121.4981, 25.0348]}, "properties": {"name": "台北古亭國中地下停車場", "address": "台北市萬華區中華路二段606巷1號", "district": "萬華區", "city": "taipei", "charger_type": "AC+DC", "slots": 0}}, {"type": "Feature", "geometry": {"type": "Point", "coordinates": [121.5243, 25.093]}, "properties": {"name": "台北至誠平面停車場", "address": "台北士林區至誠路1段295號對面", "district": "士林區", "city": "taipei", "charger_type": "AC+DC", "slots": 0}}, {"type": "Feature", "geometry": {"type": "Point", "coordinates": [121.5243, 25.093]}, "properties": {"name": "台北福林公園地下停車場", "address": "台北市士林區中正路17號", "district": "士林區", "city": "taipei", "charger_type": "AC+DC", "slots": 0}}, {"type": "Feature", "geometry": {"type": "Point", "coordinates": [121.5366, 25.0698]}, "properties": {"name": "台北中山運動中心旁平面停車場", "address": "台北市中山區中山北路2段44巷及46巷中間", "district": "中山區", "city": "taipei", "charger_type": "AC+DC", "slots": 0}}, {"type": "Feature", "geometry": {"type": "Point", "coordinates": [121.515551908109, 25.073080527353]}, "properties": {"name": "台北慶昌橋下停車場", "address": "台北市大同區哈密街59巷-延平北路", "district": "大同區", "city": "taipei", "charger_type": "AC+DC", "slots": 0}}, {"type": "Feature", "geometry": {"type": "Point", "coordinates": [121.5243, 25.093]}, "properties": {"name": "台北福港街平面停車場", "address": "台北市士林區福港街149巷2號", "district": "士林區", "city": "taipei", "charger_type": "AC+DC", "slots": 0}}, {"type": "Feature", "geometry": {"type": "Point", "coordinates": [121.498702085343, 25.029159246492]}, "properties": {"name": "台北萬華國中地下停車場", "address": "108台北市萬華區西藏路201號B1樓", "district": "萬華區", "city": "taipei", "charger_type": "AC+DC", "slots": 0}}, {"type": "Feature", "geometry": {"type": "Point", "coordinates": [121.498, 25.1319]}, "properties": {"name": "台北關渡水岸自然公園平面停車場", "address": "台北市北投區知行路360號(關渡宮對面空地)", "district": "北投區", "city": "taipei", "charger_type": "AC+DC", "slots": 0}}, {"type": "Feature", "geometry": {"type": "Point", "coordinates": [121.505354969532, 25.140669236491]}, "properties": {"name": "台北開勝平面停車場", "address": "台北市北投區珠海路88號", "district": "北投區", "city": "taipei", "charger_type": "AC+DC", "slots": 0}}, {"type": "Feature", "geometry": {"type": "Point", "coordinates": [121.5243, 25.093]}, "properties": {"name": "台北東和平面停車場", "address": "台北市士林區天母東路69巷旁", "district": "士林區", "city": "taipei", "charger_type": "AC+DC", "slots": 0}}, {"type": "Feature", "geometry": {"type": "Point", "coordinates": [121.569792710006, 25.024243879434]}, "properties": {"name": "宏達_台北松仁停車場", "address": "台北市松山區松仁路277號", "district": "松山區", "city": "taipei", "charger_type": "AC+DC", "slots": 0}}, {"type": "Feature", "geometry": {"type": "Point", "coordinates": [121.5881, 25.0838]}, "properties": {"name": "台北康樂合署大樓地下停車場", "address": "114台北市內湖區康樂街150號號地下室", "district": "內湖區", "city": "taipei", "charger_type": "AC+DC", "slots": 0}}, {"type": "Feature", "geometry": {"type": "Point", "coordinates": [121.543, 25.0267]}, "properties": {"name": "歐特儀_台北台大癌醫停車場", "address": "台北市大安區基隆路三段155巷57號", "district": "大安區", "city": "taipei", "charger_type": "AC+DC", "slots": 0}}, {"type": "Feature", "geometry": {"type": "Point", "coordinates": [121.5129, 25.063]}, "properties": {"name": "台北成淵高中地下停車場", "address": "103台北市大同區承德路二段235號之1地下", "district": "大同區", "city": "taipei", "charger_type": "AC+DC", "slots": 0}}, {"type": "Feature", "geometry": {"type": "Point", "coordinates": [121.4981, 25.0348]}, "properties": {"name": "台北華江橋下雙層停車場", "address": "台北市萬華區和平西路3段382巷對面", "district": "萬華區", "city": "taipei", "charger_type": "AC+DC", "slots": 0}}, {"type": "Feature", "geometry": {"type": "Point", "coordinates": [121.5243, 25.093]}, "properties": {"name": "台北福國路橋下平面停車場", "address": "台北市士林區文林路台灣戲曲中心與臺北高等行政法院間福國路橋下", "district": "士林區", "city": "taipei", "charger_type": "AC+DC", "slots": 0}}, {"type": "Feature", "geometry": {"type": "Point", "coordinates": [121.4981, 25.0348]}, "properties": {"name": "台北雙園國中地下停車場", "address": "108台北市萬華區西園路二段320巷55弄3號", "district": "萬華區", "city": "taipei", "charger_type": "AC+DC", "slots": 0}}, {"type": "Feature", "geometry": {"type": "Point", "coordinates": [121.498, 25.1319]}, "properties": {"name": "台北陽明山立體停車場", "address": "台北市北投區湖山路(陽明山公園大門口旁)", "district": "北投區", "city": "taipei", "charger_type": "AC+DC", "slots": 0}}, {"type": "Feature", "geometry": {"type": "Point", "coordinates": [121.498, 25.1319]}, "properties": {"name": "台北陽明山第二停車場 ", "address": "台北市北投區陽金公路(陽明山國家公園遊客服務中心對面)", "district": "北投區", "city": "taipei", "charger_type": "AC+DC", "slots": 0}}, {"type": "Feature", "geometry": {"type": "Point", "coordinates": [121.498, 25.1319]}, "properties": {"name": "台北陽明山花鐘停車場", "address": "台北市北投區湖山路2段(陽明山公園花鐘前)", "district": "北投區", "city": "taipei", "charger_type": "AC+DC", "slots": 0}}, {"type": "Feature", "geometry": {"type": "Point", "coordinates": [121.498, 25.1319]}, "properties": {"name": "台北豐年運動公園平面停車場", "address": "台北市北投區大業路527巷旁", "district": "北投區", "city": "taipei", "charger_type": "AC+DC", "slots": 0}}, {"type": "Feature", "geometry": {"type": "Point", "coordinates": [121.5129, 25.063]}, "properties": {"name": "力揚_台北大稻埕停車場", "address": "台北市大同區歸綏街243號B1", "district": "大同區", "city": "taipei", "charger_type": "AC+DC", "slots": 0}}, {"type": "Feature", "geometry": {"type": "Point", "coordinates": [121.5199, 25.033]}, "properties": {"name": "台北全球人壽希望園區停車場", "address": "台北市中正區八德路一段55號", "district": "中正區", "city": "taipei", "charger_type": "AC+DC", "slots": 0}}, {"type": "Feature", "geometry": {"type": "Point", "coordinates": [121.498, 25.1319]}, "properties": {"name": "國立陽明交通大學_生物醫學大樓", "address": "臺北市北投區立農街二段155號", "district": "北投區", "city": "taipei", "charger_type": "AC+DC", "slots": 0}}, {"type": "Feature", "geometry": {"type": "Point", "coordinates": [121.533700638234, 25.01698105364]}, "properties": {"name": "國立台灣大學_公館平面停車場", "address": "台北市大安區羅斯福路四段1號", "district": "大安區", "city": "taipei", "charger_type": "AC+DC", "slots": 0}}, {"type": "Feature", "geometry": {"type": "Point", "coordinates": [121.5366, 25.0698]}, "properties": {"name": "台北美福大飯店", "address": "台北市中山區樂群二路55號 B4", "district": "中山區", "city": "taipei", "charger_type": "AC+DC", "slots": 0}}, {"type": "Feature", "geometry": {"type": "Point", "coordinates": [121.5578, 25.0502]}, "properties": {"name": "台北民生社區中心地下停車場", "address": "台北市松山區民生東路五段163之1號B2樓", "district": "松山區", "city": "taipei", "charger_type": "AC+DC", "slots": 0}}, {"type": "Feature", "geometry": {"type": "Point", "coordinates": [121.498, 25.1319]}, "properties": {"name": "台北關渡醫院旁平面停車場 ", "address": "台北市北投區大度路3段301巷", "district": "北投區", "city": "taipei", "charger_type": "AC+DC", "slots": 0}}, {"type": "Feature", "geometry": {"type": "Point", "coordinates": [121.5129, 25.063]}, "properties": {"name": "台北大橋橋下停車場", "address": "台北市大同區環河北路2段-延平北路3段間之臺北大橋橋下空間", "district": "大同區", "city": "taipei", "charger_type": "AC+DC", "slots": 0}}, {"type": "Feature", "geometry": {"type": "Point", "coordinates": [121.50588308788, 25.125310396472]}, "properties": {"name": "台北公?路228巷臨時平面停車場", "address": "台北市北投區公館路228巷", "district": "北投區", "city": "taipei", "charger_type": "AC+DC", "slots": 0}}, {"type": "Feature", "geometry": {"type": "Point", "coordinates": [121.502965540394, 25.023446225106]}, "properties": {"name": "台北青年公園棒球場地下停車場", "address": "台北市萬華區青年路69號", "district": "萬華區", "city": "taipei", "charger_type": "AC+DC", "slots": 0}}, {"type": "Feature", "geometry": {"type": "Point", "coordinates": [121.498, 25.1319]}, "properties": {"name": "台北懷德街55巷平面停車場", "address": "台北市北投區懷德街與懷德街55巷交叉口", "district": "北投區", "city": "taipei", "charger_type": "AC+DC", "slots": 0}}, {"type": "Feature", "geometry": {"type": "Point", "coordinates": [121.509277616399, 25.088537612506]}, "properties": {"name": "台北社正路平面停車場", "address": "台北市士林區社正路12號旁", "district": "士林區", "city": "taipei", "charger_type": "AC+DC", "slots": 0}}, {"type": "Feature", "geometry": {"type": "Point", "coordinates": [121.5129, 25.063]}, "properties": {"name": "台北建成公園地下停車場", "address": "台北市大同區承德路二段31號B1樓", "district": "大同區", "city": "taipei", "charger_type": "AC+DC", "slots": 0}}, {"type": "Feature", "geometry": {"type": "Point", "coordinates": [121.5243, 25.093]}, "properties": {"name": "台北延平北路5段1巷平面停車場", "address": "台北市士林區延平北路5段1巷平面停車場", "district": "士林區", "city": "taipei", "charger_type": "AC+DC", "slots": 0}}, {"type": "Feature", "geometry": {"type": "Point", "coordinates": [121.5129, 25.063]}, "properties": {"name": "台北建成國中地下停車場", "address": "台北市大同區長安西路37號B1", "district": "大同區", "city": "taipei", "charger_type": "AC+DC", "slots": 0}}, {"type": "Feature", "geometry": {"type": "Point", "coordinates": [121.498, 25.1319]}, "properties": {"name": "台北公館路平面停車場", "address": "台北市北投區公館路、西安路口", "district": "北投區", "city": "taipei", "charger_type": "AC+DC", "slots": 0}}, {"type": "Feature", "geometry": {"type": "Point", "coordinates": [121.498, 25.1319]}, "properties": {"name": "台北大業路280巷平面停車場", "address": "台北市北投區大業路280巷", "district": "北投區", "city": "taipei", "charger_type": "AC+DC", "slots": 0}}, {"type": "Feature", "geometry": {"type": "Point", "coordinates": [121.6068, 25.055]}, "properties": {"name": "台北市南港運動中心", "address": "台北市南港區玉成街69號", "district": "南港區", "city": "taipei", "charger_type": "AC+DC", "slots": 0}}, {"type": "Feature", "geometry": {"type": "Point", "coordinates": [121.509652790385, 25.116335984839]}, "properties": {"name": "台北市北投運動中心", "address": "台北市北投區石牌路一段39巷100號", "district": "北投區", "city": "taipei", "charger_type": "AC+DC", "slots": 0}}, {"type": "Feature", "geometry": {"type": "Point", "coordinates": [121.5881, 25.0838]}, "properties": {"name": "台北內湖CITYLINK停車場", "address": "台北市內湖區成功路四段188號2F、5F", "district": "內湖區", "city": "taipei", "charger_type": "AC+DC", "slots": 0}}, {"type": "Feature", "geometry": {"type": "Point", "coordinates": [121.5243, 25.093]}, "properties": {"name": "台北福林路平面停車場", "address": "臺北市士林區福林路與中正路交叉口南側空地(福林2小段578、583及584地號內)", "district": "士林區", "city": "taipei", "charger_type": "AC+DC", "slots": 0}}, {"type": "Feature", "geometry": {"type": "Point", "coordinates": [121.4981, 25.0348]}, "properties": {"name": "台北新和庭園平面停車場", "address": "臺北市萬華區中華路2段416巷口", "district": "萬華區", "city": "taipei", "charger_type": "AC+DC", "slots": 0}}, {"type": "Feature", "geometry": {"type": "Point", "coordinates": [121.5366, 25.0698]}, "properties": {"name": "台北大直計程車服務站", "address": "臺北市中山區北安路676號", "district": "中山區", "city": "taipei", "charger_type": "AC+DC", "slots": 0}}, {"type": "Feature", "geometry": {"type": "Point", "coordinates": [121.5199, 25.033]}, "properties": {"name": "台北公館計程車服務站", "address": "臺北市中正區汀州路三段230巷17號", "district": "中正區", "city": "taipei", "charger_type": "AC+DC", "slots": 0}}, {"type": "Feature", "geometry": {"type": "Point", "coordinates": [121.5366, 25.0698]}, "properties": {"name": "台北中山計程車服務站", "address": "臺北市中山區新生北路3段(臺北市立美術館後面)", "district": "中山區", "city": "taipei", "charger_type": "AC+DC", "slots": 0}}, {"type": "Feature", "geometry": {"type": "Point", "coordinates": [121.543, 25.0267]}, "properties": {"name": "台北建國計程車服務站", "address": "臺北市大安區建國南路一段34號", "district": "大安區", "city": "taipei", "charger_type": "AC+DC", "slots": 0}}, {"type": "Feature", "geometry": {"type": "Point", "coordinates": [121.565152724071, 25.040866585933]}, "properties": {"name": "市府轉運停車場", "address": "臺北市信義區忠孝東路五段6號B4", "district": "信義區", "city": "taipei", "charger_type": "AC+DC", "slots": 0}}, {"type": "Feature", "geometry": {"type": "Point", "coordinates": [121.5366, 25.0698]}, "properties": {"name": "Times_台北植福路停車場", "address": "臺北市中山區植福路11號", "district": "中山區", "city": "taipei", "charger_type": "AC+DC", "slots": 0}}, {"type": "Feature", "geometry": {"type": "Point", "coordinates": [121.521828701794, 25.117564694329]}, "properties": {"name": "Times_台北北護大學思樓停車場", "address": "臺北市北投區明德路365號教學綜合研究大樓B1(北護大學思樓)", "district": "北投區", "city": "taipei", "charger_type": "AC+DC", "slots": 0}}, {"type": "Feature", "geometry": {"type": "Point", "coordinates": [121.5881, 25.0838]}, "properties": {"name": "Times_台北內湖陽光街停車場", "address": "臺北市內湖區陽光街381號旁空地", "district": "內湖區", "city": "taipei", "charger_type": "AC+DC", "slots": 0}}, {"type": "Feature", "geometry": {"type": "Point", "coordinates": [121.529976941662, 25.107654471985]}, "properties": {"name": "台北忠誠路(二)平面停車場 ", "address": "臺北市士林區忠誠路1段182號旁", "district": "士林區", "city": "taipei", "charger_type": "AC+DC", "slots": 0}}, {"type": "Feature", "geometry": {"type": "Point", "coordinates": [121.517479895389, 25.048444874142]}, "properties": {"name": "Times_台北地下街停車場", "address": "臺北市大同區市民大道一段100號B2", "district": "大同區", "city": "taipei", "charger_type": "AC+DC", "slots": 0}}, {"type": "Feature", "geometry": {"type": "Point", "coordinates": [121.540301806079, 24.988516068546]}, "properties": {"name": "台北景美國小地下停車場", "address": "臺北市文山區景文街142巷2號B1", "district": "文山區", "city": "taipei", "charger_type": "AC+DC", "slots": 0}}, {"type": "Feature", "geometry": {"type": "Point", "coordinates": [121.54310312194, 25.07272209277]}, "properties": {"name": "台隆賓士_台北濱江", "address": "台北市中山區濱江街277號", "district": "中山區", "city": "taipei", "charger_type": "AC+DC", "slots": 0}}, {"type": "Feature", "geometry": {"type": "Point", "coordinates": [121.6068, 25.055]}, "properties": {"name": "中華賓士_台北南港", "address": "台北市南港區南港路三段53號1樓", "district": "南港區", "city": "taipei", "charger_type": "AC+DC", "slots": 0}}, {"type": "Feature", "geometry": {"type": "Point", "coordinates": [121.498, 25.1319]}, "properties": {"name": "中華賓士_台北關渡", "address": "台北市北投區大度路三段168號", "district": "北投區", "city": "taipei", "charger_type": "AC+DC", "slots": 0}}, {"type": "Feature", "geometry": {"type": "Point", "coordinates": [121.577361552779, 25.063322710368]}, "properties": {"name": "中華賓士_台北內湖", "address": "台北市內湖區舊宗路一段279號", "district": "內湖區", "city": "taipei", "charger_type": "AC+DC", "slots": 0}}, {"type": "Feature", "geometry": {"type": "Point", "coordinates": [121.543, 25.0267]}, "properties": {"name": "新凱汽車仁愛充電站", "address": "台北市大安區新生南路?段125號", "district": "大安區", "city": "taipei", "charger_type": "AC+DC", "slots": 0}}, {"type": "Feature", "geometry": {"type": "Point", "coordinates": [121.580615826687, 25.067682599215]}, "properties": {"name": "新凱汽車內湖充電站", "address": "台北市內湖區民權東路六段17號1樓", "district": "內湖區", "city": "taipei", "charger_type": "AC+DC", "slots": 0}}, {"type": "Feature", "geometry": {"type": "Point", "coordinates": [121.498, 25.1319]}, "properties": {"name": "新凱汽車士林充電站", "address": "台北市北投區承德路6段80號", "district": "北投區", "city": "taipei", "charger_type": "AC+DC", "slots": 0}}, {"type": "Feature", "geometry": {"type": "Point", "coordinates": [121.5366, 25.0698]}, "properties": {"name": "匯勝汽車濱江充電站", "address": "台北市中山區濱江街209號", "district": "中山區", "city": "taipei", "charger_type": "AC+DC", "slots": 0}}, {"type": "Feature", "geometry": {"type": "Point", "coordinates": [121.563538872434, 25.061650646414]}, "properties": {"name": "家樂福台北三民店", "address": "台北市松山區三民路160號", "district": "松山區", "city": "taipei", "charger_type": "AC+DC", "slots": 0}}, {"type": "Feature", "geometry": {"type": "Point", "coordinates": [121.543124317911, 25.136217455446]}, "properties": {"name": "陽明山草山小鎮", "address": "台北市士林區國泰街5號斜對面停車場", "district": "士林區", "city": "taipei", "charger_type": "AC+DC", "slots": 0}}, {"type": "Feature", "geometry": {"type": "Point", "coordinates": [121.559217414613, 25.035172465739]}, "properties": {"name": "台北信義忠駝社區", "address": "台北市信義區基隆路一段364巷20號1樓", "district": "信義區", "city": "taipei", "charger_type": "AC+DC", "slots": 0}}, {"type": "Feature", "geometry": {"type": "Point", "coordinates": [121.5129, 25.063]}, "properties": {"name": "家樂福重慶店", "address": "台北市大同區重慶北路二段171號4F", "district": "大同區", "city": "taipei", "charger_type": "AC+DC", "slots": 0}}, {"type": "Feature", "geometry": {"type": "Point", "coordinates": [121.533700638234, 25.01698105364]}, "properties": {"name": "台大公館超充站", "address": "台北市大安區羅斯福路四段1號", "district": "大安區", "city": "taipei", "charger_type": "AC+DC", "slots": 0}}, {"type": "Feature", "geometry": {"type": "Point", "coordinates": [121.5366, 25.0698]}, "properties": {"name": "台北永盛公園地下停車場", "address": "台北市中山區中山北路2段93巷30號地下 ", "district": "中山區", "city": "taipei", "charger_type": "AC+DC", "slots": 0}}, {"type": "Feature", "geometry": {"type": "Point", "coordinates": [121.530183340204, 25.049759282288]}, "properties": {"name": "台北長安國小地下停車場", "address": "台北市中山區吉林路15號地下 ", "district": "中山區", "city": "taipei", "charger_type": "AC+DC", "slots": 0}}, {"type": "Feature", "geometry": {"type": "Point", "coordinates": [121.5578, 25.0502]}, "properties": {"name": "台北西松高中地下停車場", "address": "台北市松山區健康路325巷19弄1號地下 ", "district": "松山區", "city": "taipei", "charger_type": "AC+DC", "slots": 0}}, {"type": "Feature", "geometry": {"type": "Point", "coordinates": [121.543, 25.0267]}, "properties": {"name": "台北金華公園地下停車場", "address": "台北市大安區金華街190號地下 ", "district": "大安區", "city": "taipei", "charger_type": "AC+DC", "slots": 0}}, {"type": "Feature", "geometry": {"type": "Point", "coordinates": [121.543, 25.0267]}, "properties": {"name": "台北嘉興公園地下停車場", "address": "台北市大安區嘉興街373號地下 ", "district": "大安區", "city": "taipei", "charger_type": "AC+DC", "slots": 0}}, {"type": "Feature", "geometry": {"type": "Point", "coordinates": [121.5648, 25.033]}, "properties": {"name": "台北松山高中地下停車場", "address": "台北市信義區基隆路1段156號地下 ", "district": "信義區", "city": "taipei", "charger_type": "AC+DC", "slots": 0}}, {"type": "Feature", "geometry": {"type": "Point", "coordinates": [121.5578, 25.0502]}, "properties": {"name": "台北松山國小地下停車場", "address": "台北市松山區八德路4段746號 ", "district": "松山區", "city": "taipei", "charger_type": "AC+DC", "slots": 0}}, {"type": "Feature", "geometry": {"type": "Point", "coordinates": [121.5648, 25.033]}, "properties": {"name": "台北忠信公園地下停車場", "address": "台北市信義區松仁路2號地下 ", "district": "信義區", "city": "taipei", "charger_type": "AC+DC", "slots": 0}}, {"type": "Feature", "geometry": {"type": "Point", "coordinates": [121.5648, 25.033]}, "properties": {"name": "台北信義廣場地下停車場", "address": "台北市信義區信義路5段11號地下 ", "district": "信義區", "city": "taipei", "charger_type": "AC+DC", "slots": 0}}, {"type": "Feature", "geometry": {"type": "Point", "coordinates": [121.5648, 25.033]}, "properties": {"name": "台北信義國小地下停車場", "address": "台北市信義區松勤路60號地下 ", "district": "信義區", "city": "taipei", "charger_type": "AC+DC", "slots": 0}}, {"type": "Feature", "geometry": {"type": "Point", "coordinates": [121.5687, 24.9961]}, "properties": {"name": "台北興隆公園地下停車場", "address": "台北市文山區仙岩路128號地下 ", "district": "文山區", "city": "taipei", "charger_type": "AC+DC", "slots": 0}}, {"type": "Feature", "geometry": {"type": "Point", "coordinates": [121.5687, 24.9961]}, "properties": {"name": "台北萬興國小地下停車場", "address": "台北市文山區秀明路2段116號地下 ", "district": "文山區", "city": "taipei", "charger_type": "AC+DC", "slots": 0}}, {"type": "Feature", "geometry": {"type": "Point", "coordinates": [121.5648, 25.033]}, "properties": {"name": "微風南山站", "address": "台北市信義區松智路17號", "district": "信義區", "city": "taipei", "charger_type": "AC+DC", "slots": 0}}, {"type": "Feature", "geometry": {"type": "Point", "coordinates": [121.5648, 25.033]}, "properties": {"name": "微風松高站", "address": "台北市信義區松高路16號", "district": "信義區", "city": "taipei", "charger_type": "AC+DC", "slots": 0}}, {"type": "Feature", "geometry": {"type": "Point", "coordinates": [121.5648, 25.033]}, "properties": {"name": "微風信義站", "address": "台北市信義區忠孝東路五段68號", "district": "信義區", "city": "taipei", "charger_type": "AC+DC", "slots": 0}}, {"type": "Feature", "geometry": {"type": "Point", "coordinates": [121.574677248287, 25.064080182958]}, "properties": {"name": "台北禮客內湖店", "address": "台北市內湖區民善街205號", "district": "內湖區", "city": "taipei", "charger_type": "AC+DC", "slots": 0}}, {"type": "Feature", "geometry": {"type": "Point", "coordinates": [121.5881, 25.0838]}, "properties": {"name": "麥當勞台北舊宗二餐廳", "address": "台北市內湖區舊宗路一段189號內湖舊宗郵局旁", "district": "內湖區", "city": "taipei", "charger_type": "AC+DC", "slots": 0}}, {"type": "Feature", "geometry": {"type": "Point", "coordinates": [121.559479349088, 25.058425290072]}, "properties": {"name": "台北民生立體停車場", "address": "台北市松山區民生東路5段84號 ", "district": "松山區", "city": "taipei", "charger_type": "AC+DC", "slots": 0}}, {"type": "Feature", "geometry": {"type": "Point", "coordinates": [121.54105492008, 25.03272859614]}, "properties": {"name": "台北大安高工地下停車場", "address": "台北市大安區信義路3段166巷6弄12 號地下 ", "district": "大安區", "city": "taipei", "charger_type": "AC+DC", "slots": 0}}, {"type": "Feature", "geometry": {"type": "Point", "coordinates": [121.543, 25.0267]}, "properties": {"name": "台北大安森林公園地下停車場", "address": "台北市大安區建國南路2段2號地下 ", "district": "大安區", "city": "taipei", "charger_type": "AC+DC", "slots": 0}}, {"type": "Feature", "geometry": {"type": "Point", "coordinates": [121.5648, 25.033]}, "properties": {"name": "台北五分埔公園地下停車場", "address": "台北市信義區中坡北路57號地下 ", "district": "信義區", "city": "taipei", "charger_type": "AC+DC", "slots": 0}}, {"type": "Feature", "geometry": {"type": "Point", "coordinates": [121.5648, 25.033]}, "properties": {"name": "台北興雅國中地下停車場", "address": "台北市信義區松德路200巷18號地下 ", "district": "信義區", "city": "taipei", "charger_type": "AC+DC", "slots": 0}}, {"type": "Feature", "geometry": {"type": "Point", "coordinates": [121.5648, 25.033]}, "properties": {"name": "台北松山工農地下停車場", "address": "台北市信義區忠孝東路5段236巷15號地下 ", "district": "信義區", "city": "taipei", "charger_type": "AC+DC", "slots": 0}}, {"type": "Feature", "geometry": {"type": "Point", "coordinates": [121.5648, 25.033]}, "properties": {"name": "台北臺北市災害應變中心地下停車場", "address": "台北市信義區莊敬路391巷11弄2號地下 ", "district": "信義區", "city": "taipei", "charger_type": "AC+DC", "slots": 0}}, {"type": "Feature", "geometry": {"type": "Point", "coordinates": [121.5881, 25.0838]}, "properties": {"name": "台北石潭平面停車場", "address": "台北市內湖區民權東路6段與成功路二段旁 ", "district": "內湖區", "city": "taipei", "charger_type": "AC+DC", "slots": 0}}, {"type": "Feature", "geometry": {"type": "Point", "coordinates": [121.572730718913, 25.08569518341]}, "properties": {"name": "台北環山平面停車場", "address": "台北市內湖區環山路2段與內湖路1段411巷口 ", "district": "內湖區", "city": "taipei", "charger_type": "AC+DC", "slots": 0}}, {"type": "Feature", "geometry": {"type": "Point", "coordinates": [121.6068, 25.055]}, "properties": {"name": "台北福山平面停車場", "address": "台北市南港區福山街4號旁 ", "district": "南港區", "city": "taipei", "charger_type": "AC+DC", "slots": 0}}, {"type": "Feature", "geometry": {"type": "Point", "coordinates": [121.5881, 25.0838]}, "properties": {"name": "台北文湖平面停車場", "address": "台北市內湖區文湖街21巷口文湖國小旁 ", "district": "內湖區", "city": "taipei", "charger_type": "AC+DC", "slots": 0}}, {"type": "Feature", "geometry": {"type": "Point", "coordinates": [121.561553367209, 25.050336627779]}, "properties": {"name": "台北吉祥平面停車場", "address": "台北市松山區光復北路11巷81號旁 ", "district": "松山區", "city": "taipei", "charger_type": "AC+DC", "slots": 0}}, {"type": "Feature", "geometry": {"type": "Point", "coordinates": [121.5648, 25.033]}, "properties": {"name": "台北正氣橋下平面停車場", "address": "台北市信義區基隆路1段35巷至65號間對面 ", "district": "信義區", "city": "taipei", "charger_type": "AC+DC", "slots": 0}}, {"type": "Feature", "geometry": {"type": "Point", "coordinates": [121.536685174748, 25.054752279187]}, "properties": {"name": "台北長春路龍江路臨時平面停車場", "address": "台北市中山區長春路、龍江路交叉口 ", "district": "中山區", "city": "taipei", "charger_type": "AC+DC", "slots": 0}}, {"type": "Feature", "geometry": {"type": "Point", "coordinates": [121.5199, 25.033]}, "properties": {"name": "台北耕莘文教院前平面停車場", "address": "台北市中正區辛亥路1段22號前(耕莘文教院前) ", "district": "中正區", "city": "taipei", "charger_type": "AC+DC", "slots": 0}}, {"type": "Feature", "geometry": {"type": "Point", "coordinates": [121.5687, 24.9961]}, "properties": {"name": "台北三福街平面停車場", "address": "台北市文山區景隆街36巷內 ", "district": "文山區", "city": "taipei", "charger_type": "AC+DC", "slots": 0}}, {"type": "Feature", "geometry": {"type": "Point", "coordinates": [121.5687, 24.9961]}, "properties": {"name": "台北保儀路平面停車場", "address": "台北市文山區保儀路157號對面 ", "district": "文山區", "city": "taipei", "charger_type": "AC+DC", "slots": 0}}, {"type": "Feature", "geometry": {"type": "Point", "coordinates": [121.5687, 24.9961]}, "properties": {"name": "台北政大三街臨時平面停車場", "address": "台北市文山區政大三街53號旁 ", "district": "文山區", "city": "taipei", "charger_type": "AC+DC", "slots": 0}}, {"type": "Feature", "geometry": {"type": "Point", "coordinates": [121.5687, 24.9961]}, "properties": {"name": "台北景豐臨時平面停車場", "address": "台北市文山區景豐街79號旁 ", "district": "文山區", "city": "taipei", "charger_type": "AC+DC", "slots": 0}}, {"type": "Feature", "geometry": {"type": "Point", "coordinates": [121.5687, 24.9961]}, "properties": {"name": "台北樟新平面停車場", "address": "台北市文山區一壽街3巷與17巷之間 ", "district": "文山區", "city": "taipei", "charger_type": "AC+DC", "slots": 0}}, {"type": "Feature", "geometry": {"type": "Point", "coordinates": [121.5648, 25.033]}, "properties": {"name": "台北吳興街284巷臨時平面", "address": "台北市信義區吳興街284巷與吳興街260 巷21弄交叉口旁 ", "district": "信義區", "city": "taipei", "charger_type": "AC+DC", "slots": 0}}, {"type": "Feature", "geometry": {"type": "Point", "coordinates": [121.5648, 25.033]}, "properties": {"name": "台北信義路5段150巷臨時平面停車場", "address": "台北市信義區信義路5段150巷與信義路5段150巷342弄交叉口 ", "district": "信義區", "city": "taipei", "charger_type": "AC+DC", "slots": 0}}, {"type": "Feature", "geometry": {"type": "Point", "coordinates": [121.5881, 25.0838]}, "properties": {"name": "台北康寧平面停車場", "address": "台北市內湖區民權東路6段與康寧路2段圓環旁", "district": "內湖區", "city": "taipei", "charger_type": "AC+DC", "slots": 0}}, {"type": "Feature", "geometry": {"type": "Point", "coordinates": [121.5578, 25.0502]}, "properties": {"name": "台北光復北路平面停車場", "address": "台北市松山區八德路4段17巷9號", "district": "松山區", "city": "taipei", "charger_type": "AC+DC", "slots": 0}}, {"type": "Feature", "geometry": {"type": "Point", "coordinates": [121.5648, 25.033]}, "properties": {"name": "台北中油大樓停車場", "address": "台北市信義區松仁路3號", "district": "信義區", "city": "taipei", "charger_type": "AC+DC", "slots": 0}}, {"type": "Feature", "geometry": {"type": "Point", "coordinates": [121.5648, 25.033]}, "properties": {"name": "台北松山車站地下停車場", "address": "台北市信義區松山路11號南廣場地下 ", "district": "信義區", "city": "taipei", "charger_type": "AC+DC", "slots": 0}}, {"type": "Feature", "geometry": {"type": "Point", "coordinates": [121.5881, 25.0838]}, "properties": {"name": "台北金湖臨時平面停車場", "address": "台北市內湖區金湖路100號旁 ", "district": "內湖區", "city": "taipei", "charger_type": "AC+DC", "slots": 0}}, {"type": "Feature", "geometry": {"type": "Point", "coordinates": [121.5881, 25.0838]}, "properties": {"name": "台北安康公車調度站臨時平面", "address": "台北市內湖區五分街12號 ", "district": "內湖區", "city": "taipei", "charger_type": "AC+DC", "slots": 0}}, {"type": "Feature", "geometry": {"type": "Point", "coordinates": [121.5687, 24.9961]}, "properties": {"name": "台北水源快速道路下平面停車場", "address": "台北市文山區溪州街水源快速道路下", "district": "文山區", "city": "taipei", "charger_type": "AC+DC", "slots": 0}}, {"type": "Feature", "geometry": {"type": "Point", "coordinates": [121.5578, 25.0502]}, "properties": {"name": "中油復興北路加油站", "address": "台北市松山區復興北路31號", "district": "松山區", "city": "taipei", "charger_type": "AC+DC", "slots": 0}}, {"type": "Feature", "geometry": {"type": "Point", "coordinates": [121.546741789927, 25.060500691207]}, "properties": {"name": "台北民有市場地下停車場", "address": "台北市松山區民權東路3段140巷15號地下 ", "district": "松山區", "city": "taipei", "charger_type": "AC+DC", "slots": 0}}, {"type": "Feature", "geometry": {"type": "Point", "coordinates": [121.538030394138, 25.024899982393]}, "properties": {"name": "台北龍門國中地下停車場", "address": "台北市大安區建國南路2段269號地下 ", "district": "大安區", "city": "taipei", "charger_type": "AC+DC", "slots": 0}}, {"type": "Feature", "geometry": {"type": "Point", "coordinates": [121.543, 25.0267]}, "properties": {"name": "台北辛亥路高架橋下停車場", "address": "台北市大安區新生南路、辛亥高架橋下 ", "district": "大安區", "city": "taipei", "charger_type": "AC+DC", "slots": 0}}, {"type": "Feature", "geometry": {"type": "Point", "coordinates": [121.5366, 25.0698]}, "properties": {"name": "台北新生公園停車場", "address": "台北市中山區民族東路與吉林路口(新生公園溫水游泳池旁)", "district": "中山區", "city": "taipei", "charger_type": "AC+DC", "slots": 0}}, {"type": "Feature", "geometry": {"type": "Point", "coordinates": [121.5366, 25.0698]}, "properties": {"name": "台北中山北路3段55巷停車場", "address": "台北市中山區中山北路3段55巷 ", "district": "中山區", "city": "taipei", "charger_type": "AC+DC", "slots": 0}}, {"type": "Feature", "geometry": {"type": "Point", "coordinates": [121.542407456349, 25.062511598989]}, "properties": {"name": "台北五常街臨時平面停車場", "address": "台北市中山區五常街與民權東路3段39 巷口 ", "district": "中山區", "city": "taipei", "charger_type": "AC+DC", "slots": 0}}, {"type": "Feature", "geometry": {"type": "Point", "coordinates": [121.574494719223, 25.031560350749]}, "properties": {"name": "台北松德臨時平面停車場", "address": "台北市信義區松德路底(中強公園旁) ", "district": "信義區", "city": "taipei", "charger_type": "AC+DC", "slots": 0}}, {"type": "Feature", "geometry": {"type": "Point", "coordinates": [121.5687, 24.9961]}, "properties": {"name": "台北和平東路4段381巷平面停車場", "address": "台北市文山區和平東路4段381巷內 ", "district": "文山區", "city": "taipei", "charger_type": "AC+DC", "slots": 0}}, {"type": "Feature", "geometry": {"type": "Point", "coordinates": [121.5687, 24.9961]}, "properties": {"name": "台北興隆市場旁停車場", "address": "台北市文山區興隆路2段97號旁 ", "district": "文山區", "city": "taipei", "charger_type": "AC+DC", "slots": 0}}, {"type": "Feature", "geometry": {"type": "Point", "coordinates": [121.5687, 24.9961]}, "properties": {"name": "台北萬芳八號公園停車場", "address": "台北市文山區公務員訓練中心旁 ", "district": "文山區", "city": "taipei", "charger_type": "AC+DC", "slots": 0}}, {"type": "Feature", "geometry": {"type": "Point", "coordinates": [121.5366, 25.0698]}, "properties": {"name": "台北長春路平面停車場", "address": "台北市中山區松江路160巷5-5號旁", "district": "中山區", "city": "taipei", "charger_type": "AC+DC", "slots": 0}}, {"type": "Feature", "geometry": {"type": "Point", "coordinates": [121.540570760754, 25.054282441856]}, "properties": {"name": "台北龍江平面停車場", "address": "台北市中山區遼寧街、龍江路155巷口", "district": "中山區", "city": "taipei", "charger_type": "AC+DC", "slots": 0}}, {"type": "Feature", "geometry": {"type": "Point", "coordinates": [121.6068, 25.055]}, "properties": {"name": "台北南港軟體園區二期南站", "address": "台北市南港區新民街興東街口南側廣場(H棟大樓側)", "district": "南港區", "city": "taipei", "charger_type": "AC+DC", "slots": 0}}, {"type": "Feature", "geometry": {"type": "Point", "coordinates": [121.6068, 25.055]}, "properties": {"name": "台北南港軟體園區二期北站", "address": "台北市南港區園區街58巷北側廣場(F棟大樓側)", "district": "南港區", "city": "taipei", "charger_type": "AC+DC", "slots": 0}}, {"type": "Feature", "geometry": {"type": "Point", "coordinates": [121.5721466679, 25.075112904923]}, "properties": {"name": "台北內湖堤頂大道超級綠洲", "address": "台北市內湖區堤頂大道二段與瑞光路316巷口", "district": "內湖區", "city": "taipei", "charger_type": "AC+DC", "slots": 0}}, {"type": "Feature", "geometry": {"type": "Point", "coordinates": [121.498, 25.1319]}, "properties": {"name": "洲美運動公園地下停車場", "address": "台北市北投區洲美街271號", "district": "北投區", "city": "taipei", "charger_type": "AC+DC", "slots": 0}}, {"type": "Feature", "geometry": {"type": "Point", "coordinates": [121.5687, 24.9961]}, "properties": {"name": "台北景文平面停車場", "address": "台北市文山區景文街90巷內廣場停車場 ", "district": "文山區", "city": "taipei", "charger_type": "AC+DC", "slots": 0}}, {"type": "Feature", "geometry": {"type": "Point", "coordinates": [121.498, 25.1319]}, "properties": {"name": "北投大度路超級綠洲", "address": "台北市北投區大度路三段慈濟大愛電視台斜對面", "district": "北投區", "city": "taipei", "charger_type": "AC+DC", "slots": 0}}, {"type": "Feature", "geometry": {"type": "Point", "coordinates": [121.528041727189, 25.06705891754]}, "properties": {"name": "台北新生高架橋下(民族-農安段)停車場", "address": "台北市中山區新生北路三段75號前高架下入口", "district": "中山區", "city": "taipei", "charger_type": "AC+DC", "slots": 0}}, {"type": "Feature", "geometry": {"type": "Point", "coordinates": [121.5881, 25.0838]}, "properties": {"name": "奧迪北區股份有限公司", "address": "台北市內湖區行忠路178巷2號", "district": "內湖區", "city": "taipei", "charger_type": "AC+DC", "slots": 0}}, {"type": "Feature", "geometry": {"type": "Point", "coordinates": [121.6068, 25.055]}, "properties": {"name": "奧迪北區股份有限公司", "address": "台北市南港區南港路二段155號", "district": "南港區", "city": "taipei", "charger_type": "AC+DC", "slots": 0}}, {"type": "Feature", "geometry": {"type": "Point", "coordinates": [121.5129, 25.063]}, "properties": {"name": "京站時尚廣場附屬停車場", "address": "台北市大同區承德路一段一號B5樓", "district": "大同區", "city": "taipei", "charger_type": "AC+DC", "slots": 0}}, {"type": "Feature", "geometry": {"type": "Point", "coordinates": [121.579237003615, 25.067183037785]}, "properties": {"name": "順益汽車股份有限公司(內湖營業所)", "address": "台北市內湖區民權東路六段13-15號", "district": "內湖區", "city": "taipei", "charger_type": "AC+DC", "slots": 0}}, {"type": "Feature", "geometry": {"type": "Point", "coordinates": [121.5648, 25.033]}, "properties": {"name": "YES 松菸文創", "address": "台北市信義區菸廠路88號B4", "district": "信義區", "city": "taipei", "charger_type": "AC+DC", "slots": 0}}, {"type": "Feature", "geometry": {"type": "Point", "coordinates": [121.5129, 25.063]}, "properties": {"name": "保證責任台北市台北地下街場地利用合作社", "address": "台北市大同區鄭州路115號", "district": "大同區", "city": "taipei", "charger_type": "AC+DC", "slots": 0}}, {"type": "Feature", "geometry": {"type": "Point", "coordinates": [121.529990975526, 25.06277461772]}, "properties": {"name": "亞都麗緻大飯店股份有限公司", "address": "台北市中山區民權東路二段41號", "district": "中山區", "city": "taipei", "charger_type": "AC+DC", "slots": 0}}, {"type": "Feature", "geometry": {"type": "Point", "coordinates": [121.5199, 25.033]}, "properties": {"name": "YES匯泰大樓華山站", "address": "臺北市中正區北平東路30-1號", "district": "中正區", "city": "taipei", "charger_type": "AC+DC", "slots": 0}}, {"type": "Feature", "geometry": {"type": "Point", "coordinates": [121.5366, 25.0698]}, "properties": {"name": "YES欣欣百貨", "address": "臺北市中山區新生北路二段28巷1號", "district": "中山區", "city": "taipei", "charger_type": "AC+DC", "slots": 0}}, {"type": "Feature", "geometry": {"type": "Point", "coordinates": [121.5243, 25.093]}, "properties": {"name": "台北福林站", "address": "台北市士林區中山北路五段465號旁", "district": "士林區", "city": "taipei", "charger_type": "AC+DC", "slots": 0}}, {"type": "Feature", "geometry": {"type": "Point", "coordinates": [121.5366, 25.0698]}, "properties": {"name": "大直美麗華站", "address": "台北市中山區敬業三路20號", "district": "中山區", "city": "taipei", "charger_type": "AC+DC", "slots": 0}}, {"type": "Feature", "geometry": {"type": "Point", "coordinates": [121.616362380617, 25.05152333763]}, "properties": {"name": "南港研究院路站", "address": "台北市南港區研究院路一段101巷16弄8號", "district": "南港區", "city": "taipei", "charger_type": "AC+DC", "slots": 0}}, {"type": "Feature", "geometry": {"type": "Point", "coordinates": [121.52007342387, 25.093954333614]}, "properties": {"name": "士林瑋信捷豹路虎快充站", "address": "台北市士林區中正路418號", "district": "士林區", "city": "taipei", "charger_type": "AC+DC", "slots": 0}}, {"type": "Feature", "geometry": {"type": "Point", "coordinates": [121.5199, 25.033]}, "properties": {"name": "自來水公館慢充站", "address": "台北市中正區汀洲路三段230巷15號", "district": "中正區", "city": "taipei", "charger_type": "AC+DC", "slots": 0}}, {"type": "Feature", "geometry": {"type": "Point", "coordinates": [121.5199, 25.033]}, "properties": {"name": "自來水水源慢充站", "address": "台北市中正區汀洲路三段104巷", "district": "中正區", "city": "taipei", "charger_type": "AC+DC", "slots": 0}}, {"type": "Feature", "geometry": {"type": "Point", "coordinates": [121.5243, 25.093]}, "properties": {"name": "台北士林萬麗酒店", "address": "台北市士林區中山北路五段470巷8號", "district": "士林區", "city": "taipei", "charger_type": "AC+DC", "slots": 0}}, {"type": "Feature", "geometry": {"type": "Point", "coordinates": [121.5881, 25.0838]}, "properties": {"name": "IKEA 宜家家居 內湖店", "address": "台北市內湖區舊宗路一段128號", "district": "內湖區", "city": "taipei", "charger_type": "AC+DC", "slots": 0}}, {"type": "Feature", "geometry": {"type": "Point", "coordinates": [121.543, 25.0267]}, "properties": {"name": "遠東SOGO台北復興館", "address": "台北市大安區忠孝東路三段300號", "district": "大安區", "city": "taipei", "charger_type": "AC+DC", "slots": 0}}, {"type": "Feature", "geometry": {"type": "Point", "coordinates": [121.52427803796, 25.105007004507]}, "properties": {"name": "遠東SOGO天母館", "address": "台北市士林區中山北路六段77號", "district": "士林區", "city": "taipei", "charger_type": "AC+DC", "slots": 0}}, {"type": "Feature", "geometry": {"type": "Point", "coordinates": [121.544882767622, 25.041902421527]}, "properties": {"name": "遠東SOGO忠孝館", "address": "台北市大安區忠孝東路四段45號", "district": "大安區", "city": "taipei", "charger_type": "AC+DC", "slots": 0}}, {"type": "Feature", "geometry": {"type": "Point", "coordinates": [121.567967870072, 25.036731960735]}, "properties": {"name": "大遠百A13", "address": "台北市信義區松仁路58號", "district": "信義區", "city": "taipei", "charger_type": "AC+DC", "slots": 0}}, {"type": "Feature", "geometry": {"type": "Point", "coordinates": [121.543, 25.0267]}, "properties": {"name": "遠企中心", "address": "台北市大安區敦化南路二段207號", "district": "大安區", "city": "taipei", "charger_type": "AC+DC", "slots": 0}}, {"type": "Feature", "geometry": {"type": "Point", "coordinates": [121.577727339034, 25.065682551388]}, "properties": {"name": "U-POWER 內湖行忠站", "address": "台北市內湖區行忠路65號", "district": "內湖區", "city": "taipei", "charger_type": "DC", "slots": 0}}, {"type": "Feature", "geometry": {"type": "Point", "coordinates": [121.471711183652, 25.123427368292]}, "properties": {"name": "U-POWER 臺北北投立德站", "address": "臺北市北投區立德路2號", "district": "北投區", "city": "taipei", "charger_type": "DC", "slots": 0}}, {"type": "Feature", "geometry": {"type": "Point", "coordinates": [121.5881, 25.0838]}, "properties": {"name": "U-POWER 臺北內湖行忠站", "address": "臺北市內湖區新湖二路與民善街口(新湖一路141號對面停車場(含電動車充電樁))", "district": "內湖區", "city": "taipei", "charger_type": "DC", "slots": 0}}, {"type": "Feature", "geometry": {"type": "Point", "coordinates": [121.5687, 24.9961]}, "properties": {"name": "U-POWER 臺北文山木柵站", "address": "臺北市文山區木柵路四段111巷捷運站對面", "district": "文山區", "city": "taipei", "charger_type": "DC", "slots": 0}}, {"type": "Feature", "geometry": {"type": "Point", "coordinates": [121.5199, 25.033]}, "properties": {"name": "U-POWER 臺北仁愛金山南站", "address": "臺北市中正區金山南路一段67巷12號", "district": "中正區", "city": "taipei", "charger_type": "DC", "slots": 0}}, {"type": "Feature", "geometry": {"type": "Point", "coordinates": [121.549953902862, 25.051355573838]}, "properties": {"name": "台北小巨蛋地下停車場", "address": "台北市松山區南京東路四段2號", "district": "松山區", "city": "taipei", "charger_type": "AC+DC", "slots": 0}}, {"type": "Feature", "geometry": {"type": "Point", "coordinates": [121.6068, 25.055]}, "properties": {"name": "南港展覽館2館", "address": "台北市南港區經貿二路2號", "district": "南港區", "city": "taipei", "charger_type": "AC+DC", "slots": 0}}, {"type": "Feature", "geometry": {"type": "Point", "coordinates": [121.505716481016, 25.046433343108]}, "properties": {"name": "昆明地下停車場(亞曼尼大樓)", "address": "台北市萬華區昆明街46號B1", "district": "萬華區", "city": "taipei", "charger_type": "AC+DC", "slots": 0}}, {"type": "Feature", "geometry": {"type": "Point", "coordinates": [121.5881, 25.0838]}, "properties": {"name": "內湖污水處理廠附屬公園停車場", "address": "台北市內湖區舊宗路二段2號汙水廠旁停車場", "district": "內湖區", "city": "taipei", "charger_type": "AC+DC", "slots": 0}}, {"type": "Feature", "geometry": {"type": "Point", "coordinates": [121.5366, 25.0698]}, "properties": {"name": "新生高架(錦州街-民權東路)停車場", "address": "台北市中山區新生北路二段144號對面停車場", "district": "中山區", "city": "taipei", "charger_type": "AC+DC", "slots": 0}}, {"type": "Feature", "geometry": {"type": "Point", "coordinates": [121.5366, 25.0698]}, "properties": {"name": "新生高架(南京東路-長安東路)停車場", "address": "台北市中山區新生北路一段122號對面停車場", "district": "中山區", "city": "taipei", "charger_type": "AC+DC", "slots": 0}}, {"type": "Feature", "geometry": {"type": "Point", "coordinates": [121.542365346822, 25.05279587817]}, "properties": {"name": "富邦人壽保險股份有限公司", "address": "台北市中山區遼寧街177號B1及B4至B6停車場", "district": "中山區", "city": "taipei", "charger_type": "AC+DC", "slots": 0}}, {"type": "Feature", "geometry": {"type": "Point", "coordinates": [121.5881, 25.0838]}, "properties": {"name": "永固便利(港墘站)停車場", "address": "台北市內湖區內湖路一段596號旁停車場", "district": "內湖區", "city": "taipei", "charger_type": "AC+DC", "slots": 0}}, {"type": "Feature", "geometry": {"type": "Point", "coordinates": [121.5243, 25.093]}, "properties": {"name": "台北至善站", "address": "台北市士林區至善路1段雙溪公園斜對面", "district": "士林區", "city": "taipei", "charger_type": "AC+DC", "slots": 0}}, {"type": "Feature", "geometry": {"type": "Point", "coordinates": [121.5199, 25.033]}, "properties": {"name": "台北市新光摩天大樓B3停車場", "address": "台北市中正區忠孝西路一段66號", "district": "中正區", "city": "taipei", "charger_type": "DC", "slots": 0}}, {"type": "Feature", "geometry": {"type": "Point", "coordinates": [121.5243, 25.093]}, "properties": {"name": "泓德總部", "address": "台北市士林區德行西路35號B1", "district": "士林區", "city": "taipei", "charger_type": "DC", "slots": 0}}, {"type": "Feature", "geometry": {"type": "Point", "coordinates": [121.5243, 25.093]}, "properties": {"name": "天母傑仕堡站", "address": "台北市士林區忠誠路二段180號B1", "district": "士林區", "city": "taipei", "charger_type": "DC", "slots": 0}}, {"type": "Feature", "geometry": {"type": "Point", "coordinates": [121.5366, 25.0698]}, "properties": {"name": "大直NOKE忠泰樂生活", "address": "台北市中山區樂群三路200號 (B1、B2)", "district": "中山區", "city": "taipei", "charger_type": "DC", "slots": 0}}, {"type": "Feature", "geometry": {"type": "Point", "coordinates": [121.5881, 25.0838]}, "properties": {"name": "恰吉先生充電站", "address": "台北市內湖區蘆洲里安美街123號1樓", "district": "內湖區", "city": "taipei", "charger_type": "AC+DC", "slots": 0}}, {"type": "Feature", "geometry": {"type": "Point", "coordinates": [121.521529360451, 25.094574049625]}, "properties": {"name": "台北市士林區Lexus士林營業所", "address": "台北市士林區中正路350號", "district": "士林區", "city": "taipei", "charger_type": "AC+DC", "slots": 0}}, {"type": "Feature", "geometry": {"type": "Point", "coordinates": [121.56666691488, 25.039359058737]}, "properties": {"name": "台北市信義區松高路19號", "address": "台北市信義區松高路19號", "district": "信義區", "city": "taipei", "charger_type": "AC+DC", "slots": 0}}, {"type": "Feature", "geometry": {"type": "Point", "coordinates": [121.5648, 25.033]}, "properties": {"name": "台北市信義區松壽路11號", "address": "台北市信義區松壽路11號", "district": "信義區", "city": "taipei", "charger_type": "AC+DC", "slots": 0}}, {"type": "Feature", "geometry": {"type": "Point", "coordinates": [121.5648, 25.033]}, "properties": {"name": "台北市信義區松高路12號", "address": "台北市信義區松高路12號", "district": "信義區", "city": "taipei", "charger_type": "AC+DC", "slots": 0}}, {"type": "Feature", "geometry": {"type": "Point", "coordinates": [121.534037339284, 25.117079794927]}, "properties": {"name": "台北市士林區忠誠路二段200號", "address": "台北市士林區忠誠路二段200號", "district": "士林區", "city": "taipei", "charger_type": "AC+DC", "slots": 0}}, {"type": "Feature", "geometry": {"type": "Point", "coordinates": [121.5366, 25.0698]}, "properties": {"name": "台北市中山區南京西路12號", "address": "台北市中山區南京西路12號", "district": "中山區", "city": "taipei", "charger_type": "AC+DC", "slots": 0}}, {"type": "Feature", "geometry": {"type": "Point", "coordinates": [121.5243, 25.093]}, "properties": {"name": "全國台北交流道加油站", "address": "台北市士林區重慶北路四段141號", "district": "士林區", "city": "taipei", "charger_type": "AC+DC", "slots": 0}}, {"type": "Feature", "geometry": {"type": "Point", "coordinates": [121.5881, 25.0838]}, "properties": {"name": "全國港墘路加油站", "address": "台北市內湖區港墘路250號", "district": "內湖區", "city": "taipei", "charger_type": "AC+DC", "slots": 0}}]}