{"type": "FeatureCollection", "features": [{"type": "Feature", "geometry": {"type": "Point", "coordinates": [121.52653082877532, 25.085400172083563]}, "properties": {"name": "中華汽車社子服務廠", "address": "臺北市士林區延平北路6段434號", "district": "士林區", "city": "taipei", "operator": "中華汽車社子服務廠", "note": "中華汽車服務廠"}}, {"type": "Feature", "geometry": {"type": "Point", "coordinates": [121.5845004690939, 25.07937137181038]}, "properties": {"name": "中華汽車內湖1服務廠", "address": "臺北市內湖區內湖路一段411巷56號", "district": "內湖區", "city": "taipei", "operator": "中華汽車內湖1服務廠", "note": "中華汽車服務廠"}}, {"type": "Feature", "geometry": {"type": "Point", "coordinates": [121.50178353942663, 25.134727191798767]}, "properties": {"name": "中華汽車北投服務廠", "address": "臺北市北投區大業路262號", "district": "北投區", "city": "taipei", "operator": "中華汽車北投服務廠", "note": "中華汽車服務廠"}}, {"type": "Feature", "geometry": {"type": "Point", "coordinates": [121.61307487308328, 25.04839102132207]}, "properties": {"name": "中華汽車南港服務廠", "address": "臺北市南港區成功路一段36巷20號", "district": "南港區", "city": "taipei", "operator": "中華汽車南港服務廠", "note": "中華汽車服務廠"}}, {"type": "Feature", "geometry": {"type": "Point", "coordinates": [121.52305074911496, 25.08547675551101]}, "properties": {"name": "福林公園地下停車場", "address": "臺北市士林區中正路17號", "district": "士林區", "city": "taipei", "operator": "福林公園地下停車場", "note": "公有停車場"}}, {"type": "Feature", "geometry": {"type": "Point", "coordinates": [121.51979820759685, 25.093085684609655]}, "properties": {"name": "文昌國小地下停車場", "address": "臺北市士林區文林路615巷20號地下", "district": "士林區", "city": "taipei", "operator": "文昌國小地下停車場", "note": "公有停車場"}}, {"type": "Feature", "geometry": {"type": "Point", "coordinates": [121.51672457551494, 25.088181402410985]}, "properties": {"name": "社子國小地下停車場", "address": "臺北市士林區延平北路6段308號地下", "district": "士林區", "city": "taipei", "operator": "社子國小地下停車場", "note": "公有停車場"}}, {"type": "Feature", "geometry": {"type": "Point", "coordinates": [121.52669815100447, 25.09371906368965]}, "properties": {"name": "承德公園地下停車場", "address": "臺北市士林區基河路150號", "district": "士林區", "city": "taipei", "operator": "承德公園地下停車場", "note": "公有停車場"}}, {"type": "Feature", "geometry": {"type": "Point", "coordinates": [121.50842704995266, 25.064428250942015]}, "properties": {"name": "啟聰學校地下停車場", "address": "臺北市大同區延平北路4段205號", "district": "大同區", "city": "taipei", "operator": "啟聰學校地下停車場", "note": "公有停車場"}}, {"type": "Feature", "geometry": {"type": "Point", "coordinates": [121.51785088730685, 25.055103980154847]}, "properties": {"name": "建成公園地下停車場", "address": "臺北市大同區承德路2段31號", "district": "大同區", "city": "taipei", "operator": "建成公園地下停車場", "note": "公有停車場"}}, {"type": "Feature", "geometry": {"type": "Point", "coordinates": [121.51779310802932, 25.06617023031981]}, "properties": {"name": "建成國中地下停車場", "address": "臺北市大同區長安西路37號之1", "district": "大同區", "city": "taipei", "operator": "建成國中地下停車場", "note": "公有停車場"}}, {"type": "Feature", "geometry": {"type": "Point", "coordinates": [121.51034400826428, 25.057487671996988]}, "properties": {"name": "大龍國小地下停車場", "address": "臺北市大同區哈密街47號", "district": "大同區", "city": "taipei", "operator": "大龍國小地下停車場", "note": "公有停車場"}}, {"type": "Feature", "geometry": {"type": "Point", "coordinates": [121.52021540915531, 25.0603855127218]}, "properties": {"name": "蓬萊國小地下停車場", "address": "臺北市大同區寧夏路35號", "district": "大同區", "city": "taipei", "operator": "蓬萊國小地下停車場", "note": "公有停車場"}}, {"type": "Feature", "geometry": {"type": "Point", "coordinates": [121.53648393349408, 25.02024746202934]}, "properties": {"name": "龍門國中地下停車場", "address": "臺北市大安區建國南路2段269號地下停車場", "district": "大安區", "city": "taipei", "operator": "龍門國中地下停車場", "note": "公有停車場"}}, {"type": "Feature", "geometry": {"type": "Point", "coordinates": [121.54855990986157, 25.028359616501874]}, "properties": {"name": "大安森林公園地下停車場", "address": "臺北市大安區建國南路2段2號", "district": "大安區", "city": "taipei", "operator": "大安森林公園地下停車場", "note": "公有停車場"}}, {"type": "Feature", "geometry": {"type": "Point", "coordinates": [121.54791405237239, 25.0303757085871]}, "properties": {"name": "嘉興公園地下停車場", "address": "臺北市大安區嘉興街373號", "district": "大安區", "city": "taipei", "operator": "嘉興公園地下停車場", "note": "公有停車場"}}, {"type": "Feature", "geometry": {"type": "Point", "coordinates": [121.53717964946328, 25.077369852223672]}, "properties": {"name": "永盛公園地下停車場", "address": "臺北市中山區中山北路2段93巷30號", "district": "中山區", "city": "taipei", "operator": "永盛公園地下停車場", "note": "公有停車場"}}, {"type": "Feature", "geometry": {"type": "Point", "coordinates": [121.53465655003534, 25.07063265010037]}, "properties": {"name": "長安國小地下停車場", "address": "臺北市中山區松江路90巷14號B1樓", "district": "中山區", "city": "taipei", "operator": "長安國小地下停車場", "note": "公有停車場"}}, {"type": "Feature", "geometry": {"type": "Point", "coordinates": [121.54187047462806, 25.07169631603783]}, "properties": {"name": "榮星花園地下停車場", "address": "臺北市中山區建國北路3段39號", "district": "中山區", "city": "taipei", "operator": "榮星花園地下停車場", "note": "公有停車場"}}, {"type": "Feature", "geometry": {"type": "Point", "coordinates": [121.54238731040498, 25.07103763432411]}, "properties": {"name": "濱江國中地下停車場", "address": "臺北市中山區樂群2路266巷1號地下停車場", "district": "中山區", "city": "taipei", "operator": "濱江國中地下停車場", "note": "公有停車場"}}, {"type": "Feature", "geometry": {"type": "Point", "coordinates": [121.59137314937944, 25.07653319013849]}, "properties": {"name": "大湖公園地下停車場", "address": "臺北市內湖區成功路5段7號", "district": "內湖區", "city": "taipei", "operator": "大湖公園地下停車場", "note": "公有停車場"}}, {"type": "Feature", "geometry": {"type": "Point", "coordinates": [121.58374637241042, 25.080430207417635]}, "properties": {"name": "東湖國小地下停車場", "address": "臺北市內湖區東湖路115號地下停車場", "district": "內湖區", "city": "taipei", "operator": "東湖國小地下停車場", "note": "公有停車場"}}, {"type": "Feature", "geometry": {"type": "Point", "coordinates": [121.58137667163078, 25.07952465418178]}, "properties": {"name": "康樂合署大樓地下停車場", "address": "臺北市內湖區康樂街150號", "district": "內湖區", "city": "taipei", "operator": "康樂合署大樓地下停車場", "note": "公有停車場"}}, {"type": "Feature", "geometry": {"type": "Point", "coordinates": [121.56231602287056, 24.99254757764976]}, "properties": {"name": "永建國小地下停車場", "address": "臺北市文山區木柵路1段311巷1號", "district": "文山區", "city": "taipei", "operator": "永建國小地下停車場", "note": "公有停車場"}}, {"type": "Feature", "geometry": {"type": "Point", "coordinates": [121.57087095110823, 24.99393731486352]}, "properties": {"name": "興隆公園地下停車場", "address": "臺北市文山區仙岩路128號", "district": "文山區", "city": "taipei", "operator": "興隆公園地下停車場", "note": "公有停車場"}}, {"type": "Feature", "geometry": {"type": "Point", "coordinates": [121.56662289547387, 24.991452112492343]}, "properties": {"name": "萬興國小地下停車場", "address": "臺北市文山區秀明路2段116號", "district": "文山區", "city": "taipei", "operator": "萬興國小地下停車場", "note": "公有停車場"}}, {"type": "Feature", "geometry": {"type": "Point", "coordinates": [121.5649716451528, 25.0030864734034]}, "properties": {"name": "景美國小地下停車場", "address": "臺北市文山區景文街142巷2號地下停車場", "district": "文山區", "city": "taipei", "operator": "景美國小地下停車場", "note": "公有停車場"}}, {"type": "Feature", "geometry": {"type": "Point", "coordinates": [121.57106856616396, 24.99784609609067]}, "properties": {"name": "臺北花木批發市場地下停車場", "address": "臺北市文山區興隆路1段15號", "district": "文山區", "city": "taipei", "operator": "臺北花木批發市場地下停車場", "note": "公有停車場"}}, {"type": "Feature", "geometry": {"type": "Point", "coordinates": [121.56343821837118, 24.999766028767205]}, "properties": {"name": "興隆D2區公共住宅地下停車場", "address": "臺北市文山區興隆路4段105巷45號", "district": "文山區", "city": "taipei", "operator": "興隆D2區公共住宅地下停車場", "note": "公有停車場"}}, {"type": "Feature", "geometry": {"type": "Point", "coordinates": [121.4926144399002, 25.129971287068123]}, "properties": {"name": "七星公園地下停車場", "address": "臺北市北投區七星街3號", "district": "北投區", "city": "taipei", "operator": "七星公園地下停車場", "note": "公有停車場"}}, {"type": "Feature", "geometry": {"type": "Point", "coordinates": [121.50583237361019, 25.134139996157668]}, "properties": {"name": "振興公園地下停車場", "address": "臺北市北投區天母西路112號", "district": "北投區", "city": "taipei", "operator": "振興公園地下停車場", "note": "公有停車場"}}, {"type": "Feature", "geometry": {"type": "Point", "coordinates": [121.4989111959004, 25.13485382801584]}, "properties": {"name": "立農公園地下停車場", "address": "臺北市北投區承德路7段372號", "district": "北投區", "city": "taipei", "operator": "立農公園地下停車場", "note": "公有停車場"}}, {"type": "Feature", "geometry": {"type": "Point", "coordinates": [121.50348563072305, 25.13631599858474]}, "properties": {"name": "石牌國小地下停車場", "address": "臺北市北投區致遠二路80號地下停車場", "district": "北投區", "city": "taipei", "operator": "石牌國小地下停車場", "note": "公有停車場"}}, {"type": "Feature", "geometry": {"type": "Point", "coordinates": [121.49366476915144, 25.124413603902465]}, "properties": {"name": "陽明山立體停車場", "address": "臺北市北投區湖山路1段51號", "district": "北投區", "city": "taipei", "operator": "陽明山立體停車場", "note": "公有停車場"}}, {"type": "Feature", "geometry": {"type": "Point", "coordinates": [121.55484724876895, 25.046483854015612]}, "properties": {"name": "八德立體停車場", "address": "臺北市松山區八德路4段580號", "district": "松山區", "city": "taipei", "operator": "八德立體停車場", "note": "公有停車場"}}, {"type": "Feature", "geometry": {"type": "Point", "coordinates": [121.55317572549738, 25.05728655542936]}, "properties": {"name": "松山國小地下停車場", "address": "台北市松山區八德路四段746號", "district": "松山區", "city": "taipei", "operator": "松山國小地下停車場", "note": "公有停車場"}}, {"type": "Feature", "geometry": {"type": "Point", "coordinates": [121.56382188202356, 25.047234846092778]}, "properties": {"name": "偶戲博物館地下停車場", "address": "臺北市松山區市民大道5段99號", "district": "松山區", "city": "taipei", "operator": "偶戲博物館地下停車場", "note": "公有停車場"}}, {"type": "Feature", "geometry": {"type": "Point", "coordinates": [121.56028701864471, 25.04853011041697]}, "properties": {"name": "民有市場地下停車場", "address": "臺北市松山區民權東路3段140巷15號", "district": "松山區", "city": "taipei", "operator": "民有市場地下停車場", "note": "公有停車場"}}, {"type": "Feature", "geometry": {"type": "Point", "coordinates": [121.57143276143586, 25.0323416296414]}, "properties": {"name": "府前廣場地下停車場", "address": "台北市信義區松壽路1號B1", "district": "信義區", "city": "taipei", "operator": "府前廣場地下停車場", "note": "公有停車場"}}, {"type": "Feature", "geometry": {"type": "Point", "coordinates": [121.56103808266397, 25.028946040123106]}, "properties": {"name": "松山工農地下停車場", "address": "台北市信義區忠孝東路五段236巷15號", "district": "信義區", "city": "taipei", "operator": "松山工農地下停車場", "note": "公有停車場"}}, {"type": "Feature", "geometry": {"type": "Point", "coordinates": [121.56578189014661, 25.029203865736367]}, "properties": {"name": "春光公園地下停車場", "address": "臺北市信義區忠孝東路5段666號", "district": "信義區", "city": "taipei", "operator": "春光公園地下停車場", "note": "公有停車場"}}, {"type": "Feature", "geometry": {"type": "Point", "coordinates": [121.56615337584358, 25.039365166137642]}, "properties": {"name": "忠信廣場地下停車場", "address": "臺北市信義區松仁路2號", "district": "信義區", "city": "taipei", "operator": "忠信廣場地下停車場", "note": "公有停車場"}}, {"type": "Feature", "geometry": {"type": "Point", "coordinates": [121.56319040808225, 25.028509132146517]}, "properties": {"name": "三張里公園地下停車場", "address": "臺北市信義區松平路81號", "district": "信義區", "city": "taipei", "operator": "三張里公園地下停車場", "note": "公有停車場"}}, {"type": "Feature", "geometry": {"type": "Point", "coordinates": [121.57276060170393, 25.033152420698826]}, "properties": {"name": "信義國小地下停車場", "address": "臺北市信義區松勤街60號", "district": "信義區", "city": "taipei", "operator": "信義國小地下停車場", "note": "公有停車場"}}, {"type": "Feature", "geometry": {"type": "Point", "coordinates": [121.55825455059478, 25.0257538620068]}, "properties": {"name": "景勤二號公園地下停車場", "address": "臺北市信義區信安街49號", "district": "信義區", "city": "taipei", "operator": "景勤二號公園地下停車場", "note": "公有停車場"}}, {"type": "Feature", "geometry": {"type": "Point", "coordinates": [121.55855438608562, 25.03503913666725]}, "properties": {"name": "信義廣場地下停車場", "address": "臺北市信義區信義路5段11號", "district": "信義區", "city": "taipei", "operator": "信義廣場地下停車場", "note": "公有停車場"}}, {"type": "Feature", "geometry": {"type": "Point", "coordinates": [121.56947326982981, 25.031754559468798]}, "properties": {"name": "臺北市災害應變中心地下停車場", "address": "台北市信義區莊敬路391巷11弄2號1樓", "district": "信義區", "city": "taipei", "operator": "臺北市災害應變中心地下停車場", "note": "公有停車場"}}, {"type": "Feature", "geometry": {"type": "Point", "coordinates": [121.59981644329844, 25.053105908584104]}, "properties": {"name": "玉成公園地下停車場", "address": "臺北市南港區成福路116號", "district": "南港區", "city": "taipei", "operator": "玉成公園地下停車場", "note": "公有停車場"}}, {"type": "Feature", "geometry": {"type": "Point", "coordinates": [121.61473794208385, 25.055465829521587]}, "properties": {"name": "玉成國小地下停車場", "address": "臺北市南港區昆陽街23號", "district": "南港區", "city": "taipei", "operator": "玉成國小地下停車場", "note": "公有停車場"}}, {"type": "Feature", "geometry": {"type": "Point", "coordinates": [121.61433725404183, 25.06077247523575]}, "properties": {"name": "世貿公園地下停車場", "address": "臺北市南港區經貿二路88巷1號", "district": "南港區", "city": "taipei", "operator": "世貿公園地下停車場", "note": "公有停車場"}}, {"type": "Feature", "geometry": {"type": "Point", "coordinates": [121.5989836963511, 25.058531549109762]}, "properties": {"name": "興中立體停車場", "address": "臺北市南港區興中路44巷1號", "district": "南港區", "city": "taipei", "operator": "興中立體停車場", "note": "公有停車場"}}, {"type": "Feature", "geometry": {"type": "Point", "coordinates": [121.60970736590443, 25.05559152528654]}, "properties": {"name": "南港國小地下停車場", "address": "台北市南港區興東街59號", "district": "南港區", "city": "taipei", "operator": "南港國小地下停車場", "note": "公有停車場"}}, {"type": "Feature", "geometry": {"type": "Point", "coordinates": [121.49436920303924, 25.037055388777276]}, "properties": {"name": "艋舺公園地下停車場", "address": "臺北市萬華區西園路1段145號", "district": "萬華區", "city": "taipei", "operator": "艋舺公園地下停車場", "note": "公有停車場"}}, {"type": "Feature", "geometry": {"type": "Point", "coordinates": [121.49188483477752, 25.033756244010707]}, "properties": {"name": "萬華國中地下停車場", "address": "臺北市萬華區西藏路201號地下停車場", "district": "萬華區", "city": "taipei", "operator": "萬華國中地下停車場", "note": "公有停車場"}}, {"type": "Feature", "geometry": {"type": "Point", "coordinates": [121.49735957930126, 25.04206105484034]}, "properties": {"name": "青年公園棒球場地下停車場", "address": "臺北市萬華區青年路69號", "district": "萬華區", "city": "taipei", "operator": "青年公園棒球場地下停車場", "note": "公有停車場"}}, {"type": "Feature", "geometry": {"type": "Point", "coordinates": [121.50411364704604, 25.03101422481202]}, "properties": {"name": "峨眉立體停車場", "address": "臺北市萬華區峨眉街83號", "district": "萬華區", "city": "taipei", "operator": "峨眉立體停車場", "note": "公有停車場"}}, {"type": "Feature", "geometry": {"type": "Point", "coordinates": [121.4981093778088, 25.02965843008848]}, "properties": {"name": "青年公園高爾夫球場地下停車場", "address": "臺北市萬華區國興路5號", "district": "萬華區", "city": "taipei", "operator": "青年公園高爾夫球場地下停車場", "note": "公有停車場"}}, {"type": "Feature", "geometry": {"type": "Point", "coordinates": [121.50470204542951, 25.04072829711739]}, "properties": {"name": "洛陽停車場", "address": "臺北市萬華區環河南路1段1號", "district": "萬華區", "city": "taipei", "operator": "洛陽停車場", "note": "公有停車場"}}, {"type": "Feature", "geometry": {"type": "Point", "coordinates": [121.56547511666318, 24.998323191917855]}, "properties": {"name": "水源快速道路高架橋下停車場", "address": "臺北市文山區溪洲街128號", "district": "文山區", "city": "taipei", "operator": "水源快速道路高架橋下停車場", "note": "公務單位停車場"}}, {"type": "Feature", "geometry": {"type": "Point", "coordinates": [121.57044352338302, 24.99054542829679]}, "properties": {"name": "公務人員訓練中心", "address": "臺北市文山區萬美街二段21巷20號", "district": "文山區", "city": "taipei", "operator": "公務人員訓練中心", "note": "公務單位停車場"}}, {"type": "Feature", "geometry": {"type": "Point", "coordinates": [121.5620001728012, 25.050830064481914]}, "properties": {"name": "體育局田徑場地下停車場", "address": "臺北市松山區敦化北路3-177號", "district": "松山區", "city": "taipei", "operator": "體育局田徑場地下停車場", "note": "公務單位停車場"}}, {"type": "Feature", "geometry": {"type": "Point", "coordinates": [121.5243580236581, 25.033485658755126]}, "properties": {"name": "臺北市立大學(博愛校區)", "address": "臺北市中正區愛國西路1號", "district": "中正區", "city": "taipei", "operator": "臺北市立大學(博愛校區)", "note": "校園停車場"}}, {"type": "Feature", "geometry": {"type": "Point", "coordinates": [121.51630915033805, 25.090186496912075]}, "properties": {"name": "瑞展機車行", "address": "臺北市士林區文林路752號", "district": "士林區", "city": "taipei", "operator": "瑞展機車行", "note": "車行"}}, {"type": "Feature", "geometry": {"type": "Point", "coordinates": [121.51661162787816, 25.099865577860236]}, "properties": {"name": "金晉車業行", "address": "臺北市士林區延平北路5段111號", "district": "士林區", "city": "taipei", "operator": "金晉車業行", "note": "車行"}}, {"type": "Feature", "geometry": {"type": "Point", "coordinates": [121.53035955004516, 25.09830664846978]}, "properties": {"name": "得勝機車行", "address": "臺北市士林區延平北路8段175號", "district": "士林區", "city": "taipei", "operator": "得勝機車行", "note": "車行"}}, {"type": "Feature", "geometry": {"type": "Point", "coordinates": [121.52122022600643, 25.085926802663906]}, "properties": {"name": "文發機車行", "address": "臺北市士林區社中街462號", "district": "士林區", "city": "taipei", "operator": "文發機車行", "note": "車行"}}, {"type": "Feature", "geometry": {"type": "Point", "coordinates": [121.53034815358725, 25.100151191124766]}, "properties": {"name": "正大機車行", "address": "臺北市士林區德行東路206號", "district": "士林區", "city": "taipei", "operator": "正大機車行", "note": "車行"}}, {"type": "Feature", "geometry": {"type": "Point", "coordinates": [121.50627045523309, 25.062775847413064]}, "properties": {"name": "甲翊機車行", "address": "臺北市大同區大龍街230號", "district": "大同區", "city": "taipei", "operator": "甲翊機車行", "note": "車行"}}, {"type": "Feature", "geometry": {"type": "Point", "coordinates": [121.5060074002955, 25.067169634644113]}, "properties": {"name": "國真車業有限公司", "address": "臺北市大同區承德路3段312號", "district": "大同區", "city": "taipei", "operator": "國真車業有限公司", "note": "車行"}}, {"type": "Feature", "geometry": {"type": "Point", "coordinates": [121.51715335086891, 25.057054263431993]}, "properties": {"name": "進益機車行", "address": "臺北市大同區庫倫街31號", "district": "大同區", "city": "taipei", "operator": "進益機車行", "note": "車行"}}, {"type": "Feature", "geometry": {"type": "Point", "coordinates": [121.54260451804959, 25.027496857495922]}, "properties": {"name": "福全車業", "address": "臺北市大安區和平東路3段228巷88號", "district": "大安區", "city": "taipei", "operator": "福全車業", "note": "車行"}}, {"type": "Feature", "geometry": {"type": "Point", "coordinates": [121.53924090606304, 25.032658928657366]}, "properties": {"name": "福元車業行", "address": "臺北市大安區富陽街2號", "district": "大安區", "city": "taipei", "operator": "福元車業行", "note": "車行"}}, {"type": "Feature", "geometry": {"type": "Point", "coordinates": [121.53537020704321, 25.065188771287072]}, "properties": {"name": "材洋車業", "address": "臺北市中山區八德路2段61號", "district": "中山區", "city": "taipei", "operator": "材洋車業", "note": "車行"}}, {"type": "Feature", "geometry": {"type": "Point", "coordinates": [121.53722873742048, 25.073478897105442]}, "properties": {"name": "正良機車有限公司", "address": "臺北市中山區八德路2段70號", "district": "中山區", "city": "taipei", "operator": "正良機車有限公司", "note": "車行"}}, {"type": "Feature", "geometry": {"type": "Point", "coordinates": [121.53181841701424, 25.066787460660816]}, "properties": {"name": "旭峰機車行", "address": "臺北市中山區北安路670巷9號", "district": "中山區", "city": "taipei", "operator": "旭峰機車行", "note": "車行"}}, {"type": "Feature", "geometry": {"type": "Point", "coordinates": [121.54452238970659, 25.072198048922232]}, "properties": {"name": "東舜機車行", "address": "臺北市中山區龍江路16號", "district": "中山區", "city": "taipei", "operator": "東舜機車行", "note": "車行"}}, {"type": "Feature", "geometry": {"type": "Point", "coordinates": [121.51890960134264, 25.033281213456572]}, "properties": {"name": "興珍機車行", "address": "臺北市中正區汀州路1段204號", "district": "中正區", "city": "taipei", "operator": "興珍機車行", "note": "車行"}}, {"type": "Feature", "geometry": {"type": "Point", "coordinates": [121.58203606713388, 25.079395157392504]}, "properties": {"name": "欣隆機車行", "address": "臺北市內湖區內湖路1段411巷11號", "district": "內湖區", "city": "taipei", "operator": "欣隆機車行", "note": "車行"}}, {"type": "Feature", "geometry": {"type": "Point", "coordinates": [121.58550936899435, 25.085212939495317]}, "properties": {"name": "國生機車行", "address": "臺北市內湖區內湖路2段67號", "district": "內湖區", "city": "taipei", "operator": "國生機車行", "note": "車行"}}, {"type": "Feature", "geometry": {"type": "Point", "coordinates": [121.58378183572154, 25.079323478151224]}, "properties": {"name": "吉川二輪工作室", "address": "臺北市內湖區內湖路3段59巷17號", "district": "內湖區", "city": "taipei", "operator": "吉川二輪工作室", "note": "車行"}}, {"type": "Feature", "geometry": {"type": "Point", "coordinates": [121.58123588937615, 25.085897647316322]}, "properties": {"name": "柏成機車行", "address": "臺北市內湖區成功路4段331號", "district": "內湖區", "city": "taipei", "operator": "柏成機車行", "note": "車行"}}, {"type": "Feature", "geometry": {"type": "Point", "coordinates": [121.58376306854097, 25.0902867202081]}, "properties": {"name": "新翔發車業", "address": "臺北市內湖區環山路2段10巷2號", "district": "內湖區", "city": "taipei", "operator": "新翔發車業", "note": "車行"}}, {"type": "Feature", "geometry": {"type": "Point", "coordinates": [121.57445416640407, 24.989233717598218]}, "properties": {"name": "嘉聰車行", "address": "臺北市文山區指南路2段128號", "district": "文山區", "city": "taipei", "operator": "嘉聰車行", "note": "車行"}}, {"type": "Feature", "geometry": {"type": "Point", "coordinates": [121.56450807414991, 24.99880364445274]}, "properties": {"name": "德勝車業", "address": "臺北市文山區興隆路1段139號", "district": "文山區", "city": "taipei", "operator": "德勝車業", "note": "車行"}}, {"type": "Feature", "geometry": {"type": "Point", "coordinates": [121.49342778891793, 25.1260169895796]}, "properties": {"name": "義成機車行", "address": "臺北市北投區中央南路一段225巷4號", "district": "北投區", "city": "taipei", "operator": "義成機車行", "note": "車行"}}, {"type": "Feature", "geometry": {"type": "Point", "coordinates": [121.50496822784929, 25.133036689493206]}, "properties": {"name": "福盛車業行", "address": "臺北市北投區中央南路二段123號", "district": "北投區", "city": "taipei", "operator": "福盛車業行", "note": "車行"}}, {"type": "Feature", "geometry": {"type": "Point", "coordinates": [121.49756273642099, 25.136453910788653]}, "properties": {"name": "嘉麟車業行", "address": "臺北市北投區中和街486號", "district": "北投區", "city": "taipei", "operator": "嘉麟車業行", "note": "車行"}}, {"type": "Feature", "geometry": {"type": "Point", "coordinates": [121.50291995196427, 25.126946558629793]}, "properties": {"name": "銘洋機車行", "address": "臺北市北投區東陽街423號", "district": "北投區", "city": "taipei", "operator": "銘洋機車行", "note": "車行"}}, {"type": "Feature", "geometry": {"type": "Point", "coordinates": [121.49155089302766, 25.130796818918505]}, "properties": {"name": "友盛機車", "address": "臺北市北投區致遠一路1段4號", "district": "北投區", "city": "taipei", "operator": "友盛機車", "note": "車行"}}, {"type": "Feature", "geometry": {"type": "Point", "coordinates": [121.49677725796832, 25.13137239468859]}, "properties": {"name": "眾欣機車行", "address": "台北市北投區崇仁路一段25號", "district": "北投區", "city": "taipei", "operator": "眾欣機車行", "note": "車行"}}, {"type": "Feature", "geometry": {"type": "Point", "coordinates": [121.50166521359137, 25.134673832756693]}, "properties": {"name": "舜益車業行", "address": "臺北市北投區懷德街30號", "district": "北投區", "city": "taipei", "operator": "舜益車業行", "note": "車行"}}, {"type": "Feature", "geometry": {"type": "Point", "coordinates": [121.56554664338185, 25.04377468593843]}, "properties": {"name": "山崎動機車業", "address": "臺北市松山區龍江路384巷31號", "district": "松山區", "city": "taipei", "operator": "山崎動機車業", "note": "車行"}}, {"type": "Feature", "geometry": {"type": "Point", "coordinates": [121.56324194051363, 25.03042884168632]}, "properties": {"name": "生暉機車行", "address": "台北市信義區中坡南路271號", "district": "信義區", "city": "taipei", "operator": "生暉機車行", "note": "車行"}}, {"type": "Feature", "geometry": {"type": "Point", "coordinates": [121.57058676058165, 25.028978501342724]}, "properties": {"name": "帛林機車行", "address": "臺北市信義區松信路45號", "district": "信義區", "city": "taipei", "operator": "帛林機車行", "note": "車行"}}, {"type": "Feature", "geometry": {"type": "Point", "coordinates": [121.60184334253506, 25.05417781676533]}, "properties": {"name": "易展機車行", "address": "臺北市南港區忠孝東路7段589號", "district": "南港區", "city": "taipei", "operator": "易展機車行", "note": "車行"}}, {"type": "Feature", "geometry": {"type": "Point", "coordinates": [121.60555010623736, 25.051456722314672]}, "properties": {"name": "技專車業行", "address": "臺北市南港區昆陽街157巷11號", "district": "南港區", "city": "taipei", "operator": "技專車業行", "note": "車行"}}, {"type": "Feature", "geometry": {"type": "Point", "coordinates": [121.60279690316612, 25.061772249588415]}, "properties": {"name": "興揚機車有限公司", "address": "臺北市南港區南港路3段16巷2-1號", "district": "南港區", "city": "taipei", "operator": "興揚機車有限公司", "note": "車行"}}, {"type": "Feature", "geometry": {"type": "Point", "coordinates": [121.60589009192086, 25.06078158567619]}, "properties": {"name": "正鑫車業行", "address": "臺北市南港區舊莊街1段185號", "district": "南港區", "city": "taipei", "operator": "正鑫車業行", "note": "車行"}}, {"type": "Feature", "geometry": {"type": "Point", "coordinates": [121.49890520499919, 25.027609413272398]}, "properties": {"name": "東石機車行", "address": "臺北市萬華區民和街70號", "district": "萬華區", "city": "taipei", "operator": "東石機車行", "note": "車行"}}, {"type": "Feature", "geometry": {"type": "Point", "coordinates": [121.5060885194946, 25.04017644136128]}, "properties": {"name": "俊展車業", "address": "臺北市萬華區青年路114號", "district": "萬華區", "city": "taipei", "operator": "俊展車業", "note": "車行"}}, {"type": "Feature", "geometry": {"type": "Point", "coordinates": [121.50560394011654, 25.04162187172813]}, "properties": {"name": "正勝車業行", "address": "臺北市萬華區青年路152巷35號", "district": "萬華區", "city": "taipei", "operator": "正勝車業行", "note": "車行"}}, {"type": "Feature", "geometry": {"type": "Point", "coordinates": [121.50367913175062, 25.029460977769663]}, "properties": {"name": "萬華國生車業", "address": "臺北市萬華區環河南路2段154巷2號", "district": "萬華區", "city": "taipei", "operator": "萬華國生車業", "note": "車行"}}, {"type": "Feature", "geometry": {"type": "Point", "coordinates": [121.49787025800721, 25.03021995678719]}, "properties": {"name": "華中機車行", "address": "臺北市萬華區雙和街75號", "district": "萬華區", "city": "taipei", "operator": "華中機車行", "note": "車行"}}, {"type": "Feature", "geometry": {"type": "Point", "coordinates": [121.52271664468078, 25.085938166399554]}, "properties": {"name": "福安里辦公室", "address": "臺北市士林區延平北路7段107巷10號", "district": "士林區", "city": "taipei", "operator": "福安里辦公室", "note": "里辦公室"}}, {"type": "Feature", "geometry": {"type": "Point", "coordinates": [121.52236356990363, 25.100764941500476]}, "properties": {"name": "名山里貓頭鷹之家", "address": "臺北市士林區雨聲街68號", "district": "士林區", "city": "taipei", "operator": "名山里貓頭鷹之家", "note": "里辦公室"}}, {"type": "Feature", "geometry": {"type": "Point", "coordinates": [121.51614324893076, 25.037545129631177]}, "properties": {"name": "河堤里辦公室", "address": "臺北市中正區金門街11之1號", "district": "中正區", "city": "taipei", "operator": "河堤里辦公室", "note": "里辦公室"}}, {"type": "Feature", "geometry": {"type": "Point", "coordinates": [121.51918013387743, 25.031768119775844]}, "properties": {"name": "網溪里辦公室", "address": "臺北市中正區牯嶺街165號", "district": "中正區", "city": "taipei", "operator": "網溪里辦公室", "note": "里辦公室"}}, {"type": "Feature", "geometry": {"type": "Point", "coordinates": [121.59541708225375, 25.091726763031883]}, "properties": {"name": "安泰里辦公室", "address": "臺北市內湖區安泰街49巷1號1樓", "district": "內湖區", "city": "taipei", "operator": "安泰里辦公室", "note": "里辦公室"}}, {"type": "Feature", "geometry": {"type": "Point", "coordinates": [121.5695922931745, 24.99959453240474]}, "properties": {"name": "景東里里辦公室", "address": "臺北市文山區景興路153巷1號", "district": "文山區", "city": "taipei", "operator": "景東里里辦公室", "note": "里辦公室"}}, {"type": "Feature", "geometry": {"type": "Point", "coordinates": [121.53107674920439, 25.066547325207914]}, "properties": {"name": "東和藝品有限公司(77號單車店)", "address": "臺北市中山區民生東路2段77號", "district": "中山區", "city": "taipei", "operator": "東和藝品有限公司(77號單車店)", "note": "商店"}}, {"type": "Feature", "geometry": {"type": "Point", "coordinates": [121.5317993498395, 25.09426688465306]}, "properties": {"name": "捷運淡水線芝山站", "address": "臺北市士林區福國路70號", "district": "士林區", "city": "taipei", "operator": "捷運淡水線芝山站", "note": "捷運站"}}, {"type": "Feature", "geometry": {"type": "Point", "coordinates": [121.543675123222, 25.030667608966066]}, "properties": {"name": "捷運木柵線麟光站", "address": "臺北市大安區和平東路3段410號", "district": "大安區", "city": "taipei", "operator": "捷運木柵線麟光站", "note": "捷運站"}}, {"type": "Feature", "geometry": {"type": "Point", "coordinates": [121.49091464436653, 25.133246841511344]}, "properties": {"name": "捷運淡水線奇岩站", "address": "臺北市北投區三合街2段489號", "district": "北投區", "city": "taipei", "operator": "捷運淡水線奇岩站", "note": "捷運站"}}, {"type": "Feature", "geometry": {"type": "Point", "coordinates": [121.49804560612672, 25.137543518272775]}, "properties": {"name": "捷運淡水線復興崗站", "address": "臺北市北投區中央北路3段53巷10號", "district": "北投區", "city": "taipei", "operator": "捷運淡水線復興崗站", "note": "捷運站"}}, {"type": "Feature", "geometry": {"type": "Point", "coordinates": [121.49251892364704, 25.139272462452393]}, "properties": {"name": "捷運淡水線忠義站", "address": "臺北市北投區中央北路4段301號", "district": "北投區", "city": "taipei", "operator": "捷運淡水線忠義站", "note": "捷運站"}}, {"type": "Feature", "geometry": {"type": "Point", "coordinates": [121.49128178344385, 25.126873199375694]}, "properties": {"name": "捷運淡水線石牌站", "address": "臺北市北投區石牌路1段200號", "district": "北投區", "city": "taipei", "operator": "捷運淡水線石牌站", "note": "捷運站"}}, {"type": "Feature", "geometry": {"type": "Point", "coordinates": [121.4995205617032, 25.134703400857667]}, "properties": {"name": "捷運淡水線北投站", "address": "臺北市北投區光明路1號", "district": "北投區", "city": "taipei", "operator": "捷運淡水線北投站", "note": "捷運站"}}, {"type": "Feature", "geometry": {"type": "Point", "coordinates": [121.49376326232002, 25.125818185823157]}, "properties": {"name": "捷運淡水線明德站", "address": "臺北市北投區明德路95號", "district": "北投區", "city": "taipei", "operator": "捷運淡水線明德站", "note": "捷運站"}}, {"type": "Feature", "geometry": {"type": "Point", "coordinates": [121.53054459702606, 25.08893944556462]}, "properties": {"name": "社子清潔分隊(葫蘆)", "address": "臺北市士林區中正路臨707-1號(重陽橋下)", "district": "士林區", "city": "taipei", "operator": "社子清潔分隊(葫蘆)", "note": "清潔隊"}}, {"type": "Feature", "geometry": {"type": "Point", "coordinates": [121.52581230645653, 25.094910104165315]}, "properties": {"name": "草山清潔分隊", "address": "臺北市士林區格致路34號", "district": "士林區", "city": "taipei", "operator": "草山清潔分隊", "note": "清潔隊"}}, {"type": "Feature", "geometry": {"type": "Point", "coordinates": [121.51160759864537, 25.064338756628658]}, "properties": {"name": "建成清潔分隊", "address": "臺北市大同區民權西路194之1號", "district": "大同區", "city": "taipei", "operator": "建成清潔分隊", "note": "清潔隊"}}, {"type": "Feature", "geometry": {"type": "Point", "coordinates": [121.51326452344851, 25.06995530012378]}, "properties": {"name": "大龍清潔分隊", "address": "臺北市大同區承德路3段303之1號(承德橋下)", "district": "大同區", "city": "taipei", "operator": "大龍清潔分隊", "note": "清潔隊"}}, {"type": "Feature", "geometry": {"type": "Point", "coordinates": [121.50816814719077, 25.06645906881263]}, "properties": {"name": "蘭州清潔分隊", "address": "臺北市大同區敦煌路151之1號", "district": "大同區", "city": "taipei", "operator": "蘭州清潔分隊", "note": "清潔隊"}}, {"type": "Feature", "geometry": {"type": "Point", "coordinates": [121.50871897524186, 25.061332573548658]}, "properties": {"name": "直屬夜勤清潔分隊", "address": "臺北市大同區鄭州路臨50號", "district": "大同區", "city": "taipei", "operator": "直屬夜勤清潔分隊", "note": "清潔隊"}}, {"type": "Feature", "geometry": {"type": "Point", "coordinates": [121.51564704356736, 25.05979995327678]}, "properties": {"name": "延平清潔分隊", "address": "臺北市大同區環河北路1段臨63-1號", "district": "大同區", "city": "taipei", "operator": "延平清潔分隊", "note": "清潔隊"}}, {"type": "Feature", "geometry": {"type": "Point", "coordinates": [121.54005883514036, 25.03072983187863]}, "properties": {"name": "台大清潔分隊", "address": "臺北市大安區辛亥路1段臨138號 ", "district": "大安區", "city": "taipei", "operator": "台大清潔分隊", "note": "清潔隊"}}, {"type": "Feature", "geometry": {"type": "Point", "coordinates": [121.5361606898319, 25.0260325683619]}, "properties": {"name": "和平清潔分隊", "address": "臺北市大安區辛亥路1段臨143號", "district": "大安區", "city": "taipei", "operator": "和平清潔分隊", "note": "清潔隊"}}, {"type": "Feature", "geometry": {"type": "Point", "coordinates": [121.55097527105367, 25.034637543165683]}, "properties": {"name": "敦化清潔分隊", "address": "臺北市大安區忠孝東路3段31號(建國北路橋孔下)", "district": "大安區", "city": "taipei", "operator": "敦化清潔分隊", "note": "清潔隊"}}, {"type": "Feature", "geometry": {"type": "Point", "coordinates": [121.5361721715376, 25.022110468996274]}, "properties": {"name": "新生清潔分隊", "address": "臺北市大安區建國南路1段臨173號(近濟南路3段)", "district": "大安區", "city": "taipei", "operator": "新生清潔分隊", "note": "清潔隊"}}, {"type": "Feature", "geometry": {"type": "Point", "coordinates": [121.53924320663602, 25.0336321500479]}, "properties": {"name": "瑞安清潔分隊", "address": "臺北市大安區建國南路2段臨263號", "district": "大安區", "city": "taipei", "operator": "瑞安清潔分隊", "note": "清潔隊"}}, {"type": "Feature", "geometry": {"type": "Point", "coordinates": [121.54909382677899, 25.032768323879754]}, "properties": {"name": "臥龍清潔分隊", "address": "臺北市大安區基隆路3段臨24號", "district": "大安區", "city": "taipei", "operator": "臥龍清潔分隊", "note": "清潔隊"}}, {"type": "Feature", "geometry": {"type": "Point", "coordinates": [121.53451243341983, 25.064323949317718]}, "properties": {"name": "中山區清潔隊大直分隊", "address": "臺北市中山區大直街21巷2號", "district": "中山區", "city": "taipei", "operator": "中山區清潔隊大直分隊", "note": "清潔隊"}}, {"type": "Feature", "geometry": {"type": "Point", "coordinates": [121.54193991927424, 25.0730566388014]}, "properties": {"name": "中山區清潔隊長安分隊", "address": "臺北市中山區建國北路1段臨5-1號", "district": "中山區", "city": "taipei", "operator": "中山區清潔隊長安分隊", "note": "清潔隊"}}, {"type": "Feature", "geometry": {"type": "Point", "coordinates": [121.53838684425162, 25.077595729018103]}, "properties": {"name": "溝一清潔分隊", "address": "臺北市中山區建國北路2段63號對面", "district": "中山區", "city": "taipei", "operator": "溝一清潔分隊", "note": "清潔隊"}}, {"type": "Feature", "geometry": {"type": "Point", "coordinates": [121.53906362108337, 25.061925169714435]}, "properties": {"name": "民一清潔分隊", "address": "臺北市中山區建國北路3段96之1號", "district": "中山區", "city": "taipei", "operator": "民一清潔分隊", "note": "清潔隊"}}, {"type": "Feature", "geometry": {"type": "Point", "coordinates": [121.54167366616186, 25.0665900600352]}, "properties": {"name": "中山清潔分隊", "address": "臺北市中山區新生北路2段臨30-1號", "district": "中山區", "city": "taipei", "operator": "中山清潔分隊", "note": "清潔隊"}}, {"type": "Feature", "geometry": {"type": "Point", "coordinates": [121.53921421943946, 25.076822880062835]}, "properties": {"name": "民二清潔分隊", "address": "臺北市中山區錦州街臨306號", "district": "中山區", "city": "taipei", "operator": "民二清潔分隊", "note": "清潔隊"}}, {"type": "Feature", "geometry": {"type": "Point", "coordinates": [121.5140486578303, 25.026846858726707]}, "properties": {"name": "公館清潔分隊", "address": "臺北市中正區水源路臨2號", "district": "中正區", "city": "taipei", "operator": "公館清潔分隊", "note": "清潔隊"}}, {"type": "Feature", "geometry": {"type": "Point", "coordinates": [121.51361257564336, 25.033851578254158]}, "properties": {"name": "泉州清潔分隊", "address": "臺北市中正區惠安街47號", "district": "中正區", "city": "taipei", "operator": "泉州清潔分隊", "note": "清潔隊"}}, {"type": "Feature", "geometry": {"type": "Point", "coordinates": [121.56505757139705, 24.997777277232483]}, "properties": {"name": "景美清潔分隊", "address": "臺北市文山區溪洲街臨220號", "district": "文山區", "city": "taipei", "operator": "景美清潔分隊", "note": "清潔隊"}}, {"type": "Feature", "geometry": {"type": "Point", "coordinates": [121.50148179499422, 25.12715755699724]}, "properties": {"name": "關渡清潔分隊", "address": "臺北市北投區大度路3段臨250號", "district": "北投區", "city": "taipei", "operator": "關渡清潔分隊", "note": "清潔隊"}}, {"type": "Feature", "geometry": {"type": "Point", "coordinates": [121.50014780734216, 25.128123742426087]}, "properties": {"name": "石牌清潔分隊", "address": "臺北市北投區承德路7段393巷200號", "district": "北投區", "city": "taipei", "operator": "石牌清潔分隊", "note": "清潔隊"}}, {"type": "Feature", "geometry": {"type": "Point", "coordinates": [121.55761650963439, 25.05668538385727]}, "properties": {"name": "松山清潔分隊", "address": "台北市松山區南京東路五段372號", "district": "松山區", "city": "taipei", "operator": "松山清潔分隊", "note": "清潔隊"}}, {"type": "Feature", "geometry": {"type": "Point", "coordinates": [121.57033765941273, 25.026476775483406]}, "properties": {"name": "三張犁與五分埔分隊", "address": "臺北市信義區忠孝東路5段255巷臨6號", "district": "信義區", "city": "taipei", "operator": "三張犁與五分埔分隊", "note": "清潔隊"}}, {"type": "Feature", "geometry": {"type": "Point", "coordinates": [121.60557721236103, 25.051426883583556]}, "properties": {"name": "玉成清潔分隊", "address": "臺北市南港區向陽路49號", "district": "南港區", "city": "taipei", "operator": "玉成清潔分隊", "note": "清潔隊"}}, {"type": "Feature", "geometry": {"type": "Point", "coordinates": [121.5988567310254, 25.059337907568313]}, "properties": {"name": "南港清潔分隊", "address": "臺北市南港區松河街699號", "district": "南港區", "city": "taipei", "operator": "南港清潔分隊", "note": "清潔隊"}}, {"type": "Feature", "geometry": {"type": "Point", "coordinates": [121.50029381403682, 25.03099128419895]}, "properties": {"name": "昆明清潔分隊", "address": "臺北市萬華區和平西路3段251號1,2樓", "district": "萬華區", "city": "taipei", "operator": "昆明清潔分隊", "note": "清潔隊"}}, {"type": "Feature", "geometry": {"type": "Point", "coordinates": [121.50195969453355, 25.035626886738022]}, "properties": {"name": "大理清潔分隊", "address": "臺北市萬華區長順街臨131號", "district": "萬華區", "city": "taipei", "operator": "大理清潔分隊", "note": "清潔隊"}}, {"type": "Feature", "geometry": {"type": "Point", "coordinates": [121.49694299070369, 25.026954715193735]}, "properties": {"name": "漢中清潔分隊", "address": "臺北市萬華區環河南路1段臨280之1號", "district": "萬華區", "city": "taipei", "operator": "漢中清潔分隊", "note": "清潔隊"}}, {"type": "Feature", "geometry": {"type": "Point", "coordinates": [121.58130390176117, 25.089929702292803]}, "properties": {"name": "內湖垃圾焚化廠", "address": "臺北市內湖區安康路290號", "district": "內湖區", "city": "taipei", "operator": "內湖垃圾焚化廠", "note": "焚化廠"}}, {"type": "Feature", "geometry": {"type": "Point", "coordinates": [121.57516285714496, 24.996829444627288]}, "properties": {"name": "木柵垃圾焚化廠", "address": "臺北市文山區木柵路5段53號", "district": "文山區", "city": "taipei", "operator": "木柵垃圾焚化廠", "note": "焚化廠"}}, {"type": "Feature", "geometry": {"type": "Point", "coordinates": [121.50335352031819, 25.13322015306384]}, "properties": {"name": "北投垃圾焚化廠", "address": "臺北市北投區洲美街271號", "district": "北投區", "city": "taipei", "operator": "北投垃圾焚化廠", "note": "焚化廠"}}, {"type": "Feature", "geometry": {"type": "Point", "coordinates": [121.53096950056909, 25.063839128308516]}, "properties": {"name": "臺北市中山運動中心", "address": "臺北市中山區中山北路二段44巷2號B1", "district": "中山區", "city": "taipei", "operator": "臺北市中山運動中心", "note": "運動中心"}}, {"type": "Feature", "geometry": {"type": "Point", "coordinates": [121.53993213359888, 25.033083703819884]}, "properties": {"name": "宏立機車事業有限公司", "address": "臺北市大安區和平東路2段141號", "district": "大安區", "city": "taipei", "operator": "宏立機車事業有限公司", "note": "檢驗站"}}, {"type": "Feature", "geometry": {"type": "Point", "coordinates": [121.5625379568782, 25.055971241312015]}, "properties": {"name": "群億車業商行", "address": "臺北市松山區八德路4段336號", "district": "松山區", "city": "taipei", "operator": "群億車業商行", "note": "檢驗站"}}, {"type": "Feature", "geometry": {"type": "Point", "coordinates": [121.56418279418442, 25.045561224613436]}, "properties": {"name": "松春來車業有限公司", "address": "臺北市松山區民權東路5段30號", "district": "松山區", "city": "taipei", "operator": "松春來車業有限公司", "note": "檢驗站"}}, {"type": "Feature", "geometry": {"type": "Point", "coordinates": [121.55379247582756, 25.04384469794675]}, "properties": {"name": "國盛機車行", "address": "臺北市松山區撫遠街189號", "district": "松山區", "city": "taipei", "operator": "國盛機車行", "note": "檢驗站"}}, {"type": "Feature", "geometry": {"type": "Point", "coordinates": [121.52878185986994, 25.099146155223217]}, "properties": {"name": "益隆車業有限公司", "address": "臺北市士林區重慶北路4段244號", "district": "士林區", "city": "taipei", "operator": "益隆車業有限公司", "note": "檢驗站"}}, {"type": "Feature", "geometry": {"type": "Point", "coordinates": [121.52280203823732, 25.094930584162412]}, "properties": {"name": "台益機車有限公司", "address": "臺北市士林區延平北路5段129號", "district": "士林區", "city": "taipei", "operator": "台益機車有限公司", "note": "檢驗站"}}, {"type": "Feature", "geometry": {"type": "Point", "coordinates": [121.51877285341331, 25.0998780962511]}, "properties": {"name": "良陽國際有限公司", "address": "臺北市士林區士東路250號", "district": "士林區", "city": "taipei", "operator": "良陽國際有限公司", "note": "檢驗站"}}, {"type": "Feature", "geometry": {"type": "Point", "coordinates": [121.51873369113952, 25.070619296526893]}, "properties": {"name": "加祥車業有限公司", "address": "臺北市大同區延平北路2段256號", "district": "大同區", "city": "taipei", "operator": "加祥車業有限公司", "note": "檢驗站"}}, {"type": "Feature", "geometry": {"type": "Point", "coordinates": [121.51787234751905, 25.069102659274613]}, "properties": {"name": "忠億車業有限公司", "address": "臺北市大同區西寧北路17-4號", "district": "大同區", "city": "taipei", "operator": "忠億車業有限公司", "note": "檢驗站"}}, {"type": "Feature", "geometry": {"type": "Point", "coordinates": [121.50529658179038, 25.06678503154808]}, "properties": {"name": "順旺車業有限公司", "address": "臺北市大同區延平北路1段24號", "district": "大同區", "city": "taipei", "operator": "順旺車業有限公司", "note": "檢驗站"}}, {"type": "Feature", "geometry": {"type": "Point", "coordinates": [121.51021496748714, 25.069893054176774]}, "properties": {"name": "新協大車業有限公司", "address": "臺北市大同區延平北路3段67-1號", "district": "大同區", "city": "taipei", "operator": "新協大車業有限公司", "note": "檢驗站"}}, {"type": "Feature", "geometry": {"type": "Point", "coordinates": [121.611635762223, 25.060825024454005]}, "properties": {"name": "大輝車業有限公司", "address": "臺北市南港區忠孝東路7段600號", "district": "南港區", "city": "taipei", "operator": "大輝車業有限公司", "note": "檢驗站"}}, {"type": "Feature", "geometry": {"type": "Point", "coordinates": [121.5930719890652, 25.080068891353513]}, "properties": {"name": "日盛車業有限公司", "address": "臺北市內湖區成功路3段73號", "district": "內湖區", "city": "taipei", "operator": "日盛車業有限公司", "note": "檢驗站"}}, {"type": "Feature", "geometry": {"type": "Point", "coordinates": [121.50269799214617, 25.028529530022446]}, "properties": {"name": "東龍旺車業有限公司", "address": "臺北市萬華區東園街133號", "district": "萬華區", "city": "taipei", "operator": "東龍旺車業有限公司", "note": "檢驗站"}}, {"type": "Feature", "geometry": {"type": "Point", "coordinates": [121.50405466852649, 25.040537492021404]}, "properties": {"name": "得山車業有限公司", "address": "臺北市萬華區康定路114號", "district": "萬華區", "city": "taipei", "operator": "得山車業有限公司", "note": "檢驗站"}}, {"type": "Feature", "geometry": {"type": "Point", "coordinates": [121.49365893948072, 25.039865385689552]}, "properties": {"name": "健立車業有限公司", "address": "臺北市萬華區桂林路206號", "district": "萬華區", "city": "taipei", "operator": "健立車業有限公司", "note": "檢驗站"}}, {"type": "Feature", "geometry": {"type": "Point", "coordinates": [121.49746485175486, 25.03168305387742]}, "properties": {"name": "永振億實業有限公司", "address": "臺北市萬華區柳州街87號", "district": "萬華區", "city": "taipei", "operator": "永振億實業有限公司", "note": "檢驗站"}}, {"type": "Feature", "geometry": {"type": "Point", "coordinates": [121.54132552798646, 25.065441527798527]}, "properties": {"name": "運輪機車行", "address": "臺北市中山區八德路2段88巷20號", "district": "中山區", "city": "taipei", "operator": "運輪機車行", "note": "檢驗站"}}, {"type": "Feature", "geometry": {"type": "Point", "coordinates": [121.50527863095523, 25.058090076613244]}, "properties": {"name": "弘展機車有限公司", "address": "臺北市大同區西寧北路93號", "district": "大同區", "city": "taipei", "operator": "弘展機車有限公司", "note": "檢驗站"}}, {"type": "Feature", "geometry": {"type": "Point", "coordinates": [121.56595219121917, 25.001929647072483]}, "properties": {"name": "高旺企業股份有限公司", "address": "臺北市文山區羅斯福路5段182號", "district": "文山區", "city": "taipei", "operator": "高旺企業股份有限公司", "note": "檢驗站"}}, {"type": "Feature", "geometry": {"type": "Point", "coordinates": [121.50547022566478, 25.128365999883552]}, "properties": {"name": "福盛全有限公司", "address": "臺北市北投區中央南路1段210號", "district": "北投區", "city": "taipei", "operator": "福盛全有限公司", "note": "檢驗站"}}, {"type": "Feature", "geometry": {"type": "Point", "coordinates": [121.50026370781772, 25.130294854149763]}, "properties": {"name": "汶吉車業行", "address": "臺北市北投區大業路560號", "district": "北投區", "city": "taipei", "operator": "汶吉車業行", "note": "檢驗站"}}, {"type": "Feature", "geometry": {"type": "Point", "coordinates": [121.50569839499518, 25.13247945171966]}, "properties": {"name": "聯螢車業有限公司", "address": "臺北市北投區中央南路1段156號", "district": "北投區", "city": "taipei", "operator": "聯螢車業有限公司", "note": "檢驗站"}}, {"type": "Feature", "geometry": {"type": "Point", "coordinates": [121.5718277942452, 25.026845468029624]}, "properties": {"name": "大仁車業有限公司", "address": "臺北市信義區松隆路80號", "district": "信義區", "city": "taipei", "operator": "大仁車業有限公司", "note": "檢驗站"}}, {"type": "Feature", "geometry": {"type": "Point", "coordinates": [121.57232640977637, 25.02785708505876]}, "properties": {"name": "松宏車業有限公司", "address": "臺北市信義區忠孝東路5段205號", "district": "信義區", "city": "taipei", "operator": "松宏車業有限公司", "note": "檢驗站"}}, {"type": "Feature", "geometry": {"type": "Point", "coordinates": [121.59550054905218, 25.08004746180037]}, "properties": {"name": "四維通車業有限公司", "address": "臺北市內湖區民權東路6段128號", "district": "內湖區", "city": "taipei", "operator": "四維通車業有限公司", "note": "檢驗站"}}, {"type": "Feature", "geometry": {"type": "Point", "coordinates": [121.56243444075544, 24.995053020137032]}, "properties": {"name": "展嘉輪業有限公司", "address": "臺北市文山區羅斯福路5段48號", "district": "文山區", "city": "taipei", "operator": "展嘉輪業有限公司", "note": "檢驗站"}}, {"type": "Feature", "geometry": {"type": "Point", "coordinates": [121.57235672097045, 24.99311883702712]}, "properties": {"name": "鋒權輪有限公司", "address": "臺北市文山區興隆路2段241號", "district": "文山區", "city": "taipei", "operator": "鋒權輪有限公司", "note": "檢驗站"}}, {"type": "Feature", "geometry": {"type": "Point", "coordinates": [121.5446993416529, 25.026882768954714]}, "properties": {"name": "盛昌機車行", "address": "臺北市大安區辛亥路1段58號", "district": "大安區", "city": "taipei", "operator": "盛昌機車行", "note": "檢驗站"}}, {"type": "Feature", "geometry": {"type": "Point", "coordinates": [121.49616312693352, 25.133125408695946]}, "properties": {"name": "進山車業有限公司", "address": "臺北市北投區石牌路1段24號", "district": "北投區", "city": "taipei", "operator": "進山車業有限公司", "note": "檢驗站"}}, {"type": "Feature", "geometry": {"type": "Point", "coordinates": [121.49417556009821, 25.038140564541347]}, "properties": {"name": "良江企業有限公司", "address": "臺北市萬華區中華路2段98號", "district": "萬華區", "city": "taipei", "operator": "良江企業有限公司", "note": "檢驗站"}}, {"type": "Feature", "geometry": {"type": "Point", "coordinates": [121.49012706045148, 25.041609202647987]}, "properties": {"name": "大旺車行", "address": "臺北市萬華區萬大路214號", "district": "萬華區", "city": "taipei", "operator": "大旺車行", "note": "檢驗站"}}, {"type": "Feature", "geometry": {"type": "Point", "coordinates": [121.5205152319535, 25.03651087998632]}, "properties": {"name": "后里車業有限公司", "address": "臺北市中正區牯嶺街47號", "district": "中正區", "city": "taipei", "operator": "后里車業有限公司", "note": "檢驗站"}}, {"type": "Feature", "geometry": {"type": "Point", "coordinates": [121.52377120124544, 25.03573005607093]}, "properties": {"name": "松大車業有限公司", "address": "臺北市中正區牯嶺街61-3號", "district": "中正區", "city": "taipei", "operator": "松大車業有限公司", "note": "檢驗站"}}, {"type": "Feature", "geometry": {"type": "Point", "coordinates": [121.4958275435485, 25.125019580978023]}, "properties": {"name": "隆大車業行", "address": "臺北市北投區承德路7段344巷15號", "district": "北投區", "city": "taipei", "operator": "隆大車業行", "note": "檢驗站"}}, {"type": "Feature", "geometry": {"type": "Point", "coordinates": [121.52252780295859, 25.030283200576683]}, "properties": {"name": "鉍勝車業有限公司", "address": "臺北市中正區師大路146號", "district": "中正區", "city": "taipei", "operator": "鉍勝車業有限公司", "note": "檢驗站"}}, {"type": "Feature", "geometry": {"type": "Point", "coordinates": [121.51692265032094, 25.038568244472103]}, "properties": {"name": "忠豪車業有限公司", "address": "臺北市中正區忠孝東路2段31號", "district": "中正區", "city": "taipei", "operator": "忠豪車業有限公司", "note": "檢驗站"}}, {"type": "Feature", "geometry": {"type": "Point", "coordinates": [121.51641606820823, 25.05980515629138]}, "properties": {"name": "磬葉企業有限公司", "address": "臺北市大同區錦西街56號", "district": "大同區", "city": "taipei", "operator": "磬葉企業有限公司", "note": "檢驗站"}}, {"type": "Feature", "geometry": {"type": "Point", "coordinates": [121.50984855459534, 25.061534286537906]}, "properties": {"name": "良星車業有限公司", "address": "臺北市大同區重慶北路2段39號", "district": "大同區", "city": "taipei", "operator": "良星車業有限公司", "note": "檢驗站"}}, {"type": "Feature", "geometry": {"type": "Point", "coordinates": [121.51133840619292, 25.059730483240415]}, "properties": {"name": "大華車業有限公司", "address": "臺北市大同區承德路1段47號", "district": "大同區", "city": "taipei", "operator": "大華車業有限公司", "note": "檢驗站"}}, {"type": "Feature", "geometry": {"type": "Point", "coordinates": [121.60083660478496, 25.053727141340367]}, "properties": {"name": "中盛機車有限公司", "address": "臺北市南港區東新街4號", "district": "南港區", "city": "taipei", "operator": "中盛機車有限公司", "note": "檢驗站"}}, {"type": "Feature", "geometry": {"type": "Point", "coordinates": [121.53134581873168, 25.095837087124362]}, "properties": {"name": "富偉機車行", "address": "臺北市士林區文林路663號", "district": "士林區", "city": "taipei", "operator": "富偉機車行", "note": "檢驗站"}}, {"type": "Feature", "geometry": {"type": "Point", "coordinates": [121.53074488873172, 25.09484823865522]}, "properties": {"name": "力泰車業有限公司", "address": "臺北市士林區延平北路5段220號", "district": "士林區", "city": "taipei", "operator": "力泰車業有限公司", "note": "檢驗站"}}, {"type": "Feature", "geometry": {"type": "Point", "coordinates": [121.52111519799304, 25.09376699541017]}, "properties": {"name": "永生車業有限公司", "address": "臺北市士林區華齡街71號", "district": "士林區", "city": "taipei", "operator": "永生車業有限公司", "note": "檢驗站"}}, {"type": "Feature", "geometry": {"type": "Point", "coordinates": [121.50490649503516, 25.0595906194699]}, "properties": {"name": "長豐車業行", "address": "臺北市大同區承德路3段160號", "district": "大同區", "city": "taipei", "operator": "長豐車業行", "note": "檢驗站"}}, {"type": "Feature", "geometry": {"type": "Point", "coordinates": [121.51177821039984, 25.06427975649913]}, "properties": {"name": "弘達車業有限公司", "address": "臺北市大同區承德路3段162號", "district": "大同區", "city": "taipei", "operator": "弘達車業有限公司", "note": "檢驗站"}}, {"type": "Feature", "geometry": {"type": "Point", "coordinates": [121.54547528997925, 25.026139811043954]}, "properties": {"name": "金理車業有限公司", "address": "臺北市大安區八德路2段35號", "district": "大安區", "city": "taipei", "operator": "金理車業有限公司", "note": "檢驗站"}}, {"type": "Feature", "geometry": {"type": "Point", "coordinates": [121.54207455678889, 25.022119222415828]}, "properties": {"name": "宏興車業有限公司", "address": "臺北市大安區和平東路3段127號", "district": "大安區", "city": "taipei", "operator": "宏興車業有限公司", "note": "檢驗站"}}, {"type": "Feature", "geometry": {"type": "Point", "coordinates": [121.54257097897455, 25.033118893213253]}, "properties": {"name": "車王二輪社", "address": "臺北市大安區延吉街64-1號", "district": "大安區", "city": "taipei", "operator": "車王二輪社", "note": "檢驗站"}}, {"type": "Feature", "geometry": {"type": "Point", "coordinates": [121.54773639616204, 25.02141506233917]}, "properties": {"name": "益揚車業有限公司", "address": "臺北市大安區羅斯福路3段93號", "district": "大安區", "city": "taipei", "operator": "益揚車業有限公司", "note": "檢驗站"}}, {"type": "Feature", "geometry": {"type": "Point", "coordinates": [121.5299567285876, 25.070047232158643]}, "properties": {"name": "農安機車有限公司", "address": "臺北市中山區龍江路375號", "district": "中山區", "city": "taipei", "operator": "農安機車有限公司", "note": "檢驗站"}}, {"type": "Feature", "geometry": {"type": "Point", "coordinates": [121.53872705369226, 25.067163012086557]}, "properties": {"name": "大昌機車有限公司", "address": "臺北市中山區北安路458巷3號", "district": "中山區", "city": "taipei", "operator": "大昌機車有限公司", "note": "檢驗站"}}, {"type": "Feature", "geometry": {"type": "Point", "coordinates": [121.54169477543259, 25.073818210200653]}, "properties": {"name": "展欣豪車業有限公司", "address": "臺北市中山區民權東路2段126號", "district": "中山區", "city": "taipei", "operator": "展欣豪車業有限公司", "note": "檢驗站"}}, {"type": "Feature", "geometry": {"type": "Point", "coordinates": [121.53936473072892, 25.065394250655956]}, "properties": {"name": "异城車業有限公司", "address": "臺北市中山區八德路2段329號", "district": "中山區", "city": "taipei", "operator": "异城車業有限公司", "note": "檢驗站"}}, {"type": "Feature", "geometry": {"type": "Point", "coordinates": [121.53178607892363, 25.06219080620363]}, "properties": {"name": "達誠車業有限公司", "address": "臺北市中山區吉林路12-3號", "district": "中山區", "city": "taipei", "operator": "達誠車業有限公司", "note": "檢驗站"}}, {"type": "Feature", "geometry": {"type": "Point", "coordinates": [121.53251748070527, 25.069402181507503]}, "properties": {"name": "名佳車業行", "address": "臺北市中山區錦州街310號", "district": "中山區", "city": "taipei", "operator": "名佳車業行", "note": "檢驗站"}}, {"type": "Feature", "geometry": {"type": "Point", "coordinates": [121.525495803114, 25.026165251666953]}, "properties": {"name": "慶發車業有限公司", "address": "臺北市中正區汀洲路1段182號", "district": "中正區", "city": "taipei", "operator": "慶發車業有限公司", "note": "檢驗站"}}, {"type": "Feature", "geometry": {"type": "Point", "coordinates": [121.51853105617597, 25.035076246091805]}, "properties": {"name": "隆發車業有限公司", "address": "臺北市中正區重慶南路3段135號", "district": "中正區", "city": "taipei", "operator": "隆發車業有限公司", "note": "檢驗站"}}, {"type": "Feature", "geometry": {"type": "Point", "coordinates": [121.58321096378783, 25.08694166800785]}, "properties": {"name": "春琳國際車業有限公司", "address": "臺北市內湖區江南街28號", "district": "內湖區", "city": "taipei", "operator": "春琳國際車業有限公司", "note": "檢驗站"}}, {"type": "Feature", "geometry": {"type": "Point", "coordinates": [121.56861003470418, 24.992003751033252]}, "properties": {"name": "鳳翔車業行", "address": "臺北市文山區木柵路1段57-6號", "district": "文山區", "city": "taipei", "operator": "鳳翔車業行", "note": "檢驗站"}}, {"type": "Feature", "geometry": {"type": "Point", "coordinates": [121.5711969281778, 24.988188717090207]}, "properties": {"name": "元土車行", "address": "臺北市文山區木柵路1段212號", "district": "文山區", "city": "taipei", "operator": "元土車行", "note": "檢驗站"}}, {"type": "Feature", "geometry": {"type": "Point", "coordinates": [121.57271543162591, 25.000420739017184]}, "properties": {"name": "光輝機車行", "address": "臺北市文山區忠順街1段36、38號", "district": "文山區", "city": "taipei", "operator": "光輝機車行", "note": "檢驗站"}}, {"type": "Feature", "geometry": {"type": "Point", "coordinates": [121.56240539674502, 24.99490233910308]}, "properties": {"name": "順利機車行", "address": "臺北市文山區木新路2段285號", "district": "文山區", "city": "taipei", "operator": "順利機車行", "note": "檢驗站"}}, {"type": "Feature", "geometry": {"type": "Point", "coordinates": [121.56351418690731, 25.00342745667647]}, "properties": {"name": "拓源機車行", "address": "臺北市文山區木新路3段73號", "district": "文山區", "city": "taipei", "operator": "拓源機車行", "note": "檢驗站"}}, {"type": "Feature", "geometry": {"type": "Point", "coordinates": [121.56898732400711, 24.988903494162248]}, "properties": {"name": "東和機車行", "address": "臺北市文山區指南路1段4號", "district": "文山區", "city": "taipei", "operator": "東和機車行", "note": "檢驗站"}}, {"type": "Feature", "geometry": {"type": "Point", "coordinates": [121.56468717247456, 25.001673381557627]}, "properties": {"name": "祥騰機車行", "address": "臺北市文山區景興路94號", "district": "文山區", "city": "taipei", "operator": "祥騰機車行", "note": "檢驗站"}}, {"type": "Feature", "geometry": {"type": "Point", "coordinates": [121.56800338920753, 25.000922665627556]}, "properties": {"name": "威烝車業行", "address": "臺北市文山區景興路28-1號", "district": "文山區", "city": "taipei", "operator": "威烝車業行", "note": "檢驗站"}}, {"type": "Feature", "geometry": {"type": "Point", "coordinates": [121.57138124372139, 25.003906279249062]}, "properties": {"name": "騰暉車業行", "address": "臺北市文山區興隆路2段18號", "district": "文山區", "city": "taipei", "operator": "騰暉車業行", "note": "檢驗站"}}, {"type": "Feature", "geometry": {"type": "Point", "coordinates": [121.57022723709552, 25.00330063373509]}, "properties": {"name": "弘偉車業有限公司", "address": "臺北市文山區羅斯福路6段317號", "district": "文山區", "city": "taipei", "operator": "弘偉車業有限公司", "note": "檢驗站"}}, {"type": "Feature", "geometry": {"type": "Point", "coordinates": [121.50426281481298, 25.13370243716419]}, "properties": {"name": "雄大車業行", "address": "臺北市北投區中和街453-11號", "district": "北投區", "city": "taipei", "operator": "雄大車業行", "note": "檢驗站"}}, {"type": "Feature", "geometry": {"type": "Point", "coordinates": [121.50150838338043, 25.131976450637193]}, "properties": {"name": "和峯車業有限公司", "address": "台北市北投區致遠一路一段92號", "district": "北投區", "city": "taipei", "operator": "和峯車業有限公司", "note": "檢驗站"}}, {"type": "Feature", "geometry": {"type": "Point", "coordinates": [121.50328910671554, 25.132665951209773]}, "properties": {"name": "重輪車業有限公司", "address": "台北市北投區崇仁路一段21號", "district": "北投區", "city": "taipei", "operator": "重輪車業有限公司", "note": "檢驗站"}}, {"type": "Feature", "geometry": {"type": "Point", "coordinates": [121.56415532965173, 25.054098487074555]}, "properties": {"name": "日星車業行", "address": "臺北市松山區八德路3段198號", "district": "松山區", "city": "taipei", "operator": "日星車業行", "note": "檢驗站"}}, {"type": "Feature", "geometry": {"type": "Point", "coordinates": [121.60639479098917, 25.05114706477544]}, "properties": {"name": "亞帝車業有限公司", "address": "臺北市南港區中坡南路43號", "district": "南港區", "city": "taipei", "operator": "亞帝車業有限公司", "note": "檢驗站"}}, {"type": "Feature", "geometry": {"type": "Point", "coordinates": [121.55375583580016, 25.052402582988417]}, "properties": {"name": "尚益車業有限公司", "address": "臺北市松山區五常街281-2號", "district": "松山區", "city": "taipei", "operator": "尚益車業有限公司", "note": "檢驗站"}}, {"type": "Feature", "geometry": {"type": "Point", "coordinates": [121.56205301894876, 25.050540797005247]}, "properties": {"name": "新光機車行", "address": "臺北市松山區民生東路5段57號", "district": "松山區", "city": "taipei", "operator": "新光機車行", "note": "檢驗站"}}, {"type": "Feature", "geometry": {"type": "Point", "coordinates": [121.5598279749917, 25.04659355915068]}, "properties": {"name": "千翔車業行", "address": "臺北市松山區光復北路109號", "district": "松山區", "city": "taipei", "operator": "千翔車業行", "note": "檢驗站"}}, {"type": "Feature", "geometry": {"type": "Point", "coordinates": [121.55103973366184, 25.04677165041381]}, "properties": {"name": "佳昇機車行", "address": "臺北市松山區健康路44號", "district": "松山區", "city": "taipei", "operator": "佳昇機車行", "note": "檢驗站"}}, {"type": "Feature", "geometry": {"type": "Point", "coordinates": [121.56114744171332, 25.0301153530947]}, "properties": {"name": "吉安運動器材有限公司", "address": "台北市信義區中坡南路287號", "district": "信義區", "city": "taipei", "operator": "吉安運動器材有限公司", "note": "檢驗站"}}, {"type": "Feature", "geometry": {"type": "Point", "coordinates": [121.5654424355603, 25.02721398498426]}, "properties": {"name": "春崇車業行", "address": "臺北市信義區福德街268巷1號", "district": "信義區", "city": "taipei", "operator": "春崇車業行", "note": "檢驗站"}}, {"type": "Feature", "geometry": {"type": "Point", "coordinates": [121.60250018367566, 25.058103196996786]}, "properties": {"name": "儀弘機車行", "address": "臺北市南港區研究院路1段185號", "district": "南港區", "city": "taipei", "operator": "儀弘機車行", "note": "檢驗站"}}, {"type": "Feature", "geometry": {"type": "Point", "coordinates": [121.61010270626711, 25.04802766161142]}, "properties": {"name": "高陞機車行", "address": "臺北市南港區研究院路2段72號", "district": "南港區", "city": "taipei", "operator": "高陞機車行", "note": "檢驗站"}}, {"type": "Feature", "geometry": {"type": "Point", "coordinates": [121.51142158991466, 25.06368177824806]}, "properties": {"name": "瑞明機車行", "address": "臺北市大同區長安西路199號", "district": "大同區", "city": "taipei", "operator": "瑞明機車行", "note": "檢驗站"}}, {"type": "Feature", "geometry": {"type": "Point", "coordinates": [121.56735238774566, 24.991409350232228]}, "properties": {"name": "三育機車有限公司", "address": "臺北市文山區景隆街54號", "district": "文山區", "city": "taipei", "operator": "三育機車有限公司", "note": "檢驗站"}}, {"type": "Feature", "geometry": {"type": "Point", "coordinates": [121.49682229628436, 25.041277415653443]}, "properties": {"name": "欣利機車有限公司", "address": "臺北市萬華區西園路2段288之1號", "district": "萬華區", "city": "taipei", "operator": "欣利機車有限公司", "note": "檢驗站"}}, {"type": "Feature", "geometry": {"type": "Point", "coordinates": [121.49944527062726, 25.03792836778397]}, "properties": {"name": "鑫東園車業有限公司", "address": "臺北市萬華區東園街105號", "district": "萬華區", "city": "taipei", "operator": "鑫東園車業有限公司", "note": "檢驗站"}}, {"type": "Feature", "geometry": {"type": "Point", "coordinates": [121.50380771251686, 25.03904951321789]}, "properties": {"name": "葉山車行", "address": "臺北市萬華區桂林路30號", "district": "萬華區", "city": "taipei", "operator": "葉山車行", "note": "檢驗站"}}, {"type": "Feature", "geometry": {"type": "Point", "coordinates": [121.49618609646284, 25.026894337337346]}, "properties": {"name": "尚億車業有限公司", "address": "臺北市萬華區萬大路500號", "district": "萬華區", "city": "taipei", "operator": "尚億車業有限公司", "note": "檢驗站"}}, {"type": "Feature", "geometry": {"type": "Point", "coordinates": [121.52192814084275, 25.09705560200095]}, "properties": {"name": "盟業車業行", "address": "臺北市士林區通河街169號", "district": "士林區", "city": "taipei", "operator": "盟業車業行", "note": "檢驗站"}}, {"type": "Feature", "geometry": {"type": "Point", "coordinates": [121.5299551672091, 25.10025488541552]}, "properties": {"name": "好發達車業", "address": "臺北市士林區天母東路8巷99號", "district": "士林區", "city": "taipei", "operator": "好發達車業", "note": "檢驗站"}}, {"type": "Feature", "geometry": {"type": "Point", "coordinates": [121.52300434052208, 25.09696025070365]}, "properties": {"name": "新天母機車行", "address": "臺北市士林區中山北路6段405巷83號", "district": "士林區", "city": "taipei", "operator": "新天母機車行", "note": "檢驗站"}}, {"type": "Feature", "geometry": {"type": "Point", "coordinates": [121.52503811695574, 25.09465204142306]}, "properties": {"name": "銘豐機車行", "address": "臺北市士林區文林路314號", "district": "士林區", "city": "taipei", "operator": "銘豐機車行", "note": "檢驗站"}}, {"type": "Feature", "geometry": {"type": "Point", "coordinates": [121.50842861910918, 25.058510746153942]}, "properties": {"name": "小緯機車行", "address": "臺北市大同區大龍街26號", "district": "大同區", "city": "taipei", "operator": "小緯機車行", "note": "檢驗站"}}, {"type": "Feature", "geometry": {"type": "Point", "coordinates": [121.56377337561675, 25.025464397119148]}, "properties": {"name": "旭宏車業行", "address": "台北市信義區和平東路三段285號", "district": "信義區", "city": "taipei", "operator": "旭宏車業行", "note": "檢驗站"}}, {"type": "Feature", "geometry": {"type": "Point", "coordinates": [121.54037807269918, 25.029566270160455]}, "properties": {"name": "東貿機車有限公司", "address": "臺北市大安區基隆路2段233號", "district": "大安區", "city": "taipei", "operator": "東貿機車有限公司", "note": "檢驗站"}}, {"type": "Feature", "geometry": {"type": "Point", "coordinates": [121.53506906670621, 25.064440715699256]}, "properties": {"name": "德剛車行有限公司", "address": "臺北市中山區天津街27號", "district": "中山區", "city": "taipei", "operator": "德剛車行有限公司", "note": "檢驗站"}}, {"type": "Feature", "geometry": {"type": "Point", "coordinates": [121.53607824238773, 25.0638420447565]}, "properties": {"name": "偉恆有限公司", "address": "臺北市中山區吉林路408號", "district": "中山區", "city": "taipei", "operator": "偉恆有限公司", "note": "檢驗站"}}, {"type": "Feature", "geometry": {"type": "Point", "coordinates": [121.5218561113756, 25.025431463230483]}, "properties": {"name": "世輪機車行", "address": "臺北市中正區汀州路2段76號", "district": "中正區", "city": "taipei", "operator": "世輪機車行", "note": "檢驗站"}}, {"type": "Feature", "geometry": {"type": "Point", "coordinates": [121.58640432410144, 25.084830271728396]}, "properties": {"name": "日昇機車行", "address": "臺北市內湖區康寧路3段16巷115號", "district": "內湖區", "city": "taipei", "operator": "日昇機車行", "note": "檢驗站"}}, {"type": "Feature", "geometry": {"type": "Point", "coordinates": [121.58053363274144, 25.08608399436815]}, "properties": {"name": "宏淞車業有限公司", "address": "臺北市內湖區金龍路87號", "district": "內湖區", "city": "taipei", "operator": "宏淞車業有限公司", "note": "檢驗站"}}, {"type": "Feature", "geometry": {"type": "Point", "coordinates": [121.58227119179568, 25.083187175104825]}, "properties": {"name": "正倫車業行", "address": "臺北市內湖區康樂街67號", "district": "內湖區", "city": "taipei", "operator": "正倫車業行", "note": "檢驗站"}}, {"type": "Feature", "geometry": {"type": "Point", "coordinates": [121.49080455413582, 25.12996566182701]}, "properties": {"name": "金展機車行", "address": "臺北市北投區自強街62號", "district": "北投區", "city": "taipei", "operator": "金展機車行", "note": "檢驗站"}}, {"type": "Feature", "geometry": {"type": "Point", "coordinates": [121.49348656454738, 25.032029532878102]}, "properties": {"name": "聯耀機車行", "address": "臺北市萬華區環河南路1段21號", "district": "萬華區", "city": "taipei", "operator": "聯耀機車行", "note": "檢驗站"}}, {"type": "Feature", "geometry": {"type": "Point", "coordinates": [121.5021796753263, 25.12996601944903]}, "properties": {"name": "唭哩岸機車行", "address": "臺北市北投區致遠二路89號", "district": "北投區", "city": "taipei", "operator": "唭哩岸機車行", "note": "檢驗站"}}, {"type": "Feature", "geometry": {"type": "Point", "coordinates": [121.56883215717689, 25.038310788562487]}, "properties": {"name": "昇輪機車行", "address": "臺北市信義區信義路6段47號", "district": "信義區", "city": "taipei", "operator": "昇輪機車行", "note": "檢驗站"}}, {"type": "Feature", "geometry": {"type": "Point", "coordinates": [121.49413634450852, 25.028110499724185]}, "properties": {"name": "友順機車行", "address": "臺北市萬華區萬大路423巷27號", "district": "萬華區", "city": "taipei", "operator": "友順機車行", "note": "檢驗站"}}, {"type": "Feature", "geometry": {"type": "Point", "coordinates": [121.5166101325928, 25.09363070476676]}, "properties": {"name": "巨揚機車行", "address": "臺北市士林區中正路605號", "district": "士林區", "city": "taipei", "operator": "巨揚機車行", "note": "檢驗站"}}, {"type": "Feature", "geometry": {"type": "Point", "coordinates": [121.55099852525615, 25.024299365499523]}, "properties": {"name": "信全車業有限公司", "address": "臺北市大安區通化街168號", "district": "大安區", "city": "taipei", "operator": "信全車業有限公司", "note": "檢驗站"}}, {"type": "Feature", "geometry": {"type": "Point", "coordinates": [121.522302305492, 25.037499728793776]}, "properties": {"name": "立豐機車行", "address": "臺北市中正區重慶南路3段32號", "district": "中正區", "city": "taipei", "operator": "立豐機車行", "note": "檢驗站"}}, {"type": "Feature", "geometry": {"type": "Point", "coordinates": [121.5905280744839, 25.087867731264954]}, "properties": {"name": "國祥機車行", "address": "臺北市內湖區康樂街32號", "district": "內湖區", "city": "taipei", "operator": "國祥機車行", "note": "檢驗站"}}, {"type": "Feature", "geometry": {"type": "Point", "coordinates": [121.59529378772345, 25.0789897709178]}, "properties": {"name": "葉陽車業行", "address": "臺北市內湖區民權東路6段320號", "district": "內湖區", "city": "taipei", "operator": "葉陽車業行", "note": "檢驗站"}}, {"type": "Feature", "geometry": {"type": "Point", "coordinates": [121.58042608027712, 25.078238117532557]}, "properties": {"name": "通龍車業行", "address": "臺北市內湖區港墘路34號", "district": "內湖區", "city": "taipei", "operator": "通龍車業行", "note": "檢驗站"}}, {"type": "Feature", "geometry": {"type": "Point", "coordinates": [121.49201953559799, 25.13461134151392]}, "properties": {"name": "大發車業", "address": "臺北市北投區中央北路2段167號", "district": "北投區", "city": "taipei", "operator": "大發車業", "note": "檢驗站"}}, {"type": "Feature", "geometry": {"type": "Point", "coordinates": [121.55882351331088, 25.045687432654503]}, "properties": {"name": "崑宏機車行", "address": "臺北市松山區撫遠街362號", "district": "松山區", "city": "taipei", "operator": "崑宏機車行", "note": "檢驗站"}}, {"type": "Feature", "geometry": {"type": "Point", "coordinates": [121.56799143953994, 25.0372703695737]}, "properties": {"name": "大慶機車材料行", "address": "臺北市信義區莊敬路325巷33號", "district": "信義區", "city": "taipei", "operator": "大慶機車材料行", "note": "檢驗站"}}, {"type": "Feature", "geometry": {"type": "Point", "coordinates": [121.5594846262939, 25.034715959902258]}, "properties": {"name": "東勝機車行", "address": "臺北市信義區松仁路167號", "district": "信義區", "city": "taipei", "operator": "東勝機車行", "note": "檢驗站"}}, {"type": "Feature", "geometry": {"type": "Point", "coordinates": [121.61076681043129, 25.04883252594206]}, "properties": {"name": "益群車業有限公司", "address": "臺北市南港區東新街69號", "district": "南港區", "city": "taipei", "operator": "益群車業有限公司", "note": "檢驗站"}}, {"type": "Feature", "geometry": {"type": "Point", "coordinates": [121.61190881878899, 25.062435532368546]}, "properties": {"name": "民豐機車行", "address": "臺北市南港區成福路137號", "district": "南港區", "city": "taipei", "operator": "民豐機車行", "note": "檢驗站"}}, {"type": "Feature", "geometry": {"type": "Point", "coordinates": [121.60052957999453, 25.04741085480796]}, "properties": {"name": "政賢機車行", "address": "臺北市南港區忠孝東路7段564號", "district": "南港區", "city": "taipei", "operator": "政賢機車行", "note": "檢驗站"}}, {"type": "Feature", "geometry": {"type": "Point", "coordinates": [121.49509131591032, 25.03763755658961]}, "properties": {"name": "億林機車行", "address": "臺北市萬華區艋舺大道416號", "district": "萬華區", "city": "taipei", "operator": "億林機車行", "note": "檢驗站"}}, {"type": "Feature", "geometry": {"type": "Point", "coordinates": [121.5272307654113, 25.031346471064268]}, "properties": {"name": "一成機車有限公司", "address": "臺北市中正區新生南路1段134-1號", "district": "中正區", "city": "taipei", "operator": "一成機車有限公司", "note": "檢驗站"}}, {"type": "Feature", "geometry": {"type": "Point", "coordinates": [121.5233402352808, 25.02621594364549]}, "properties": {"name": "紘益機車行", "address": "臺北市中正區牯嶺街77號", "district": "中正區", "city": "taipei", "operator": "紘益機車行", "note": "檢驗站"}}, {"type": "Feature", "geometry": {"type": "Point", "coordinates": [121.54604983065494, 25.02873587832962]}, "properties": {"name": "皇信機車行", "address": "臺北市大安區濟南路3段68號", "district": "大安區", "city": "taipei", "operator": "皇信機車行", "note": "檢驗站"}}, {"type": "Feature", "geometry": {"type": "Point", "coordinates": [121.58173042088713, 25.08815969415922]}, "properties": {"name": "興陽機車行", "address": "臺北市內湖區五分街39號", "district": "內湖區", "city": "taipei", "operator": "興陽機車行", "note": "檢驗站"}}, {"type": "Feature", "geometry": {"type": "Point", "coordinates": [121.52990469182542, 25.09460658583707]}, "properties": {"name": "誠鎰車業行", "address": "臺北市士林區德行東路23號", "district": "士林區", "city": "taipei", "operator": "誠鎰車業行", "note": "檢驗站"}}, {"type": "Feature", "geometry": {"type": "Point", "coordinates": [121.50683688104108, 25.070741509624234]}, "properties": {"name": "翊翔機車行", "address": "臺北市大同區錦西街53巷2號", "district": "大同區", "city": "taipei", "operator": "翊翔機車行", "note": "檢驗站"}}, {"type": "Feature", "geometry": {"type": "Point", "coordinates": [121.50252216554178, 25.12945526024494]}, "properties": {"name": "欣民機車行", "address": "臺北市北投區行義路21號", "district": "北投區", "city": "taipei", "operator": "欣民機車行", "note": "檢驗站"}}, {"type": "Feature", "geometry": {"type": "Point", "coordinates": [121.56365404821176, 25.03092913401949]}, "properties": {"name": "裕進車業行", "address": "臺北市信義區富陽街63號", "district": "信義區", "city": "taipei", "operator": "裕進車業行", "note": "檢驗站"}}, {"type": "Feature", "geometry": {"type": "Point", "coordinates": [121.54309537263484, 25.02415969879778]}, "properties": {"name": "小林機車行", "address": "臺北市大安區建國南路2段79巷3號", "district": "大安區", "city": "taipei", "operator": "小林機車行", "note": "檢驗站"}}, {"type": "Feature", "geometry": {"type": "Point", "coordinates": [121.50369321003198, 25.03995729468944]}, "properties": {"name": "協合國際行銷有限公司", "address": "臺北市萬華區和平西路2段151號", "district": "萬華區", "city": "taipei", "operator": "協合國際行銷有限公司", "note": "檢驗站"}}, {"type": "Feature", "geometry": {"type": "Point", "coordinates": [121.5817886219303, 25.091172601075435]}, "properties": {"name": "鎧詮機車行", "address": "臺北市內湖區內湖路1段31號", "district": "內湖區", "city": "taipei", "operator": "鎧詮機車行", "note": "檢驗站"}}, {"type": "Feature", "geometry": {"type": "Point", "coordinates": [121.54516936169763, 25.031959316976042]}, "properties": {"name": "駿全車坊", "address": "臺北市大安區市民大道4段22號", "district": "大安區", "city": "taipei", "operator": "駿全車坊", "note": "檢驗站"}}, {"type": "Feature", "geometry": {"type": "Point", "coordinates": [121.5463169382993, 25.025667794320125]}, "properties": {"name": "致盛機車行", "address": "臺北市大安區金華街118-4號", "district": "大安區", "city": "taipei", "operator": "致盛機車行", "note": "檢驗站"}}, {"type": "Feature", "geometry": {"type": "Point", "coordinates": [121.59184072486421, 25.09124757969981]}, "properties": {"name": "成功車業行", "address": "臺北市內湖區金龍路9號", "district": "內湖區", "city": "taipei", "operator": "成功車業行", "note": "檢驗站"}}, {"type": "Feature", "geometry": {"type": "Point", "coordinates": [121.5650213183422, 25.001031187500907]}, "properties": {"name": "達成車業有限公司", "address": "臺北市文山區興隆路2段177號", "district": "文山區", "city": "taipei", "operator": "達成車業有限公司", "note": "檢驗站"}}, {"type": "Feature", "geometry": {"type": "Point", "coordinates": [121.52491076650317, 25.092735960062132]}, "properties": {"name": "嘉盛車業行", "address": "臺北市士林區延平北路6段139號", "district": "士林區", "city": "taipei", "operator": "嘉盛車業行", "note": "檢驗站"}}, {"type": "Feature", "geometry": {"type": "Point", "coordinates": [121.55676919188807, 25.05389641942888]}, "properties": {"name": "永承車業行", "address": "臺北市松山區健康路230號", "district": "松山區", "city": "taipei", "operator": "永承車業行", "note": "檢驗站"}}, {"type": "Feature", "geometry": {"type": "Point", "coordinates": [121.52059432860878, 25.098627410560308]}, "properties": {"name": "德龍車業行", "address": "臺北市士林區故宮路41巷1號", "district": "士林區", "city": "taipei", "operator": "德龍車業行", "note": "檢驗站"}}, {"type": "Feature", "geometry": {"type": "Point", "coordinates": [121.57009169630226, 25.02638660636889]}, "properties": {"name": "俊明機車行", "address": "臺北市信義區吳興街469號", "district": "信義區", "city": "taipei", "operator": "俊明機車行", "note": "檢驗站"}}, {"type": "Feature", "geometry": {"type": "Point", "coordinates": [121.57090609894405, 25.028901815027055]}, "properties": {"name": "勵瑩車業有限公司", "address": "台北市信義區松山路348號", "district": "信義區", "city": "taipei", "operator": "勵瑩車業有限公司", "note": "檢驗站"}}, {"type": "Feature", "geometry": {"type": "Point", "coordinates": [121.49743533546565, 25.13366530726769]}, "properties": {"name": "順達機車行", "address": "臺北市北投區立農街2段206號", "district": "北投區", "city": "taipei", "operator": "順達機車行", "note": "檢驗站"}}, {"type": "Feature", "geometry": {"type": "Point", "coordinates": [121.49616382886605, 25.027259199964323]}, "properties": {"name": "車強機車行", "address": "臺北市萬華區環河南路2段105號", "district": "萬華區", "city": "taipei", "operator": "車強機車行", "note": "檢驗站"}}, {"type": "Feature", "geometry": {"type": "Point", "coordinates": [121.612415245381, 25.049909437714522]}, "properties": {"name": "季祥車業行", "address": "臺北市南港區研究院路1段45號", "district": "南港區", "city": "taipei", "operator": "季祥車業行", "note": "檢驗站"}}, {"type": "Feature", "geometry": {"type": "Point", "coordinates": [121.49349391760288, 25.03956531770925]}, "properties": {"name": "祥和機車行", "address": "臺北市萬華區環河南路2段117號", "district": "萬華區", "city": "taipei", "operator": "祥和機車行", "note": "檢驗站"}}, {"type": "Feature", "geometry": {"type": "Point", "coordinates": [121.51034542149063, 25.06908511967613]}, "properties": {"name": "國真機車有限公司", "address": "臺北市大同區哈密街63巷1號", "district": "大同區", "city": "taipei", "operator": "國真機車有限公司", "note": "檢驗站"}}, {"type": "Feature", "geometry": {"type": "Point", "coordinates": [121.56801894000532, 25.0294202972121]}, "properties": {"name": "三沅行車業股份有限公司", "address": "臺北市信義區忠孝東路5段713號", "district": "信義區", "city": "taipei", "operator": "三沅行車業股份有限公司", "note": "檢驗站"}}, {"type": "Feature", "geometry": {"type": "Point", "coordinates": [121.58026241783102, 25.09096900124443]}, "properties": {"name": "玟樺機車行", "address": "臺北市內湖區內湖路1段91巷7號", "district": "內湖區", "city": "taipei", "operator": "玟樺機車行", "note": "檢驗站"}}, {"type": "Feature", "geometry": {"type": "Point", "coordinates": [121.53636980739134, 25.030221194625668]}, "properties": {"name": "典輪機車行", "address": "臺北市大安區建國南路2段161號", "district": "大安區", "city": "taipei", "operator": "典輪機車行", "note": "檢驗站"}}, {"type": "Feature", "geometry": {"type": "Point", "coordinates": [121.53641724554959, 25.07393063445572]}, "properties": {"name": "偉翔機車行", "address": "臺北市中山區長安東路1段45號", "district": "中山區", "city": "taipei", "operator": "偉翔機車行", "note": "檢驗站"}}, {"type": "Feature", "geometry": {"type": "Point", "coordinates": [121.50104974943115, 25.13423444639586]}, "properties": {"name": "展悅機車行", "address": "臺北市北投區公館路146號", "district": "北投區", "city": "taipei", "operator": "展悅機車行", "note": "檢驗站"}}, {"type": "Feature", "geometry": {"type": "Point", "coordinates": [121.49785314136126, 25.136586925890118]}, "properties": {"name": "僑王機車行", "address": "臺北市北投區致遠二路116號", "district": "北投區", "city": "taipei", "operator": "僑王機車行", "note": "檢驗站"}}, {"type": "Feature", "geometry": {"type": "Point", "coordinates": [121.56218885360889, 24.991645542407557]}, "properties": {"name": "鴻吉機車行", "address": "臺北市文山區興隆路3段117號", "district": "文山區", "city": "taipei", "operator": "鴻吉機車行", "note": "檢驗站"}}, {"type": "Feature", "geometry": {"type": "Point", "coordinates": [121.57176859448472, 24.99299929648208]}, "properties": {"name": "慧昌機車行", "address": "臺北市文山區木柵路3段102巷7號", "district": "文山區", "city": "taipei", "operator": "慧昌機車行", "note": "檢驗站"}}, {"type": "Feature", "geometry": {"type": "Point", "coordinates": [121.52560488936531, 25.09257216782015]}, "properties": {"name": "駿輝機車行", "address": "臺北市士林區大南路295號", "district": "士林區", "city": "taipei", "operator": "駿輝機車行", "note": "檢驗站"}}, {"type": "Feature", "geometry": {"type": "Point", "coordinates": [121.52479475089832, 25.091808061003285]}, "properties": {"name": "新鎰昌機車行", "address": "臺北市士林區至誠路1段2-6號", "district": "士林區", "city": "taipei", "operator": "新鎰昌機車行", "note": "檢驗站"}}, {"type": "Feature", "geometry": {"type": "Point", "coordinates": [121.54053496698742, 25.067092660755137]}, "properties": {"name": "朝日車業行", "address": "臺北市中山區民權東路2段133號", "district": "中山區", "city": "taipei", "operator": "朝日車業行", "note": "檢驗站"}}, {"type": "Feature", "geometry": {"type": "Point", "coordinates": [121.50124567907498, 25.12823466283162]}, "properties": {"name": "聯盈機車材料行", "address": "臺北市北投區中央北路4段545號", "district": "北投區", "city": "taipei", "operator": "聯盈機車材料行", "note": "檢驗站"}}, {"type": "Feature", "geometry": {"type": "Point", "coordinates": [121.58412245881921, 25.077730494156036]}, "properties": {"name": "坤達機車行", "address": "臺北市內湖區文湖街75號", "district": "內湖區", "city": "taipei", "operator": "坤達機車行", "note": "檢驗站"}}, {"type": "Feature", "geometry": {"type": "Point", "coordinates": [121.58318134869522, 25.07771287586008]}, "properties": {"name": "峻東機車行", "address": "臺北市內湖區東湖路119巷49弄30號", "district": "內湖區", "city": "taipei", "operator": "峻東機車行", "note": "檢驗站"}}, {"type": "Feature", "geometry": {"type": "Point", "coordinates": [121.49867382344614, 25.038995033751746]}, "properties": {"name": "承鋒車業行", "address": "臺北市萬華區西園路2段67-2號", "district": "萬華區", "city": "taipei", "operator": "承鋒車業行", "note": "檢驗站"}}, {"type": "Feature", "geometry": {"type": "Point", "coordinates": [121.537962397479, 25.02216215423806]}, "properties": {"name": "建維機車行", "address": "臺北市大安區潮州街86號", "district": "大安區", "city": "taipei", "operator": "建維機車行", "note": "檢驗站"}}, {"type": "Feature", "geometry": {"type": "Point", "coordinates": [121.60654717739541, 25.05859336001749]}, "properties": {"name": "力鼎機車行", "address": "台北市信義區基隆路一段99號", "district": "南港區", "city": "taipei", "operator": "力鼎機車行", "note": "檢驗站"}}, {"type": "Feature", "geometry": {"type": "Point", "coordinates": [121.53192571236613, 25.093394189905737]}, "properties": {"name": "原益車業行", "address": "臺北市士林區延平北路5段14號", "district": "士林區", "city": "taipei", "operator": "原益車業行", "note": "檢驗站"}}, {"type": "Feature", "geometry": {"type": "Point", "coordinates": [121.5208279792524, 25.08660841772945]}, "properties": {"name": "卉茂實業有限公司", "address": "臺北市士林區文林路764號", "district": "士林區", "city": "taipei", "operator": "卉茂實業有限公司", "note": "檢驗站"}}, {"type": "Feature", "geometry": {"type": "Point", "coordinates": [121.58320588124946, 25.07943973061572]}, "properties": {"name": "百鉅機車行", "address": "臺北市內湖區成功路2段314號", "district": "內湖區", "city": "taipei", "operator": "百鉅機車行", "note": "檢驗站"}}, {"type": "Feature", "geometry": {"type": "Point", "coordinates": [121.55967106469897, 25.025226373876098]}, "properties": {"name": "豪信機車行", "address": "臺北市信義區松隆路217號", "district": "信義區", "city": "taipei", "operator": "豪信機車行", "note": "檢驗站"}}, {"type": "Feature", "geometry": {"type": "Point", "coordinates": [121.5371461614283, 25.06618898122853]}, "properties": {"name": "泓原彰車業行", "address": "臺北市中山區中原街23號", "district": "中山區", "city": "taipei", "operator": "泓原彰車業行", "note": "檢驗站"}}, {"type": "Feature", "geometry": {"type": "Point", "coordinates": [121.59568871889765, 25.084653743468778]}, "properties": {"name": "誠鴻機車行", "address": "臺北市內湖區民權東路6段60號", "district": "內湖區", "city": "taipei", "operator": "誠鴻機車行", "note": "檢驗站"}}, {"type": "Feature", "geometry": {"type": "Point", "coordinates": [121.50115867828657, 25.125920471887337]}, "properties": {"name": "大利車業行", "address": "臺北市北投區中央北路1段203號", "district": "北投區", "city": "taipei", "operator": "大利車業行", "note": "檢驗站"}}, {"type": "Feature", "geometry": {"type": "Point", "coordinates": [121.5488953791562, 25.02655405911238]}, "properties": {"name": "樺新車業行", "address": "臺北市大安區市民大道4段64號", "district": "大安區", "city": "taipei", "operator": "樺新車業行", "note": "檢驗站"}}, {"type": "Feature", "geometry": {"type": "Point", "coordinates": [121.54256351575998, 25.070985027514023]}, "properties": {"name": "永全機車行", "address": "臺北市中山區中山北路2段137巷36-2號", "district": "中山區", "city": "taipei", "operator": "永全機車行", "note": "檢驗站"}}, {"type": "Feature", "geometry": {"type": "Point", "coordinates": [121.49751035111889, 25.130947500770176]}, "properties": {"name": "浩成機車行", "address": "臺北市北投區崇仁路1段40號", "district": "北投區", "city": "taipei", "operator": "浩成機車行", "note": "檢驗站"}}, {"type": "Feature", "geometry": {"type": "Point", "coordinates": [121.58304981872624, 25.076622027474937]}, "properties": {"name": "飛皇車業行", "address": "臺北市內湖區內湖路2段9號", "district": "內湖區", "city": "taipei", "operator": "飛皇車業行", "note": "檢驗站"}}, {"type": "Feature", "geometry": {"type": "Point", "coordinates": [121.50515701754829, 25.034443666996253]}, "properties": {"name": "豪成機車行", "address": "臺北市萬華區和平西路2段190巷5號", "district": "萬華區", "city": "taipei", "operator": "豪成機車行", "note": "檢驗站"}}, {"type": "Feature", "geometry": {"type": "Point", "coordinates": [121.52945385032478, 25.09141131907603]}, "properties": {"name": "日輝車業有限公司", "address": "臺北市士林區延平北路5段41號1樓", "district": "士林區", "city": "taipei", "operator": "日輝車業有限公司", "note": "檢驗站"}}, {"type": "Feature", "geometry": {"type": "Point", "coordinates": [121.5618853147241, 24.99817113131123]}, "properties": {"name": "元信機車行有限公司", "address": "臺北市文山區木柵路2段125號", "district": "文山區", "city": "taipei", "operator": "元信機車行有限公司", "note": "檢驗站"}}, {"type": "Feature", "geometry": {"type": "Point", "coordinates": [121.55765774518869, 25.02738716135158]}, "properties": {"name": "益昇機車行", "address": "臺北市信義區莊敬路214號", "district": "信義區", "city": "taipei", "operator": "益昇機車行", "note": "檢驗站"}}, {"type": "Feature", "geometry": {"type": "Point", "coordinates": [121.55880543355336, 25.047061368189475]}, "properties": {"name": "老羅機車行", "address": "臺北市松山區塔悠路206號", "district": "松山區", "city": "taipei", "operator": "老羅機車行", "note": "檢驗站"}}, {"type": "Feature", "geometry": {"type": "Point", "coordinates": [121.61470268996337, 25.048895224995384]}, "properties": {"name": "惠展車業", "address": "臺北市南港區福德街354號", "district": "南港區", "city": "taipei", "operator": "惠展車業", "note": "檢驗站"}}, {"type": "Feature", "geometry": {"type": "Point", "coordinates": [121.59233109512522, 25.08550108241989]}, "properties": {"name": "米德車業行", "address": "臺北市內湖區環山路2段21號", "district": "內湖區", "city": "taipei", "operator": "米德車業行", "note": "檢驗站"}}, {"type": "Feature", "geometry": {"type": "Point", "coordinates": [121.5476518532775, 25.02231099419304]}, "properties": {"name": "迅誠機車行", "address": "臺北市大安區通化街171巷11號", "district": "大安區", "city": "taipei", "operator": "迅誠機車行", "note": "檢驗站"}}, {"type": "Feature", "geometry": {"type": "Point", "coordinates": [121.53696116056209, 25.06900823143822]}, "properties": {"name": "新星機車行", "address": "臺北市中山區新生北路3段91號", "district": "中山區", "city": "taipei", "operator": "新星機車行", "note": "檢驗站"}}, {"type": "Feature", "geometry": {"type": "Point", "coordinates": [121.49708353606431, 25.13766266665322]}, "properties": {"name": "草山車業", "address": "臺北市北投區東陽街470號1樓", "district": "北投區", "city": "taipei", "operator": "草山車業", "note": "檢驗站"}}, {"type": "Feature", "geometry": {"type": "Point", "coordinates": [121.50594050016747, 25.03168608390911]}, "properties": {"name": "德客隆機車行", "address": "臺北市萬華區西藏路170號1樓", "district": "萬華區", "city": "taipei", "operator": "德客隆機車行", "note": "檢驗站"}}, {"type": "Feature", "geometry": {"type": "Point", "coordinates": [121.55973643713716, 25.05195409459592]}, "properties": {"name": "尚勇車業行", "address": "臺北市松山區八德路4段332號", "district": "松山區", "city": "taipei", "operator": "尚勇車業行", "note": "檢驗站"}}, {"type": "Feature", "geometry": {"type": "Point", "coordinates": [121.61064142888776, 25.062161443205206]}, "properties": {"name": "嘉駿機車行", "address": "臺北市南港區成福路155號1樓", "district": "南港區", "city": "taipei", "operator": "嘉駿機車行", "note": "檢驗站"}}, {"type": "Feature", "geometry": {"type": "Point", "coordinates": [121.56012460649318, 25.028376403124888]}, "properties": {"name": "翔偉機車行", "address": "臺北市信義區福德街66號", "district": "信義區", "city": "taipei", "operator": "翔偉機車行", "note": "檢驗站"}}, {"type": "Feature", "geometry": {"type": "Point", "coordinates": [121.57126685019507, 24.990612913494093]}, "properties": {"name": "福星機車行", "address": "臺北市文山區木新路2段123號", "district": "文山區", "city": "taipei", "operator": "福星機車行", "note": "檢驗站"}}, {"type": "Feature", "geometry": {"type": "Point", "coordinates": [121.51908101677321, 25.08620103790242]}, "properties": {"name": "北大機車材料行", "address": "臺北市士林區中正路411、413號", "district": "士林區", "city": "taipei", "operator": "北大機車材料行", "note": "檢驗站"}}, {"type": "Feature", "geometry": {"type": "Point", "coordinates": [121.59884281156165, 25.054208059273883]}, "properties": {"name": "家育車業行", "address": "臺北市南港區成福路200之1號1樓", "district": "南港區", "city": "taipei", "operator": "家育車業行", "note": "檢驗站"}}, {"type": "Feature", "geometry": {"type": "Point", "coordinates": [121.60830097912192, 25.051660148624496]}, "properties": {"name": "三漾輪業行", "address": "臺北市南港區忠孝東路6段240號1樓", "district": "南港區", "city": "taipei", "operator": "三漾輪業行", "note": "檢驗站"}}, {"type": "Feature", "geometry": {"type": "Point", "coordinates": [121.56440361975291, 24.99941129327806]}, "properties": {"name": "合展車業行", "address": "臺北市文山區羅斯福路6段73、75號", "district": "文山區", "city": "taipei", "operator": "合展車業行", "note": "檢驗站"}}, {"type": "Feature", "geometry": {"type": "Point", "coordinates": [121.5161478009295, 25.06226450122251]}, "properties": {"name": "立偉成有限公司", "address": "臺北市大同區寧夏路127號", "district": "大同區", "city": "taipei", "operator": "立偉成有限公司", "note": "檢驗站"}}, {"type": "Feature", "geometry": {"type": "Point", "coordinates": [121.59109815872114, 25.09058257671172]}, "properties": {"name": "內湖車業有限公司", "address": "臺北市內湖區文德路18號", "district": "內湖區", "city": "taipei", "operator": "內湖車業有限公司", "note": "檢驗站"}}, {"type": "Feature", "geometry": {"type": "Point", "coordinates": [121.59270524842634, 25.085800928114626]}, "properties": {"name": "法仕德車業有限公司", "address": "臺北市內湖區新明路363號", "district": "內湖區", "city": "taipei", "operator": "法仕德車業有限公司", "note": "檢驗站"}}, {"type": "Feature", "geometry": {"type": "Point", "coordinates": [121.56737892868566, 25.03993869533513]}, "properties": {"name": "摩都車業行", "address": "臺北市信義區吳興街378號1樓", "district": "信義區", "city": "taipei", "operator": "摩都車業行", "note": "檢驗站"}}, {"type": "Feature", "geometry": {"type": "Point", "coordinates": [121.56360222345768, 25.03371299805937]}, "properties": {"name": "光明車業有限公司", "address": "臺北市信義區基隆路2段165號", "district": "信義區", "city": "taipei", "operator": "光明車業有限公司", "note": "檢驗站"}}, {"type": "Feature", "geometry": {"type": "Point", "coordinates": [121.57106215557445, 25.0026345831234]}, "properties": {"name": "三光機車行", "address": "臺北市文山區景興路7號1樓", "district": "文山區", "city": "taipei", "operator": "三光機車行", "note": "檢驗站"}}, {"type": "Feature", "geometry": {"type": "Point", "coordinates": [121.5295260985544, 25.086142557389692]}, "properties": {"name": "永景機車材料行", "address": "臺北市士林區中山北路6段405巷79號1樓", "district": "士林區", "city": "taipei", "operator": "永景機車材料行", "note": "檢驗站"}}, {"type": "Feature", "geometry": {"type": "Point", "coordinates": [121.51895476462752, 25.089921789001828]}, "properties": {"name": "進喆車業行", "address": "臺北市士林區通河東街1段198號1樓", "district": "士林區", "city": "taipei", "operator": "進喆車業行", "note": "檢驗站"}}, {"type": "Feature", "geometry": {"type": "Point", "coordinates": [121.50208332355311, 25.035907312789107]}, "properties": {"name": "金里車行", "address": "臺北市萬華區桂林路244巷57號", "district": "萬華區", "city": "taipei", "operator": "金里車行", "note": "檢驗站"}}, {"type": "Feature", "geometry": {"type": "Point", "coordinates": [121.49471776941289, 25.028789658530798]}, "properties": {"name": "永盛機車行", "address": "臺北市萬華區環河南路2段300號1樓", "district": "萬華區", "city": "taipei", "operator": "永盛機車行", "note": "檢驗站"}}, {"type": "Feature", "geometry": {"type": "Point", "coordinates": [121.5460188478594, 25.029895738959613]}, "properties": {"name": "立暉機車行", "address": "臺北市大安區新生南路2段82-1號1樓", "district": "大安區", "city": "taipei", "operator": "立暉機車行", "note": "檢驗站"}}, {"type": "Feature", "geometry": {"type": "Point", "coordinates": [121.57188281985191, 25.033007554833887]}, "properties": {"name": "世貿機車材料行", "address": "臺北市信義區松信路162號", "district": "信義區", "city": "taipei", "operator": "世貿機車材料行", "note": "檢驗站"}}, {"type": "Feature", "geometry": {"type": "Point", "coordinates": [121.53650072350953, 25.063087069630388]}, "properties": {"name": "旭順車業行", "address": "臺北市中山區中原街55號", "district": "中山區", "city": "taipei", "operator": "旭順車業行", "note": "檢驗站"}}, {"type": "Feature", "geometry": {"type": "Point", "coordinates": [121.56133777254695, 24.995012458626572]}, "properties": {"name": "龍杰車業行", "address": "臺北市文山區木柵路1段206號", "district": "文山區", "city": "taipei", "operator": "龍杰車業行", "note": "檢驗站"}}, {"type": "Feature", "geometry": {"type": "Point", "coordinates": [121.53375714533374, 25.065805886438593]}, "properties": {"name": "興羨機車行", "address": "臺北市中山區興安街65號", "district": "中山區", "city": "taipei", "operator": "興羨機車行", "note": "檢驗站"}}, {"type": "Feature", "geometry": {"type": "Point", "coordinates": [121.5815612301861, 25.091190577635086]}, "properties": {"name": "千豐車業行", "address": "臺北市內湖區安康路191號", "district": "內湖區", "city": "taipei", "operator": "千豐車業行", "note": "檢驗站"}}, {"type": "Feature", "geometry": {"type": "Point", "coordinates": [121.5483753378225, 25.02790318574752]}, "properties": {"name": "崇盛機車行", "address": "臺北市大安區瑞安街152號", "district": "大安區", "city": "taipei", "operator": "崇盛機車行", "note": "檢驗站"}}, {"type": "Feature", "geometry": {"type": "Point", "coordinates": [121.5201125804449, 25.07099315867004]}, "properties": {"name": "雄偉機車行", "address": "臺北市大同區環河北路1段335號", "district": "大同區", "city": "taipei", "operator": "雄偉機車行", "note": "檢驗站"}}, {"type": "Feature", "geometry": {"type": "Point", "coordinates": [121.59085650534885, 25.080112176415472]}, "properties": {"name": "冠頡車業行", "address": "臺北市內湖區康樂街200號1樓", "district": "內湖區", "city": "taipei", "operator": "冠頡車業行", "note": "檢驗站"}}, {"type": "Feature", "geometry": {"type": "Point", "coordinates": [121.5169437067703, 25.097100301286602]}, "properties": {"name": "學生機車行有限公司", "address": "臺北市士林區華岡路31之3號1樓", "district": "士林區", "city": "taipei", "operator": "學生機車行有限公司", "note": "檢驗站"}}, {"type": "Feature", "geometry": {"type": "Point", "coordinates": [121.55732801317203, 25.05262415183094]}, "properties": {"name": "祥瑞車業行", "address": "台北市松山區光復南路46號", "district": "松山區", "city": "taipei", "operator": "祥瑞車業行", "note": "檢驗站"}}, {"type": "Feature", "geometry": {"type": "Point", "coordinates": [121.61345716460683, 25.04990382635557]}, "properties": {"name": "祥銘機車行", "address": "臺北市南港區興中路80巷14號1樓", "district": "南港區", "city": "taipei", "operator": "祥銘機車行", "note": "檢驗站"}}, {"type": "Feature", "geometry": {"type": "Point", "coordinates": [121.57006527400445, 24.998256555511265]}, "properties": {"name": "吉全機車行", "address": "臺北市文山區興隆路4段111-2號", "district": "文山區", "city": "taipei", "operator": "吉全機車行", "note": "檢驗站"}}, {"type": "Feature", "geometry": {"type": "Point", "coordinates": [121.56466761283507, 25.026459878500702]}, "properties": {"name": "展旗車業行", "address": "台北市信義區松山路225號", "district": "信義區", "city": "taipei", "operator": "展旗車業行", "note": "檢驗站"}}, {"type": "Feature", "geometry": {"type": "Point", "coordinates": [121.49556737690072, 25.129232934298642]}, "properties": {"name": "百傑車業行", "address": "臺北市北投區中央北路2段303號", "district": "北投區", "city": "taipei", "operator": "百傑車業行", "note": "檢驗站"}}, {"type": "Feature", "geometry": {"type": "Point", "coordinates": [121.60952213615235, 25.060723729510407]}, "properties": {"name": "景隆機車有限公司", "address": "臺北市南港區忠孝東路7段597號", "district": "南港區", "city": "taipei", "operator": "景隆機車有限公司", "note": "檢驗站"}}, {"type": "Feature", "geometry": {"type": "Point", "coordinates": [121.51717685861728, 25.036098778783735]}, "properties": {"name": "三之三車業有限公司", "address": "臺北市中正區重慶南路3段56號", "district": "中正區", "city": "taipei", "operator": "三之三車業有限公司", "note": "檢驗站"}}, {"type": "Feature", "geometry": {"type": "Point", "coordinates": [121.5614114847258, 25.040123096633014]}, "properties": {"name": "正泓機車行", "address": "臺北市信義區崇德街78號1樓", "district": "信義區", "city": "taipei", "operator": "正泓機車行", "note": "檢驗站"}}, {"type": "Feature", "geometry": {"type": "Point", "coordinates": [121.61181705655581, 25.05580154574355]}, "properties": {"name": "伍邦車業", "address": "臺北市南港區忠孝東路6段284號", "district": "南港區", "city": "taipei", "operator": "伍邦車業", "note": "檢驗站"}}, {"type": "Feature", "geometry": {"type": "Point", "coordinates": [121.58737721453763, 25.080832274514723]}, "properties": {"name": "豪展機車行", "address": "臺北市內湖區康寧路1段206號", "district": "內湖區", "city": "taipei", "operator": "豪展機車行", "note": "檢驗站"}}, {"type": "Feature", "geometry": {"type": "Point", "coordinates": [121.56197238058041, 25.040522955628937]}, "properties": {"name": "大仁機車行", "address": "臺北市信義區莊敬路325巷38號", "district": "信義區", "city": "taipei", "operator": "大仁機車行", "note": "檢驗站"}}, {"type": "Feature", "geometry": {"type": "Point", "coordinates": [121.56326680091202, 25.033233540037266]}, "properties": {"name": "政辰車業行", "address": "臺北市信義區信安街184號", "district": "信義區", "city": "taipei", "operator": "政辰車業行", "note": "檢驗站"}}, {"type": "Feature", "geometry": {"type": "Point", "coordinates": [121.5959099074365, 25.086322566183732]}, "properties": {"name": "熊大車業行", "address": "臺北市內湖區內湖路2段114號", "district": "內湖區", "city": "taipei", "operator": "熊大車業行", "note": "檢驗站"}}, {"type": "Feature", "geometry": {"type": "Point", "coordinates": [121.58878149750971, 25.082411961132788]}, "properties": {"name": "東和機車有限公司", "address": "臺北市內湖區環山路1段96號", "district": "內湖區", "city": "taipei", "operator": "東和機車有限公司", "note": "檢驗站"}}, {"type": "Feature", "geometry": {"type": "Point", "coordinates": [121.51930132066231, 25.09078846974643]}, "properties": {"name": "聖平車業行", "address": "臺北市士林區延平北路6段149號", "district": "士林區", "city": "taipei", "operator": "聖平車業行", "note": "檢驗站"}}, {"type": "Feature", "geometry": {"type": "Point", "coordinates": [121.5407030904649, 25.07180653987432]}, "properties": {"name": "英詮機車行", "address": "臺北市中山區北安路656號1樓", "district": "中山區", "city": "taipei", "operator": "英詮機車行", "note": "檢驗站"}}, {"type": "Feature", "geometry": {"type": "Point", "coordinates": [121.50215984857698, 25.127156931813605]}, "properties": {"name": "良偉機車行", "address": "臺北市北投區立農街2段284號1樓", "district": "北投區", "city": "taipei", "operator": "良偉機車行", "note": "檢驗站"}}, {"type": "Feature", "geometry": {"type": "Point", "coordinates": [121.49878751422537, 25.138742764173514]}, "properties": {"name": "健展車業行", "address": "臺北市北投區中央北路4段479號", "district": "北投區", "city": "taipei", "operator": "健展車業行", "note": "檢驗站"}}, {"type": "Feature", "geometry": {"type": "Point", "coordinates": [121.56770985752117, 24.999272000465954]}, "properties": {"name": "龍騰車業行", "address": "臺北市文山區木柵路1段34號", "district": "文山區", "city": "taipei", "operator": "龍騰車業行", "note": "檢驗站"}}, {"type": "Feature", "geometry": {"type": "Point", "coordinates": [121.51384281733381, 25.040570349053148]}, "properties": {"name": "致盛國際車業有限公司", "address": "臺北市中正區重慶南路3段130-1、130-2號", "district": "中正區", "city": "taipei", "operator": "致盛國際車業有限公司", "note": "檢驗站"}}, {"type": "Feature", "geometry": {"type": "Point", "coordinates": [121.49974194667331, 25.127728759397243]}, "properties": {"name": "凱聿車業有限公司", "address": "臺北市北投區明德路150巷5號1樓", "district": "北投區", "city": "taipei", "operator": "凱聿車業有限公司", "note": "檢驗站"}}, {"type": "Feature", "geometry": {"type": "Point", "coordinates": [121.49253405062089, 25.132713424112044]}, "properties": {"name": "振昇機車行", "address": "臺北市北投區中和街241號1樓", "district": "北投區", "city": "taipei", "operator": "振昇機車行", "note": "檢驗站"}}, {"type": "Feature", "geometry": {"type": "Point", "coordinates": [121.49883602254486, 25.125391347220507]}, "properties": {"name": "金順機車行", "address": "臺北市北投區育仁路137號1樓", "district": "北投區", "city": "taipei", "operator": "金順機車行", "note": "檢驗站"}}, {"type": "Feature", "geometry": {"type": "Point", "coordinates": [121.57267611423033, 25.039606878055746]}, "properties": {"name": "丞時機車行", "address": "臺北市信義區大道路31號", "district": "信義區", "city": "taipei", "operator": "丞時機車行", "note": "檢驗站"}}, {"type": "Feature", "geometry": {"type": "Point", "coordinates": [121.51928316630686, 25.026879458385434]}, "properties": {"name": "禾錡車業行", "address": "臺北市中正區汀州路2段251號", "district": "中正區", "city": "taipei", "operator": "禾錡車業行", "note": "檢驗站"}}, {"type": "Feature", "geometry": {"type": "Point", "coordinates": [121.57401429078031, 24.996074008075315]}, "properties": {"name": "孟軒機車行", "address": "臺北市文山區木柵路一段180號1樓", "district": "文山區", "city": "taipei", "operator": "孟軒機車行", "note": "檢驗站"}}, {"type": "Feature", "geometry": {"type": "Point", "coordinates": [121.59156565321587, 25.083941952241112]}, "properties": {"name": "動力羊機車部品開發有限公司", "address": "臺北市內湖區新明路339號1樓", "district": "內湖區", "city": "taipei", "operator": "動力羊機車部品開發有限公司", "note": "檢驗站"}}, {"type": "Feature", "geometry": {"type": "Point", "coordinates": [121.58447479834742, 25.089155583129227]}, "properties": {"name": "鑫勝車業行", "address": "臺北市內湖區文德路90巷28號1樓", "district": "內湖區", "city": "taipei", "operator": "鑫勝車業行", "note": "檢驗站"}}, {"type": "Feature", "geometry": {"type": "Point", "coordinates": [121.55068391412166, 25.022599694497202]}, "properties": {"name": "德興鑫車業行", "address": "臺北市大安區延吉街270號", "district": "大安區", "city": "taipei", "operator": "德興鑫車業行", "note": "檢驗站"}}, {"type": "Feature", "geometry": {"type": "Point", "coordinates": [121.56562024123009, 25.031137376211955]}, "properties": {"name": "辰昶機車行", "address": "臺北市信義區信安街80號", "district": "信義區", "city": "taipei", "operator": "辰昶機車行", "note": "檢驗站"}}, {"type": "Feature", "geometry": {"type": "Point", "coordinates": [121.50474989039891, 25.132031854265488]}, "properties": {"name": "原馳機車行", "address": "台北市北投區東華街二段14號1樓", "district": "北投區", "city": "taipei", "operator": "原馳機車行", "note": "檢驗站"}}, {"type": "Feature", "geometry": {"type": "Point", "coordinates": [121.50406922008234, 25.137724430950858]}, "properties": {"name": "聲豪機車行", "address": "臺北市北投區西安街2段185號1樓", "district": "北投區", "city": "taipei", "operator": "聲豪機車行", "note": "檢驗站"}}, {"type": "Feature", "geometry": {"type": "Point", "coordinates": [121.56121995844516, 25.03764009891205]}, "properties": {"name": "人豪機車行", "address": "臺北市信義區莊敬路204號1樓", "district": "信義區", "city": "taipei", "operator": "人豪機車行", "note": "檢驗站"}}, {"type": "Feature", "geometry": {"type": "Point", "coordinates": [121.369252, 24.92605]}, "properties": {"name": "巴黎花都社區", "address": "新北市三峽區學成路265號", "district": "三峽區", "city": "newtaipei", "station_type": "社區大樓", "is_public": false, "slots": 4}}, {"type": "Feature", "geometry": {"type": "Point", "coordinates": [121.47145, 25.087625]}, "properties": {"name": "知森堂社區", "address": "新北市蘆洲區光榮路120巷8弄33號", "district": "蘆洲區", "city": "newtaipei", "station_type": "社區大樓", "is_public": false, "slots": 1}}, {"type": "Feature", "geometry": {"type": "Point", "coordinates": [121.453911, 25.037574]}, "properties": {"name": "都市特區", "address": "新北市新莊區中平路270號7弄12號8樓", "district": "新莊區", "city": "newtaipei", "station_type": "社區大樓", "is_public": false, "slots": 5}}, {"type": "Feature", "geometry": {"type": "Point", "coordinates": [121.456091, 25.029317]}, "properties": {"name": "歐洲之星社區", "address": "新北市新莊區中原路193-203號", "district": "新莊區", "city": "newtaipei", "station_type": "社區大樓", "is_public": false, "slots": 2}}, {"type": "Feature", "geometry": {"type": "Point", "coordinates": [121.449507, 25.028517]}, "properties": {"name": "峰景鳳翔社區管理委員會", "address": "新北市新莊區中正路７０６號１樓", "district": "新莊區", "city": "newtaipei", "station_type": "社區大樓", "is_public": false, "slots": 4}},