{"type": "FeatureCollection", "features": [{"type": "Feature", "geometry": {"type": "Point", "coordinates": [121.525973, 25.0873]}, "properties": {"name": "中華汽車社子服務廠", "address": "臺北市士林區延平北路6段434號", "district": "士林區", "city": "taipei", "operator": "中華汽車"}}, {"type": "Feature", "geometry": {"type": "Point", "coordinates": [121.5854, 25.080479]}, "properties": {"name": "中華汽車內湖1服務廠", "address": "臺北市內湖區內湖路一段411巷56號", "district": "內湖區", "city": "taipei", "operator": "中華汽車"}}, {"type": "Feature", "geometry": {"type": "Point", "coordinates": [121.500838, 25.13402]}, "properties": {"name": "中華汽車北投服務廠", "address": "臺北市北投區大業路262號", "district": "北投區", "city": "taipei", "operator": "中華汽車"}}, {"type": "Feature", "geometry": {"type": "Point", "coordinates": [121.611506, 25.050043]}, "properties": {"name": "中華汽車南港服務廠", "address": "臺北市南港區成功路一段36巷20號", "district": "南港區", "city": "taipei", "operator": "中華汽車"}}, {"type": "Feature", "geometry": {"type": "Point", "coordinates": [121.523363, 25.087358]}, "properties": {"name": "福林公園地下停車場", "address": "臺北市士林區中正路17號", "district": "士林區", "city": "taipei", "operator": "中華汽車"}}, {"type": "Feature", "geometry": {"type": "Point", "coordinates": [121.520924, 25.093064]}, "properties": {"name": "文昌國小地下停車場", "address": "臺北市士林區文林路615巷20號地下", "district": "士林區", "city": "taipei", "operator": "中華汽車"}}, {"type": "Feature", "geometry": {"type": "Point", "coordinates": [121.518618, 25.089386]}, "properties": {"name": "社子國小地下停車場", "address": "臺北市士林區延平北路6段308號地下", "district": "士林區", "city": "taipei", "operator": "中華汽車"}}, {"type": "Feature", "geometry": {"type": "Point", "coordinates": [121.526099, 25.093539]}, "properties": {"name": "承德公園地下停車場", "address": "臺北市士林區基河路150號", "district": "士林區", "city": "taipei", "operator": "中華汽車"}}, {"type": "Feature", "geometry": {"type": "Point", "coordinates": [121.509545, 25.064071]}, "properties": {"name": "啟聰學校地下停車場", "address": "臺北市大同區延平北路4段205號", "district": "大同區", "city": "taipei", "operator": "中華汽車"}}, {"type": "Feature", "geometry": {"type": "Point", "coordinates": [121.516613, 25.057078]}, "properties": {"name": "建成公園地下停車場", "address": "臺北市大同區承德路2段31號", "district": "大同區", "city": "taipei", "operator": "中華汽車"}}, {"type": "Feature", "geometry": {"type": "Point", "coordinates": [121.51657, 25.065378]}, "properties": {"name": "建成國中地下停車場", "address": "臺北市大同區長安西路37號之1", "district": "大同區", "city": "taipei", "operator": "中華汽車"}}, {"type": "Feature", "geometry": {"type": "Point", "coordinates": [121.510983, 25.058866]}, "properties": {"name": "大龍國小地下停車場", "address": "臺北市大同區哈密街47號", "district": "大同區", "city": "taipei", "operator": "中華汽車"}}, {"type": "Feature", "geometry": {"type": "Point", "coordinates": [121.518387, 25.061039]}, "properties": {"name": "蓬萊國小地下停車場", "address": "臺北市大同區寧夏路35號", "district": "大同區", "city": "taipei", "operator": "中華汽車"}}, {"type": "Feature", "geometry": {"type": "Point", "coordinates": [121.538113, 25.021861]}, "properties": {"name": "龍門國中地下停車場", "address": "臺北市大安區建國南路2段269號地下停車場", "district": "大安區", "city": "taipei", "operator": "中華汽車"}}, {"type": "Feature", "geometry": {"type": "Point", "coordinates": [121.54717, 25.027945]}, "properties": {"name": "大安森林公園地下停車場", "address": "臺北市大安區建國南路2段2號", "district": "大安區", "city": "taipei", "operator": "中華汽車"}}, {"type": "Feature", "geometry": {"type": "Point", "coordinates": [121.546686, 25.029457]}, "properties": {"name": "嘉興公園地下停車場", "address": "臺北市大安區嘉興街373號", "district": "大安區", "city": "taipei", "operator": "中華汽車"}}, {"type": "Feature", "geometry": {"type": "Point", "coordinates": [121.537035, 25.075477]}, "properties": {"name": "永盛公園地下停車場", "address": "臺北市中山區中山北路2段93巷30號", "district": "中山區", "city": "taipei", "operator": "中華汽車"}}, {"type": "Feature", "geometry": {"type": "Point", "coordinates": [121.535142, 25.070424]}, "properties": {"name": "長安國小地下停車場", "address": "臺北市中山區松江路90巷14號B1樓", "district": "中山區", "city": "taipei", "operator": "中華汽車"}}, {"type": "Feature", "geometry": {"type": "Point", "coordinates": [121.540553, 25.071222]}, "properties": {"name": "榮星花園地下停車場", "address": "臺北市中山區建國北路3段39號", "district": "中山區", "city": "taipei", "operator": "中華汽車"}}, {"type": "Feature", "geometry": {"type": "Point", "coordinates": [121.54094, 25.070728]}, "properties": {"name": "濱江國中地下停車場", "address": "臺北市中山區樂群2路266巷1號地下停車場", "district": "中山區", "city": "taipei", "operator": "中華汽車"}}, {"type": "Feature", "geometry": {"type": "Point", "coordinates": [121.590555, 25.07835]}, "properties": {"name": "大湖公園地下停車場", "address": "臺北市內湖區成功路5段7號", "district": "內湖區", "city": "taipei", "operator": "中華汽車"}}, {"type": "Feature", "geometry": {"type": "Point", "coordinates": [121.584835, 25.081273]}, "properties": {"name": "東湖國小地下停車場", "address": "臺北市內湖區東湖路115號地下停車場", "district": "內湖區", "city": "taipei", "operator": "中華汽車"}}, {"type": "Feature", "geometry": {"type": "Point", "coordinates": [121.583058, 25.080593]}, "properties": {"name": "康樂合署大樓地下停車場", "address": "臺北市內湖區康樂街150號", "district": "內湖區", "city": "taipei", "operator": "中華汽車"}}, {"type": "Feature", "geometry": {"type": "Point", "coordinates": [121.563912, 24.993436]}, "properties": {"name": "永建國小地下停車場", "address": "臺北市文山區木柵路1段311巷1號", "district": "文山區", "city": "taipei", "operator": "中華汽車"}}, {"type": "Feature", "geometry": {"type": "Point", "coordinates": [121.570328, 24.994478]}, "properties": {"name": "興隆公園地下停車場", "address": "臺北市文山區仙岩路128號", "district": "文山區", "city": "taipei", "operator": "中華汽車"}}, {"type": "Feature", "geometry": {"type": "Point", "coordinates": [121.567142, 24.992614]}, "properties": {"name": "萬興國小地下停車場", "address": "臺北市文山區秀明路2段116號", "district": "文山區", "city": "taipei", "operator": "中華汽車"}}, {"type": "Feature", "geometry": {"type": "Point", "coordinates": [121.565904, 25.00134]}, "properties": {"name": "景美國小地下停車場", "address": "臺北市文山區景文街142巷2號地下停車場", "district": "文山區", "city": "taipei", "operator": "中華汽車"}}, {"type": "Feature", "geometry": {"type": "Point", "coordinates": [121.570476, 24.99741]}, "properties": {"name": "臺北花木批發市場地下停車場", "address": "臺北市文山區興隆路1段15號", "district": "文山區", "city": "taipei", "operator": "中華汽車"}}, {"type": "Feature", "geometry": {"type": "Point", "coordinates": [121.564754, 24.99885]}, "properties": {"name": "興隆D2區公共住宅地下停車場", "address": "臺北市文山區興隆路4段105巷45號", "district": "文山區", "city": "taipei", "operator": "中華汽車"}}, {"type": "Feature", "geometry": {"type": "Point", "coordinates": [121.493961, 25.130453]}, "properties": {"name": "七星公園地下停車場", "address": "臺北市北投區七星街3號", "district": "北投區", "city": "taipei", "operator": "中華汽車"}}, {"type": "Feature", "geometry": {"type": "Point", "coordinates": [121.503874, 25.13358]}, "properties": {"name": "振興公園地下停車場", "address": "臺北市北投區天母西路112號", "district": "北投區", "city": "taipei", "operator": "中華汽車"}}, {"type": "Feature", "geometry": {"type": "Point", "coordinates": [121.498683, 25.134115]}, "properties": {"name": "立農公園地下停車場", "address": "臺北市北投區承德路7段372號", "district": "北投區", "city": "taipei", "operator": "中華汽車"}}, {"type": "Feature", "geometry": {"type": "Point", "coordinates": [121.502114, 25.135212]}, "properties": {"name": "石牌國小地下停車場", "address": "臺北市北投區致遠二路80號地下停車場", "district": "北投區", "city": "taipei", "operator": "中華汽車"}}, {"type": "Feature", "geometry": {"type": "Point", "coordinates": [121.494749, 25.126285]}, "properties": {"name": "陽明山立體停車場", "address": "臺北市北投區湖山路1段51號", "district": "北投區", "city": "taipei", "operator": "中華汽車"}}, {"type": "Feature", "geometry": {"type": "Point", "coordinates": [121.555585, 25.047413]}, "properties": {"name": "八德立體停車場", "address": "臺北市松山區八德路4段580號", "district": "松山區", "city": "taipei", "operator": "中華汽車"}}, {"type": "Feature", "geometry": {"type": "Point", "coordinates": [121.554332, 25.055515]}, "properties": {"name": "松山國小地下停車場", "address": "台北市松山區八德路四段746號", "district": "松山區", "city": "taipei", "operator": "中華汽車"}}, {"type": "Feature", "geometry": {"type": "Point", "coordinates": [121.562316, 25.047976]}, "properties": {"name": "偶戲博物館地下停車場", "address": "臺北市松山區市民大道5段99號", "district": "松山區", "city": "taipei", "operator": "中華汽車"}}, {"type": "Feature", "geometry": {"type": "Point", "coordinates": [121.559665, 25.048948]}, "properties": {"name": "民有市場地下停車場", "address": "臺北市松山區民權東路3段140巷15號", "district": "松山區", "city": "taipei", "operator": "中華汽車"}}, {"type": "Feature", "geometry": {"type": "Point", "coordinates": [121.569775, 25.032506]}, "properties": {"name": "府前廣場地下停車場", "address": "台北市信義區松壽路1號B1", "district": "信義區", "city": "taipei", "operator": "中華汽車"}}, {"type": "Feature", "geometry": {"type": "Point", "coordinates": [121.561979, 25.02996]}, "properties": {"name": "松山工農地下停車場", "address": "台北市信義區忠孝東路五段236巷15號", "district": "信義區", "city": "taipei", "operator": "中華汽車"}}, {"type": "Feature", "geometry": {"type": "Point", "coordinates": [121.565536, 25.030153]}, "properties": {"name": "春光公園地下停車場", "address": "臺北市信義區忠孝東路5段666號", "district": "信義區", "city": "taipei", "operator": "中華汽車"}}, {"type": "Feature", "geometry": {"type": "Point", "coordinates": [121.565815, 25.037774]}, "properties": {"name": "忠信廣場地下停車場", "address": "臺北市信義區松仁路2號", "district": "信義區", "city": "taipei", "operator": "中華汽車"}}, {"type": "Feature", "geometry": {"type": "Point", "coordinates": [121.563593, 25.029632]}, "properties": {"name": "三張里公園地下停車場", "address": "臺北市信義區松平路81號", "district": "信義區", "city": "taipei", "operator": "中華汽車"}}, {"type": "Feature", "geometry": {"type": "Point", "coordinates": [121.57077, 25.033114]}, "properties": {"name": "信義國小地下停車場", "address": "臺北市信義區松勤街60號", "district": "信義區", "city": "taipei", "operator": "中華汽車"}}, {"type": "Feature", "geometry": {"type": "Point", "coordinates": [121.559891, 25.027565]}, "properties": {"name": "景勤二號公園地下停車場", "address": "臺北市信義區信安街49號", "district": "信義區", "city": "taipei", "operator": "中華汽車"}}, {"type": "Feature", "geometry": {"type": "Point", "coordinates": [121.560116, 25.034529]}, "properties": {"name": "信義廣場地下停車場", "address": "臺北市信義區信義路5段11號", "district": "信義區", "city": "taipei", "operator": "中華汽車"}}, {"type": "Feature", "geometry": {"type": "Point", "coordinates": [121.568305, 25.032066]}, "properties": {"name": "臺北市災害應變中心地下停車場", "address": "台北市信義區莊敬路391巷11弄2號1樓", "district": "信義區", "city": "taipei", "operator": "中華汽車"}}, {"type": "Feature", "geometry": {"type": "Point", "coordinates": [121.601562, 25.053579]}, "properties": {"name": "玉成公園地下停車場", "address": "臺北市南港區成福路116號", "district": "南港區", "city": "taipei", "operator": "中華汽車"}}, {"type": "Feature", "geometry": {"type": "Point", "coordinates": [121.612753, 25.055349]}, "properties": {"name": "玉成國小地下停車場", "address": "臺北市南港區昆陽街23號", "district": "南港區", "city": "taipei", "operator": "中華汽車"}}, {"type": "Feature", "geometry": {"type": "Point", "coordinates": [121.612453, 25.059329]}, "properties": {"name": "世貿公園地下停車場", "address": "臺北市南港區經貿二路88巷1號", "district": "南港區", "city": "taipei", "operator": "中華汽車"}}, {"type": "Feature", "geometry": {"type": "Point", "coordinates": [121.600938, 25.057649]}, "properties": {"name": "興中立體停車場", "address": "臺北市南港區興中路44巷1號", "district": "南港區", "city": "taipei", "operator": "中華汽車"}}, {"type": "Feature", "geometry": {"type": "Point", "coordinates": [121.608981, 25.055444]}, "properties": {"name": "南港國小地下停車場", "address": "台北市南港區興東街59號", "district": "南港區", "city": "taipei", "operator": "中華汽車"}}, {"type": "Feature", "geometry": {"type": "Point", "coordinates": [121.495302, 25.036492]}, "properties": {"name": "艋舺公園地下停車場", "address": "臺北市萬華區西園路1段145號", "district": "萬華區", "city": "taipei", "operator": "中華汽車"}}, {"type": "Feature", "geometry": {"type": "Point", "coordinates": [121.493439, 25.034017]}, "properties": {"name": "萬華國中地下停車場", "address": "臺北市萬華區西藏路201號地下停車場", "district": "萬華區", "city": "taipei", "operator": "中華汽車"}}, {"type": "Feature", "geometry": {"type": "Point", "coordinates": [121.497545, 25.040246]}, "properties": {"name": "青年公園棒球場地下停車場", "address": "臺北市萬華區青年路69號", "district": "萬華區", "city": "taipei", "operator": "中華汽車"}}, {"type": "Feature", "geometry": {"type": "Point", "coordinates": [121.50261, 25.031961]}, "properties": {"name": "峨眉立體停車場", "address": "臺北市萬華區峨眉街83號", "district": "萬華區", "city": "taipei", "operator": "中華汽車"}}, {"type": "Feature", "geometry": {"type": "Point", "coordinates": [121.498107, 25.030944]}, "properties": {"name": "青年公園高爾夫球場地下停車場", "address": "臺北市萬華區國興路5號", "district": "萬華區", "city": "taipei", "operator": "中華汽車"}}, {"type": "Feature", "geometry": {"type": "Point", "coordinates": [121.503052, 25.039246]}, "properties": {"name": "洛陽停車場", "address": "臺北市萬華區環河南路1段1號", "district": "萬華區", "city": "taipei", "operator": "中華汽車"}}, {"type": "Feature", "geometry": {"type": "Point", "coordinates": [121.566281, 24.997767]}, "properties": {"name": "水源快速道路高架橋下停車場", "address": "臺北市文山區溪洲街128號", "district": "文山區", "city": "taipei", "operator": "中華汽車"}}, {"type": "Feature", "geometry": {"type": "Point", "coordinates": [121.570008, 24.991934]}, "properties": {"name": "公務人員訓練中心", "address": "臺北市文山區萬美街二段21巷20號", "district": "文山區", "city": "taipei", "operator": "中華汽車"}}, {"type": "Feature", "geometry": {"type": "Point", "coordinates": [121.56095, 25.050673]}, "properties": {"name": "體育局田徑場地下停車場", "address": "臺北市松山區敦化北路3-177號", "district": "松山區", "city": "taipei", "operator": "中華汽車"}}, {"type": "Feature", "geometry": {"type": "Point", "coordinates": [121.523244, 25.033364]}, "properties": {"name": "臺北市立大學(博愛校區)", "address": "臺北市中正區愛國西路1號", "district": "中正區", "city": "taipei", "operator": "中華汽車"}}, {"type": "Feature", "geometry": {"type": "Point", "coordinates": [121.518307, 25.09089]}, "properties": {"name": "瑞展機車行", "address": "臺北市士林區文林路752號", "district": "士林區", "city": "taipei", "operator": "中華汽車"}}, {"type": "Feature", "geometry": {"type": "Point", "coordinates": [121.518534, 25.098149]}, "properties": {"name": "金晉車業行", "address": "臺北市士林區延平北路5段111號", "district": "士林區", "city": "taipei", "operator": "中華汽車"}}, {"type": "Feature", "geometry": {"type": "Point", "coordinates": [121.528845, 25.09698]}, "properties": {"name": "得勝機車行", "address": "臺北市士林區延平北路8段175號", "district": "士林區", "city": "taipei", "operator": "中華汽車"}}, {"type": "Feature", "geometry": {"type": "Point", "coordinates": [121.52199, 25.087695]}, "properties": {"name": "文發機車行", "address": "臺北市士林區社中街462號", "district": "士林區", "city": "taipei", "operator": "中華汽車"}}, {"type": "Feature", "geometry": {"type": "Point", "coordinates": [121.528836, 25.098363]}, "properties": {"name": "正大機車行", "address": "臺北市士林區德行東路206號", "district": "士林區", "city": "taipei", "operator": "中華汽車"}}, {"type": "Feature", "geometry": {"type": "Point", "coordinates": [121.507928, 25.062832]}, "properties": {"name": "甲翊機車行", "address": "臺北市大同區大龍街230號", "district": "大同區", "city": "taipei", "operator": "中華汽車"}}, {"type": "Feature", "geometry": {"type": "Point", "coordinates": [121.507731, 25.066127]}, "properties": {"name": "國真車業有限公司", "address": "臺北市大同區承德路3段312號", "district": "大同區", "city": "taipei", "operator": "中華汽車"}}, {"type": "Feature", "geometry": {"type": "Point", "coordinates": [121.51609, 25.058541]}, "properties": {"name": "進益機車行", "address": "臺北市大同區庫倫街31號", "district": "大同區", "city": "taipei", "operator": "中華汽車"}}, {"type": "Feature", "geometry": {"type": "Point", "coordinates": [121.542703, 25.027298]}, "properties": {"name": "福全車業", "address": "臺北市大安區和平東路3段228巷88號", "district": "大安區", "city": "taipei", "operator": "中華汽車"}}, {"type": "Feature", "geometry": {"type": "Point", "coordinates": [121.540181, 25.031169]}, "properties": {"name": "福元車業行", "address": "臺北市大安區富陽街2號", "district": "大安區", "city": "taipei", "operator": "中華汽車"}}, {"type": "Feature", "geometry": {"type": "Point", "coordinates": [121.535678, 25.066342]}, "properties": {"name": "材洋車業", "address": "臺北市中山區八德路2段61號", "district": "中山區", "city": "taipei", "operator": "中華汽車"}}, {"type": "Feature", "geometry": {"type": "Point", "coordinates": [121.537072, 25.072559]}, "properties": {"name": "正良機車有限公司", "address": "臺北市中山區八德路2段70號", "district": "中山區", "city": "taipei", "operator": "中華汽車"}}, {"type": "Feature", "geometry": {"type": "Point", "coordinates": [121.533014, 25.067541]}, "properties": {"name": "旭峰機車行", "address": "臺北市中山區北安路670巷9號", "district": "中山區", "city": "taipei", "operator": "中華汽車"}}, {"type": "Feature", "geometry": {"type": "Point", "coordinates": [121.542542, 25.071599]}, "properties": {"name": "東舜機車行", "address": "臺北市中山區龍江路16號", "district": "中山區", "city": "taipei", "operator": "中華汽車"}}, {"type": "Feature", "geometry": {"type": "Point", "coordinates": [121.519157, 25.033211]}, "properties": {"name": "興珍機車行", "address": "臺北市中正區汀州路1段204號", "district": "中正區", "city": "taipei", "operator": "中華汽車"}}, {"type": "Feature", "geometry": {"type": "Point", "coordinates": [121.583552, 25.080496]}, "properties": {"name": "欣隆機車行", "address": "臺北市內湖區內湖路1段411巷11號", "district": "內湖區", "city": "taipei", "operator": "中華汽車"}}, {"type": "Feature", "geometry": {"type": "Point", "coordinates": [121.586157, 25.08486]}, "properties": {"name": "國生機車行", "address": "臺北市內湖區內湖路2段67號", "district": "內湖區", "city": "taipei", "operator": "中華汽車"}}, {"type": "Feature", "geometry": {"type": "Point", "coordinates": [121.584861, 25.080443]}, "properties": {"name": "吉川二輪工作室", "address": "臺北市內湖區內湖路3段59巷17號", "district": "內湖區", "city": "taipei", "operator": "中華汽車"}}, {"type": "Feature", "geometry": {"type": "Point", "coordinates": [121.582952, 25.085373]}, "properties": {"name": "柏成機車行", "address": "臺北市內湖區成功路4段331號", "district": "內湖區", "city": "taipei", "operator": "中華汽車"}}, {"type": "Feature", "geometry": {"type": "Point", "coordinates": [121.584847, 25.088665]}, "properties": {"name": "新翔發車業", "address": "臺北市內湖區環山路2段10巷2號", "district": "內湖區", "city": "taipei", "operator": "中華汽車"}}, {"type": "Feature", "geometry": {"type": "Point", "coordinates": [121.573016, 24.99095]}, "properties": {"name": "嘉聰車行", "address": "臺北市文山區指南路2段128號", "district": "文山區", "city": "taipei", "operator": "中華汽車"}}, {"type": "Feature", "geometry": {"type": "Point", "coordinates": [121.565556, 24.998128]}, "properties": {"name": "德勝車業", "address": "臺北市文山區興隆路1段139號", "district": "文山區", "city": "taipei", "operator": "中華汽車"}}, {"type": "Feature", "geometry": {"type": "Point", "coordinates": [121.494571, 25.127488]}, "properties": {"name": "義成機車行", "address": "臺北市北投區中央南路一段225巷4號", "district": "北投區", "city": "taipei", "operator": "中華汽車"}}, {"type": "Feature", "geometry": {"type": "Point", "coordinates": [121.503226, 25.132753]}, "properties": {"name": "福盛車業行", "address": "臺北市北投區中央南路二段123號", "district": "北投區", "city": "taipei", "operator": "中華汽車"}}, {"type": "Feature", "geometry": {"type": "Point", "coordinates": [121.497672, 25.135315]}, "properties": {"name": "嘉麟車業行", "address": "臺北市北投區中和街486號", "district": "北投區", "city": "taipei", "operator": "中華汽車"}}, {"type": "Feature", "geometry": {"type": "Point", "coordinates": [121.50169, 25.128185]}, "properties": {"name": "銘洋機車行", "address": "臺北市北投區東陽街423號", "district": "北投區", "city": "taipei", "operator": "中華汽車"}}, {"type": "Feature", "geometry": {"type": "Point", "coordinates": [121.493163, 25.131073]}, "properties": {"name": "友盛機車", "address": "臺北市北投區致遠一路1段4號", "district": "北投區", "city": "taipei", "operator": "中華汽車"}}, {"type": "Feature", "geometry": {"type": "Point", "coordinates": [121.497083, 25.131504]}, "properties": {"name": "眾欣機車行", "address": "台北市北投區崇仁路一段25號", "district": "北投區", "city": "taipei", "operator": "中華汽車"}}, {"type": "Feature", "geometry": {"type": "Point", "coordinates": [121.500749, 25.13398]}, "properties": {"name": "舜益車業行", "address": "臺北市北投區懷德街30號", "district": "北投區", "city": "taipei", "operator": "中華汽車"}}, {"type": "Feature", "geometry": {"type": "Point", "coordinates": [121.56361, 25.045381]}, "properties": {"name": "山崎動機車業", "address": "臺北市松山區龍江路384巷31號", "district": "松山區", "city": "taipei", "operator": "中華汽車"}}, {"type": "Feature", "geometry": {"type": "Point", "coordinates": [121.563631, 25.031072]}, "properties": {"name": "生暉機車行", "address": "台北市信義區中坡南路271號", "district": "信義區", "city": "taipei", "operator": "中華汽車"}}, {"type": "Feature", "geometry": {"type": "Point", "coordinates": [121.56914, 25.029984]}, "properties": {"name": "帛林機車行", "address": "臺北市信義區松信路45號", "district": "信義區", "city": "taipei", "operator": "中華汽車"}}, {"type": "Feature", "geometry": {"type": "Point", "coordinates": [121.603083, 25.054383]}, "properties": {"name": "易展機車行", "address": "臺北市南港區忠孝東路7段589號", "district": "南港區", "city": "taipei", "operator": "中華汽車"}}, {"type": "Feature", "geometry": {"type": "Point", "coordinates": [121.605863, 25.052343]}, "properties": {"name": "技專車業行", "address": "臺北市南港區昆陽街157巷11號", "district": "南港區", "city": "taipei", "operator": "中華汽車"}}, {"type": "Feature", "geometry": {"type": "Point", "coordinates": [121.603798, 25.060079]}, "properties": {"name": "興揚機車有限公司", "address": "臺北市南港區南港路3段16巷2-1號", "district": "南港區", "city": "taipei", "operator": "中華汽車"}}, {"type": "Feature", "geometry": {"type": "Point", "coordinates": [121.606118, 25.059336]}, "properties": {"name": "正鑫車業行", "address": "臺北市南港區舊莊街1段185號", "district": "南港區", "city": "taipei", "operator": "中華汽車"}}, {"type": "Feature", "geometry": {"type": "Point", "coordinates": [121.498704, 25.029407]}, "properties": {"name": "東石機車行", "address": "臺北市萬華區民和街70號", "district": "萬華區", "city": "taipei", "operator": "中華汽車"}}, {"type": "Feature", "geometry": {"type": "Point", "coordinates": [121.504091, 25.038832]}, "properties": {"name": "俊展車業", "address": "臺北市萬華區青年路114號", "district": "萬華區", "city": "taipei", "operator": "中華汽車"}}, {"type": "Feature", "geometry": {"type": "Point", "coordinates": [121.503728, 25.039916]}, "properties": {"name": "正勝車業行", "address": "臺北市萬華區青年路152巷35號", "district": "萬華區", "city": "taipei", "operator": "中華汽車"}}, {"type": "Feature", "geometry": {"type": "Point", "coordinates": [121.502284, 25.030796]}, "properties": {"name": "萬華國生車業", "address": "臺北市萬華區環河南路2段154巷2號", "district": "萬華區", "city": "taipei", "operator": "中華汽車"}}, {"type": "Feature", "geometry": {"type": "Point", "coordinates": [121.497928, 25.031365]}, "properties": {"name": "華中機車行", "address": "臺北市萬華區雙和街75號", "district": "萬華區", "city": "taipei", "operator": "中華汽車"}}, {"type": "Feature", "geometry": {"type": "Point", "coordinates": [121.523112, 25.087704]}, "properties": {"name": "福安里辦公室", "address": "臺北市士林區延平北路7段107巷10號", "district": "士林區", "city": "taipei", "operator": "中華汽車"}}, {"type": "Feature", "geometry": {"type": "Point", "coordinates": [121.522848, 25.098824]}, "properties": {"name": "名山里貓頭鷹之家", "address": "臺北市士林區雨聲街68號", "district": "士林區", "city": "taipei", "operator": "中華汽車"}}, {"type": "Feature", "geometry": {"type": "Point", "coordinates": [121.517082, 25.036409]}, "properties": {"name": "河堤里辦公室", "address": "臺北市中正區金門街11之1號", "district": "中正區", "city": "taipei", "operator": "中華汽車"}}, {"type": "Feature", "geometry": {"type": "Point", "coordinates": [121.51936, 25.032076]}, "properties": {"name": "網溪里辦公室", "address": "臺北市中正區牯嶺街165號", "district": "中正區", "city": "taipei", "operator": "中華汽車"}}, {"type": "Feature", "geometry": {"type": "Point", "coordinates": [121.593588, 25.089745]}, "properties": {"name": "安泰里辦公室", "address": "臺北市內湖區安泰街49巷1號1樓", "district": "內湖區", "city": "taipei", "operator": "中華汽車"}}, {"type": "Feature", "geometry": {"type": "Point", "coordinates": [121.569369, 24.998721]}, "properties": {"name": "景東里里辦公室", "address": "臺北市文山區景興路153巷1號", "district": "文山區", "city": "taipei", "operator": "中華汽車"}}, {"type": "Feature", "geometry": {"type": "Point", "coordinates": [121.532458, 25.06736]}, "properties": {"name": "東和藝品有限公司(77號單車店)", "address": "臺北市中山區民生東路2段77號", "district": "中山區", "city": "taipei", "operator": "中華汽車"}}, {"type": "Feature", "geometry": {"type": "Point", "coordinates": [121.529925, 25.09395]}, "properties": {"name": "捷運淡水線芝山站", "address": "臺北市士林區福國路70號", "district": "士林區", "city": "taipei", "operator": "中華汽車"}}, {"type": "Feature", "geometry": {"type": "Point", "coordinates": [121.543506, 25.029676]}, "properties": {"name": "捷運木柵線麟光站", "address": "臺北市大安區和平東路3段410號", "district": "大安區", "city": "taipei", "operator": "中華汽車"}}, {"type": "Feature", "geometry": {"type": "Point", "coordinates": [121.492686, 25.13291]}, "properties": {"name": "捷運淡水線奇岩站", "address": "臺北市北投區三合街2段489號", "district": "北投區", "city": "taipei", "operator": "中華汽車"}}, {"type": "Feature", "geometry": {"type": "Point", "coordinates": [121.498034, 25.136133]}, "properties": {"name": "捷運淡水線復興崗站", "address": "臺北市北投區中央北路3段53巷10號", "district": "北投區", "city": "taipei", "operator": "中華汽車"}}, {"type": "Feature", "geometry": {"type": "Point", "coordinates": [121.493889, 25.137429]}, "properties": {"name": "捷運淡水線忠義站", "address": "臺北市北投區中央北路4段301號", "district": "北投區", "city": "taipei", "operator": "中華汽車"}}, {"type": "Feature", "geometry": {"type": "Point", "coordinates": [121.492961, 25.12813]}, "properties": {"name": "捷運淡水線石牌站", "address": "臺北市北投區石牌路1段200號", "district": "北投區", "city": "taipei", "operator": "中華汽車"}}, {"type": "Feature", "geometry": {"type": "Point", "coordinates": [121.49914, 25.134003]}, "properties": {"name": "捷運淡水線北投站", "address": "臺北市北投區光明路1號", "district": "北投區", "city": "taipei", "operator": "中華汽車"}}, {"type": "Feature", "geometry": {"type": "Point", "coordinates": [121.494822, 25.127339]}, "properties": {"name": "捷運淡水線明德站", "address": "臺北市北投區明德路95號", "district": "北投區", "city": "taipei", "operator": "中華汽車"}}, {"type": "Feature", "geometry": {"type": "Point", "coordinates": [121.528983, 25.089955]}, "properties": {"name": "社子清潔分隊(葫蘆)", "address": "臺北市士林區中正路臨707-1號(重陽橋下)", "district": "士林區", "city": "taipei", "operator": "中華汽車"}}, {"type": "Feature", "geometry": {"type": "Point", "coordinates": [121.525434, 25.094433]}, "properties": {"name": "草山清潔分隊", "address": "臺北市士林區格致路34號", "district": "士林區", "city": "taipei", "operator": "中華汽車"}}, {"type": "Feature", "geometry": {"type": "Point", "coordinates": [121.511931, 25.064004]}, "properties": {"name": "建成清潔分隊", "address": "臺北市大同區民權西路194之1號", "district": "大同區", "city": "taipei", "operator": "中華汽車"}}, {"type": "Feature", "geometry": {"type": "Point", "coordinates": [121.513173, 25.068216]}, "properties": {"name": "大龍清潔分隊", "address": "臺北市大同區承德路3段303之1號(承德橋下)", "district": "大同區", "city": "taipei", "operator": "中華汽車"}}, {"type": "Feature", "geometry": {"type": "Point", "coordinates": [121.509351, 25.065594]}, "properties": {"name": "蘭州清潔分隊", "address": "臺北市大同區敦煌路151之1號", "district": "大同區", "city": "taipei", "operator": "中華汽車"}}, {"type": "Feature", "geometry": {"type": "Point", "coordinates": [121.509764, 25.061749]}, "properties": {"name": "直屬夜勤清潔分隊", "address": "臺北市大同區鄭州路臨50號", "district": "大同區", "city": "taipei", "operator": "中華汽車"}}, {"type": "Feature", "geometry": {"type": "Point", "coordinates": [121.51496, 25.0606]}, "properties": {"name": "延平清潔分隊", "address": "臺北市大同區環河北路1段臨63-1號", "district": "大同區", "city": "taipei", "operator": "中華汽車"}}, {"type": "Feature", "geometry": {"type": "Point", "coordinates": [121.540794, 25.029722]}, "properties": {"name": "台大清潔分隊", "address": "臺北市大安區辛亥路1段臨138號 ", "district": "大安區", "city": "taipei", "operator": "中華汽車"}}, {"type": "Feature", "geometry": {"type": "Point", "coordinates": [121.537871, 25.026199]}, "properties": {"name": "和平清潔分隊", "address": "臺北市大安區辛亥路1段臨143號", "district": "大安區", "city": "taipei", "operator": "中華汽車"}}, {"type": "Feature", "geometry": {"type": "Point", "coordinates": [121.548981, 25.032653]}, "properties": {"name": "敦化清潔分隊", "address": "臺北市大安區忠孝東路3段31號(建國北路橋孔下)", "district": "大安區", "city": "taipei", "operator": "中華汽車"}}, {"type": "Feature", "geometry": {"type": "Point", "coordinates": [121.537879, 25.023258]}, "properties": {"name": "新生清潔分隊", "address": "臺北市大安區建國南路1段臨173號(近濟南路3段)", "district": "大安區", "city": "taipei", "operator": "中華汽車"}}, {"type": "Feature", "geometry": {"type": "Point", "coordinates": [121.540182, 25.031899]}, "properties": {"name": "瑞安清潔分隊", "address": "臺北市大安區建國南路2段臨263號", "district": "大安區", "city": "taipei", "operator": "中華汽車"}}, {"type": "Feature", "geometry": {"type": "Point", "coordinates": [121.54757, 25.031251]}, "properties": {"name": "臥龍清潔分隊", "address": "臺北市大安區基隆路3段臨24號", "district": "大安區", "city": "taipei", "operator": "中華汽車"}}, {"type": "Feature", "geometry": {"type": "Point", "coordinates": [121.535034, 25.065693]}, "properties": {"name": "中山區清潔隊大直分隊", "address": "臺北市中山區大直街21巷2號", "district": "中山區", "city": "taipei", "operator": "中華汽車"}}, {"type": "Feature", "geometry": {"type": "Point", "coordinates": [121.540605, 25.072242]}, "properties": {"name": "中山區清潔隊長安分隊", "address": "臺北市中山區建國北路1段臨5-1號", "district": "中山區", "city": "taipei", "operator": "中華汽車"}}, {"type": "Feature", "geometry": {"type": "Point", "coordinates": [121.53794, 25.075647]}, "properties": {"name": "溝一清潔分隊", "address": "臺北市中山區建國北路2段63號對面", "district": "中山區", "city": "taipei", "operator": "中華汽車"}}, {"type": "Feature", "geometry": {"type": "Point", "coordinates": [121.538448, 25.063894]}, "properties": {"name": "民一清潔分隊", "address": "臺北市中山區建國北路3段96之1號", "district": "中山區", "city": "taipei", "operator": "中華汽車"}}, {"type": "Feature", "geometry": {"type": "Point", "coordinates": [121.540405, 25.067393]}, "properties": {"name": "中山清潔分隊", "address": "臺北市中山區新生北路2段臨30-1號", "district": "中山區", "city": "taipei", "operator": "中華汽車"}}, {"type": "Feature", "geometry": {"type": "Point", "coordinates": [121.538561, 25.075067]}, "properties": {"name": "民二清潔分隊", "address": "臺北市中山區錦州街臨306號", "district": "中山區", "city": "taipei", "operator": "中華汽車"}}, {"type": "Feature", "geometry": {"type": "Point", "coordinates": [121.515511, 25.028385]}, "properties": {"name": "公館清潔分隊", "address": "臺北市中正區水源路臨2號", "district": "中正區", "city": "taipei", "operator": "中華汽車"}}, {"type": "Feature", "geometry": {"type": "Point", "coordinates": [121.515184, 25.033639]}, "properties": {"name": "泉州清潔分隊", "address": "臺北市中正區惠安街47號", "district": "中正區", "city": "taipei", "operator": "中華汽車"}}, {"type": "Feature", "geometry": {"type": "Point", "coordinates": [121.565968, 24.997358]}, "properties": {"name": "景美清潔分隊", "address": "臺北市文山區溪洲街臨220號", "district": "文山區", "city": "taipei", "operator": "中華汽車"}}, {"type": "Feature", "geometry": {"type": "Point", "coordinates": [121.500611, 25.128343]}, "properties": {"name": "關渡清潔分隊", "address": "臺北市北投區大度路3段臨250號", "district": "北投區", "city": "taipei", "operator": "中華汽車"}}, {"type": "Feature", "geometry": {"type": "Point", "coordinates": [121.499611, 25.129068]}, "properties": {"name": "石牌清潔分隊", "address": "臺北市北投區承德路7段393巷200號", "district": "北投區", "city": "taipei", "operator": "中華汽車"}}, {"type": "Feature", "geometry": {"type": "Point", "coordinates": [121.557662, 25.055064]}, "properties": {"name": "松山清潔分隊", "address": "台北市松山區南京東路五段372號", "district": "松山區", "city": "taipei", "operator": "中華汽車"}}, {"type": "Feature", "geometry": {"type": "Point", "coordinates": [121.568953, 25.028108]}, "properties": {"name": "三張犁與五分埔分隊", "address": "臺北市信義區忠孝東路5段255巷臨6號", "district": "信義區", "city": "taipei", "operator": "中華汽車"}}, {"type": "Feature", "geometry": {"type": "Point", "coordinates": [121.605883, 25.05232]}, "properties": {"name": "玉成清潔分隊", "address": "臺北市南港區向陽路49號", "district": "南港區", "city": "taipei", "operator": "中華汽車"}}, {"type": "Feature", "geometry": {"type": "Point", "coordinates": [121.600843, 25.058253]}, "properties": {"name": "南港清潔分隊", "address": "臺北市南港區松河街699號", "district": "南港區", "city": "taipei", "operator": "中華汽車"}}, {"type": "Feature", "geometry": {"type": "Point", "coordinates": [121.499745, 25.031943]}, "properties": {"name": "昆明清潔分隊", "address": "臺北市萬華區和平西路3段251號1,2樓", "district": "萬華區", "city": "taipei", "operator": "中華汽車"}}, {"type": "Feature", "geometry": {"type": "Point", "coordinates": [121.500995, 25.03542]}, "properties": {"name": "大理清潔分隊", "address": "臺北市萬華區長順街臨131號", "district": "萬華區", "city": "taipei", "operator": "中華汽車"}}, {"type": "Feature", "geometry": {"type": "Point", "coordinates": [121.497232, 25.028916]}, "properties": {"name": "漢中清潔分隊", "address": "臺北市萬華區環河南路1段臨280之1號", "district": "萬華區", "city": "taipei", "operator": "中華汽車"}}, {"type": "Feature", "geometry": {"type": "Point", "coordinates": [121.583003, 25.088397]}, "properties": {"name": "內湖垃圾焚化廠", "address": "臺北市內湖區安康路290號", "district": "內湖區", "city": "taipei", "operator": "中華汽車"}}, {"type": "Feature", "geometry": {"type": "Point", "coordinates": [121.573547, 24.996647]}, "properties": {"name": "木柵垃圾焚化廠", "address": "臺北市文山區木柵路5段53號", "district": "文山區", "city": "taipei", "operator": "中華汽車"}}, {"type": "Feature", "geometry": {"type": "Point", "coordinates": [121.502015, 25.13289]}, "properties": {"name": "北投垃圾焚化廠", "address": "臺北市北投區洲美街271號", "district": "北投區", "city": "taipei", "operator": "中華汽車"}}, {"type": "Feature", "geometry": {"type": "Point", "coordinates": [121.532377, 25.065329]}, "properties": {"name": "臺北市中山運動中心", "address": "臺北市中山區中山北路二段44巷2號B1", "district": "中山區", "city": "taipei", "operator": "中華汽車"}}, {"type": "Feature", "geometry": {"type": "Point", "coordinates": [121.540699, 25.031488]}, "properties": {"name": "宏立機車事業有限公司", "address": "臺北市大安區和平東路2段141號", "district": "大安區", "city": "taipei", "operator": "中華汽車"}}, {"type": "Feature", "geometry": {"type": "Point", "coordinates": [121.561353, 25.054528]}, "properties": {"name": "群億車業商行", "address": "臺北市松山區八德路4段336號", "district": "松山區", "city": "taipei", "operator": "中華汽車"}}, {"type": "Feature", "geometry": {"type": "Point", "coordinates": [121.562587, 25.046721]}, "properties": {"name": "松春來車業有限公司", "address": "臺北市松山區民權東路5段30號", "district": "松山區", "city": "taipei", "operator": "中華汽車"}}, {"type": "Feature", "geometry": {"type": "Point", "coordinates": [121.554794, 25.045434]}, "properties": {"name": "國盛機車行", "address": "臺北市松山區撫遠街189號", "district": "松山區", "city": "taipei", "operator": "中華汽車"}}, {"type": "Feature", "geometry": {"type": "Point", "coordinates": [121.527661, 25.09761]}, "properties": {"name": "益隆車業有限公司", "address": "臺北市士林區重慶北路4段244號", "district": "士林區", "city": "taipei", "operator": "中華汽車"}}, {"type": "Feature", "geometry": {"type": "Point", "coordinates": [121.523177, 25.094448]}, "properties": {"name": "台益機車有限公司", "address": "臺北市士林區延平北路5段129號", "district": "士林區", "city": "taipei", "operator": "中華汽車"}}, {"type": "Feature", "geometry": {"type": "Point", "coordinates": [121.520155, 25.098159]}, "properties": {"name": "良陽國際有限公司", "address": "臺北市士林區士東路250號", "district": "士林區", "city": "taipei", "operator": "中華汽車"}}, {"type": "Feature", "geometry": {"type": "Point", "coordinates": [121.517275, 25.068714]}, "properties": {"name": "加祥車業有限公司", "address": "臺北市大同區延平北路2段256號", "district": "大同區", "city": "taipei", "operator": "中華汽車"}}, {"type": "Feature", "geometry": {"type": "Point", "coordinates": [121.516629, 25.067577]}, "properties": {"name": "忠億車業有限公司", "address": "臺北市大同區西寧北路17-4號", "district": "大同區", "city": "taipei", "operator": "中華汽車"}}, {"type": "Feature", "geometry": {"type": "Point", "coordinates": [121.507197, 25.065839]}, "properties": {"name": "順旺車業有限公司", "address": "臺北市大同區延平北路1段24號", "district": "大同區", "city": "taipei", "operator": "中華汽車"}}, {"type": "Feature", "geometry": {"type": "Point", "coordinates": [121.510886, 25.06817]}, "properties": {"name": "新協大車業有限公司", "address": "臺北市大同區延平北路3段67-1號", "district": "大同區", "city": "taipei", "operator": "中華汽車"}}, {"type": "Feature", "geometry": {"type": "Point", "coordinates": [121.610427, 25.059369]}, "properties": {"name": "大輝車業有限公司", "address": "臺北市南港區忠孝東路7段600號", "district": "南港區", "city": "taipei", "operator": "中華汽車"}}, {"type": "Feature", "geometry": {"type": "Point", "coordinates": [121.591829, 25.081002]}, "properties": {"name": "日盛車業有限公司", "address": "臺北市內湖區成功路3段73號", "district": "內湖區", "city": "taipei", "operator": "中華汽車"}}, {"type": "Feature", "geometry": {"type": "Point", "coordinates": [121.501548, 25.030097]}, "properties": {"name": "東龍旺車業有限公司", "address": "臺北市萬華區東園街133號", "district": "萬華區", "city": "taipei", "operator": "中華汽車"}}, {"type": "Feature", "geometry": {"type": "Point", "coordinates": [121.502566, 25.039103]}, "properties": {"name": "得山車業有限公司", "address": "臺北市萬華區康定路114號", "district": "萬華區", "city": "taipei", "operator": "中華汽車"}}, {"type": "Feature", "geometry": {"type": "Point", "coordinates": [121.494769, 25.038599]}, "properties": {"name": "健立車業有限公司", "address": "臺北市萬華區桂林路206號", "district": "萬華區", "city": "taipei", "operator": "中華汽車"}}, {"type": "Feature", "geometry": {"type": "Point", "coordinates": [121.497624, 25.032462]}, "properties": {"name": "永振億實業有限公司", "address": "臺北市萬華區柳州街87號", "district": "萬華區", "city": "taipei", "operator": "中華汽車"}}, {"type": "Feature", "geometry": {"type": "Point", "coordinates": [121.540144, 25.066531]}, "properties": {"name": "運輪機車行", "address": "臺北市中山區八德路2段88巷20號", "district": "中山區", "city": "taipei", "operator": "中華汽車"}}, {"type": "Feature", "geometry": {"type": "Point", "coordinates": [121.507184, 25.059318]}, "properties": {"name": "弘展機車有限公司", "address": "臺北市大同區西寧北路93號", "district": "大同區", "city": "taipei", "operator": "中華汽車"}}, {"type": "Feature", "geometry": {"type": "Point", "coordinates": [121.566639, 25.000472]}, "properties": {"name": "高旺企業股份有限公司", "address": "臺北市文山區羅斯福路5段182號", "district": "文山區", "city": "taipei", "operator": "中華汽車"}}, {"type": "Feature", "geometry": {"type": "Point", "coordinates": [121.503603, 25.129249]}, "properties": {"name": "福盛全有限公司", "address": "臺北市北投區中央南路1段210號", "district": "北投區", "city": "taipei", "operator": "中華汽車"}}, {"type": "Feature", "geometry": {"type": "Point", "coordinates": [121.499698, 25.130696]}, "properties": {"name": "汶吉車業行", "address": "臺北市北投區大業路560號", "district": "北投區", "city": "taipei", "operator": "中華汽車"}}, {"type": "Feature", "geometry": {"type": "Point", "coordinates": [121.503774, 25.132335]}, "properties": {"name": "聯螢車業有限公司", "address": "臺北市北投區中央南路1段156號", "district": "北投區", "city": "taipei", "operator": "中華汽車"}}, {"type": "Feature", "geometry": {"type": "Point", "coordinates": [121.570071, 25.028384]}, "properties": {"name": "大仁車業有限公司", "address": "臺北市信義區松隆路80號", "district": "信義區", "city": "taipei", "operator": "中華汽車"}}, {"type": "Feature", "geometry": {"type": "Point", "coordinates": [121.570445, 25.029143]}, "properties": {"name": "松宏車業有限公司", "address": "臺北市信義區忠孝東路5段205號", "district": "信義區", "city": "taipei", "operator": "中華汽車"}}, {"type": "Feature", "geometry": {"type": "Point", "coordinates": [121.59365, 25.080986]}, "properties": {"name": "四維通車業有限公司", "address": "臺北市內湖區民權東路6段128號", "district": "內湖區", "city": "taipei", "operator": "中華汽車"}}, {"type": "Feature", "geometry": {"type": "Point", "coordinates": [121.564001, 24.995315]}, "properties": {"name": "展嘉輪業有限公司", "address": "臺北市文山區羅斯福路5段48號", "district": "文山區", "city": "taipei", "operator": "中華汽車"}}, {"type": "Feature", "geometry": {"type": "Point", "coordinates": [121.571443, 24.993864]}, "properties": {"name": "鋒權輪有限公司", "address": "臺北市文山區興隆路2段241號", "district": "文山區", "city": "taipei", "operator": "中華汽車"}}, {"type": "Feature", "geometry": {"type": "Point", "coordinates": [121.544275, 25.026837]}, "properties": {"name": "盛昌機車行", "address": "臺北市大安區辛亥路1段58號", "district": "大安區", "city": "taipei", "operator": "中華汽車"}}, {"type": "Feature", "geometry": {"type": "Point", "coordinates": [121.496622, 25.132819]}, "properties": {"name": "進山車業有限公司", "address": "臺北市北投區石牌路1段24號", "district": "北投區", "city": "taipei", "operator": "中華汽車"}}, {"type": "Feature", "geometry": {"type": "Point", "coordinates": [121.495157, 25.037305]}, "properties": {"name": "良江企業有限公司", "address": "臺北市萬華區中華路2段98號", "district": "萬華區", "city": "taipei", "operator": "中華汽車"}}, {"type": "Feature", "geometry": {"type": "Point", "coordinates": [121.49212, 25.039907]}, "properties": {"name": "大旺車行", "address": "臺北市萬華區萬大路214號", "district": "萬華區", "city": "taipei", "operator": "中華汽車"}}, {"type": "Feature", "geometry": {"type": "Point", "coordinates": [121.520361, 25.035633]}, "properties": {"name": "后里車業有限公司", "address": "臺北市中正區牯嶺街47號", "district": "中正區", "city": "taipei", "operator": "中華汽車"}}, {"type": "Feature", "geometry": {"type": "Point", "coordinates": [121.522803, 25.035048]}, "properties": {"name": "松大車業有限公司", "address": "臺北市中正區牯嶺街61-3號", "district": "中正區", "city": "taipei", "operator": "中華汽車"}}, {"type": "Feature", "geometry": {"type": "Point", "coordinates": [121.496371, 25.12674]}, "properties": {"name": "隆大車業行", "address": "臺北市北投區承德路7段344巷15號", "district": "北投區", "city": "taipei", "operator": "中華汽車"}}, {"type": "Feature", "geometry": {"type": "Point", "coordinates": [121.521871, 25.030962]}, "properties": {"name": "鉍勝車業有限公司", "address": "臺北市中正區師大路146號", "district": "中正區", "city": "taipei", "operator": "中華汽車"}}, {"type": "Feature", "geometry": {"type": "Point", "coordinates": [121.517667, 25.037176]}, "properties": {"name": "忠豪車業有限公司", "address": "臺北市中正區忠孝東路2段31號", "district": "中正區", "city": "taipei", "operator": "中華汽車"}}, {"type": "Feature", "geometry": {"type": "Point", "coordinates": [121.515537, 25.060604]}, "properties": {"name": "磬葉企業有限公司", "address": "臺北市大同區錦西街56號", "district": "大同區", "city": "taipei", "operator": "中華汽車"}}, {"type": "Feature", "geometry": {"type": "Point", "coordinates": [121.510611, 25.061901]}, "properties": {"name": "良星車業有限公司", "address": "臺北市大同區重慶北路2段39號", "district": "大同區", "city": "taipei", "operator": "中華汽車"}}, {"type": "Feature", "geometry": {"type": "Point", "coordinates": [121.511729, 25.060548]}, "properties": {"name": "大華車業有限公司", "address": "臺北市大同區承德路1段47號", "district": "大同區", "city": "taipei", "operator": "中華汽車"}}, {"type": "Feature", "geometry": {"type": "Point", "coordinates": [121.602327, 25.054045]}, "properties": {"name": "中盛機車有限公司", "address": "臺北市南港區東新街4號", "district": "南港區", "city": "taipei", "operator": "中華汽車"}}, {"type": "Feature", "geometry": {"type": "Point", "coordinates": [121.529584, 25.095128]}, "properties": {"name": "富偉機車行", "address": "臺北市士林區文林路663號", "district": "士林區", "city": "taipei", "operator": "中華汽車"}}, {"type": "Feature", "geometry": {"type": "Point", "coordinates": [121.529134, 25.094386]}, "properties": {"name": "力泰車業有限公司", "address": "臺北市士林區延平北路5段220號", "district": "士林區", "city": "taipei", "operator": "中華汽車"}}, {"type": "Feature", "geometry": {"type": "Point", "coordinates": [121.521911, 25.093575]}, "properties": {"name": "永生車業有限公司", "address": "臺北市士林區華齡街71號", "district": "士林區", "city": "taipei", "operator": "中華汽車"}}, {"type": "Feature", "geometry": {"type": "Point", "coordinates": [121.506905, 25.060443]}, "properties": {"name": "長豐車業行", "address": "臺北市大同區承德路3段160號", "district": "大同區", "city": "taipei", "operator": "中華汽車"}}, {"type": "Feature", "geometry": {"type": "Point", "coordinates": [121.512059, 25.06396]}, "properties": {"name": "弘達車業有限公司", "address": "臺北市大同區承德路3段162號", "district": "大同區", "city": "taipei", "operator": "中華汽車"}}, {"type": "Feature", "geometry": {"type": "Point", "coordinates": [121.544856, 25.02628]}, "properties": {"name": "金理車業有限公司", "address": "臺北市大安區八德路2段35號", "district": "大安區", "city": "taipei", "operator": "中華汽車"}}, {"type": "Feature", "geometry": {"type": "Point", "coordinates": [121.542306, 25.023264]}, "properties": {"name": "宏興車業有限公司", "address": "臺北市大安區和平東路3段127號", "district": "大安區", "city": "taipei", "operator": "中華汽車"}}, {"type": "Feature", "geometry": {"type": "Point", "coordinates": [121.542678, 25.031514]}, "properties": {"name": "車王二輪社", "address": "臺北市大安區延吉街64-1號", "district": "大安區", "city": "taipei", "operator": "中華汽車"}}, {"type": "Feature", "geometry": {"type": "Point", "coordinates": [121.546552, 25.022736]}, "properties": {"name": "益揚車業有限公司", "address": "臺北市大安區羅斯福路3段93號", "district": "大安區", "city": "taipei", "operator": "中華汽車"}}, {"type": "Feature", "geometry": {"type": "Point", "coordinates": [121.531618, 25.069985]}, "properties": {"name": "農安機車有限公司", "address": "臺北市中山區龍江路375號", "district": "中山區", "city": "taipei", "operator": "中華汽車"}}, {"type": "Feature", "geometry": {"type": "Point", "coordinates": [121.538195, 25.067822]}, "properties": {"name": "大昌機車有限公司", "address": "臺北市中山區北安路458巷3號", "district": "中山區", "city": "taipei", "operator": "中華汽車"}}, {"type": "Feature", "geometry": {"type": "Point", "coordinates": [121.540421, 25.072814]}, "properties": {"name": "展欣豪車業有限公司", "address": "臺北市中山區民權東路2段126號", "district": "中山區", "city": "taipei", "operator": "中華汽車"}}, {"type": "Feature", "geometry": {"type": "Point", "coordinates": [121.538674, 25.066496]}, "properties": {"name": "异城車業有限公司", "address": "臺北市中山區八德路2段329號", "district": "中山區", "city": "taipei", "operator": "中華汽車"}}, {"type": "Feature", "geometry": {"type": "Point", "coordinates": [121.53299, 25.064093]}, "properties": {"name": "達誠車業有限公司", "address": "臺北市中山區吉林路12-3號", "district": "中山區", "city": "taipei", "operator": "中華汽車"}}, {"type": "Feature", "geometry": {"type": "Point", "coordinates": [121.533538, 25.069502]}, "properties": {"name": "名佳車業行", "address": "臺北市中山區錦州街310號", "district": "中山區", "city": "taipei", "operator": "中華汽車"}}, {"type": "Feature", "geometry": {"type": "Point", "coordinates": [121.524097, 25.027874]}, "properties": {"name": "慶發車業有限公司", "address": "臺北市中正區汀洲路1段182號", "district": "中正區", "city": "taipei", "operator": "中華汽車"}}, {"type": "Feature", "geometry": {"type": "Point", "coordinates": [121.518873, 25.034557]}, "properties": {"name": "隆發車業有限公司", "address": "臺北市中正區重慶南路3段135號", "district": "中正區", "city": "taipei", "operator": "中華汽車"}}, {"type": "Feature", "geometry": {"type": "Point", "coordinates": [121.584433, 25.086156]}, "properties": {"name": "春琳國際車業有限公司", "address": "臺北市內湖區江南街28號", "district": "內湖區", "city": "taipei", "operator": "中華汽車"}}, {"type": "Feature", "geometry": {"type": "Point", "coordinates": [121.568633, 24.993028]}, "properties": {"name": "鳳翔車業行", "address": "臺北市文山區木柵路1段57-6號", "district": "文山區", "city": "taipei", "operator": "中華汽車"}}, {"type": "Feature", "geometry": {"type": "Point", "coordinates": [121.570573, 24.990167]}, "properties": {"name": "元土車行", "address": "臺北市文山區木柵路1段212號", "district": "文山區", "city": "taipei", "operator": "中華汽車"}}, {"type": "Feature", "geometry": {"type": "Point", "coordinates": [121.571712, 24.999341]}, "properties": {"name": "光輝機車行", "address": "臺北市文山區忠順街1段36、38號", "district": "文山區", "city": "taipei", "operator": "中華汽車"}}, {"type": "Feature", "geometry": {"type": "Point", "coordinates": [121.563979, 24.995202]}, "properties": {"name": "順利機車行", "address": "臺北市文山區木新路2段285號", "district": "文山區", "city": "taipei", "operator": "中華汽車"}}, {"type": "Feature", "geometry": {"type": "Point", "coordinates": [121.564811, 25.001596]}, "properties": {"name": "拓源機車行", "address": "臺北市文山區木新路3段73號", "district": "文山區", "city": "taipei", "operator": "中華汽車"}}, {"type": "Feature", "geometry": {"type": "Point", "coordinates": [121.568915, 24.990703]}, "properties": {"name": "東和機車行", "address": "臺北市文山區指南路1段4號", "district": "文山區", "city": "taipei", "operator": "中華汽車"}}, {"type": "Feature", "geometry": {"type": "Point", "coordinates": [121.56569, 25.00028]}, "properties": {"name": "祥騰機車行", "address": "臺北市文山區景興路94號", "district": "文山區", "city": "taipei", "operator": "中華汽車"}}, {"type": "Feature", "geometry": {"type": "Point", "coordinates": [121.568178, 24.999717]}, "properties": {"name": "威烝車業行", "address": "臺北市文山區景興路28-1號", "district": "文山區", "city": "taipei", "operator": "中華汽車"}}, {"type": "Feature", "geometry": {"type": "Point", "coordinates": [121.570711, 25.001955]}, "properties": {"name": "騰暉車業行", "address": "臺北市文山區興隆路2段18號", "district": "文山區", "city": "taipei", "operator": "中華汽車"}}, {"type": "Feature", "geometry": {"type": "Point", "coordinates": [121.569845, 25.0015]}, "properties": {"name": "弘偉車業有限公司", "address": "臺北市文山區羅斯福路6段317號", "district": "文山區", "city": "taipei", "operator": "中華汽車"}}, {"type": "Feature", "geometry": {"type": "Point", "coordinates": [121.502697, 25.133252]}, "properties": {"name": "雄大車業行", "address": "臺北市北投區中和街453-11號", "district": "北投區", "city": "taipei", "operator": "中華汽車"}}, {"type": "Feature", "geometry": {"type": "Point", "coordinates": [121.500631, 25.131957]}, "properties": {"name": "和峯車業有限公司", "address": "台北市北投區致遠一路一段92號", "district": "北投區", "city": "taipei", "operator": "中華汽車"}}, {"type": "Feature", "geometry": {"type": "Point", "coordinates": [121.501967, 25.132474]}, "properties": {"name": "重輪車業有限公司", "address": "台北市北投區崇仁路一段21號", "district": "北投區", "city": "taipei", "operator": "中華汽車"}}, {"type": "Feature", "geometry": {"type": "Point", "coordinates": [121.562566, 25.053124]}, "properties": {"name": "日星車業行", "address": "臺北市松山區八德路3段198號", "district": "松山區", "city": "taipei", "operator": "中華汽車"}}, {"type": "Feature", "geometry": {"type": "Point", "coordinates": [121.606496, 25.05211]}, "properties": {"name": "亞帝車業有限公司", "address": "臺北市南港區中坡南路43號", "district": "南港區", "city": "taipei", "operator": "中華汽車"}}, {"type": "Feature", "geometry": {"type": "Point", "coordinates": [121.554767, 25.051852]}, "properties": {"name": "尚益車業有限公司", "address": "臺北市松山區五常街281-2號", "district": "松山區", "city": "taipei", "operator": "中華汽車"}}, {"type": "Feature", "geometry": {"type": "Point", "coordinates": [121.56099, 25.050456]}, "properties": {"name": "新光機車行", "address": "臺北市松山區民生東路5段57號", "district": "松山區", "city": "taipei", "operator": "中華汽車"}}, {"type": "Feature", "geometry": {"type": "Point", "coordinates": [121.559321, 25.047495]}, "properties": {"name": "千翔車業行", "address": "臺北市松山區光復北路109號", "district": "松山區", "city": "taipei", "operator": "中華汽車"}}, {"type": "Feature", "geometry": {"type": "Point", "coordinates": [121.55273, 25.047629]}, "properties": {"name": "佳昇機車行", "address": "臺北市松山區健康路44號", "district": "松山區", "city": "taipei", "operator": "中華汽車"}}, {"type": "Feature", "geometry": {"type": "Point", "coordinates": [121.562061, 25.030837]}, "properties": {"name": "吉安運動器材有限公司", "address": "台北市信義區中坡南路287號", "district": "信義區", "city": "taipei", "operator": "中華汽車"}}, {"type": "Feature", "geometry": {"type": "Point", "coordinates": [121.565282, 25.02866]}, "properties": {"name": "春崇車業行", "address": "臺北市信義區福德街268巷1號", "district": "信義區", "city": "taipei", "operator": "中華汽車"}}, {"type": "Feature", "geometry": {"type": "Point", "coordinates": [121.603575, 25.057327]}, "properties": {"name": "儀弘機車行", "address": "臺北市南港區研究院路1段185號", "district": "南港區", "city": "taipei", "operator": "中華汽車"}}, {"type": "Feature", "geometry": {"type": "Point", "coordinates": [121.609277, 25.049771]}, "properties": {"name": "高陞機車行", "address": "臺北市南港區研究院路2段72號", "district": "南港區", "city": "taipei", "operator": "中華汽車"}}, {"type": "Feature", "geometry": {"type": "Point", "coordinates": [121.511791, 25.063511]}, "properties": {"name": "瑞明機車行", "address": "臺北市大同區長安西路199號", "district": "大同區", "city": "taipei", "operator": "中華汽車"}}, {"type": "Feature", "geometry": {"type": "Point", "coordinates": [121.567689, 24.992582]}, "properties": {"name": "三育機車有限公司", "address": "臺北市文山區景隆街54號", "district": "文山區", "city": "taipei", "operator": "中華汽車"}}, {"type": "Feature", "geometry": {"type": "Point", "coordinates": [121.497142, 25.039658]}, "properties": {"name": "欣利機車有限公司", "address": "臺北市萬華區西園路2段288之1號", "district": "萬華區", "city": "taipei", "operator": "中華汽車"}}, {"type": "Feature", "geometry": {"type": "Point", "coordinates": [121.499109, 25.037146]}, "properties": {"name": "鑫東園車業有限公司", "address": "臺北市萬華區東園街105號", "district": "萬華區", "city": "taipei", "operator": "中華汽車"}}, {"type": "Feature", "geometry": {"type": "Point", "coordinates": [121.502381, 25.037987]}, "properties": {"name": "葉山車行", "address": "臺北市萬華區桂林路30號", "district": "萬華區", "city": "taipei", "operator": "中華汽車"}}, {"type": "Feature", "geometry": {"type": "Point", "coordinates": [121.496665, 25.028871]}, "properties": {"name": "尚億車業有限公司", "address": "臺北市萬華區萬大路500號", "district": "萬華區", "city": "taipei", "operator": "中華汽車"}}, {"type": "Feature", "geometry": {"type": "Point", "coordinates": [121.522521, 25.096042]}, "properties": {"name": "盟業車業行", "address": "臺北市士林區通河街169號", "district": "士林區", "city": "taipei", "operator": "中華汽車"}}, {"type": "Feature", "geometry": {"type": "Point", "coordinates": [121.528541, 25.098441]}, "properties": {"name": "好發達車業", "address": "臺北市士林區天母東路8巷99號", "district": "士林區", "city": "taipei", "operator": "中華汽車"}}, {"type": "Feature", "geometry": {"type": "Point", "coordinates": [121.523328, 25.09597]}, "properties": {"name": "新天母機車行", "address": "臺北市士林區中山北路6段405巷83號", "district": "士林區", "city": "taipei", "operator": "中華汽車"}}, {"type": "Feature", "geometry": {"type": "Point", "coordinates": [121.524854, 25.094239]}, "properties": {"name": "銘豐機車行", "address": "臺北市士林區文林路314號", "district": "士林區", "city": "taipei", "operator": "中華汽車"}}, {"type": "Feature", "geometry": {"type": "Point", "coordinates": [121.509546, 25.059633]}, "properties": {"name": "小緯機車行", "address": "臺北市大同區大龍街26號", "district": "大同區", "city": "taipei", "operator": "中華汽車"}}, {"type": "Feature", "geometry": {"type": "Point", "coordinates": [121.56403, 25.027348]}, "properties": {"name": "旭宏車業行", "address": "台北市信義區和平東路三段285號", "district": "信義區", "city": "taipei", "operator": "中華汽車"}}, {"type": "Feature", "geometry": {"type": "Point", "coordinates": [121.541034, 25.02885]}, "properties": {"name": "東貿機車有限公司", "address": "臺北市大安區基隆路2段233號", "district": "大安區", "city": "taipei", "operator": "中華汽車"}}, {"type": "Feature", "geometry": {"type": "Point", "coordinates": [121.535452, 25.065781]}, "properties": {"name": "德剛車行有限公司", "address": "臺北市中山區天津街27號", "district": "中山區", "city": "taipei", "operator": "中華汽車"}}, {"type": "Feature", "geometry": {"type": "Point", "coordinates": [121.536209, 25.065332]}, "properties": {"name": "偉恆有限公司", "address": "臺北市中山區吉林路408號", "district": "中山區", "city": "taipei", "operator": "中華汽車"}}, {"type": "Feature", "geometry": {"type": "Point", "coordinates": [121.521367, 25.027324]}, "properties": {"name": "世輪機車行", "address": "臺北市中正區汀州路2段76號", "district": "中正區", "city": "taipei", "operator": "中華汽車"}}, {"type": "Feature", "geometry": {"type": "Point", "coordinates": [121.586828, 25.084573]}, "properties": {"name": "日昇機車行", "address": "臺北市內湖區康寧路3段16巷115號", "district": "內湖區", "city": "taipei", "operator": "中華汽車"}}, {"type": "Feature", "geometry": {"type": "Point", "coordinates": [121.582425, 25.085513]}, "properties": {"name": "宏淞車業有限公司", "address": "臺北市內湖區金龍路87號", "district": "內湖區", "city": "taipei", "operator": "中華汽車"}}, {"type": "Feature", "geometry": {"type": "Point", "coordinates": [121.583728, 25.08334]}, "properties": {"name": "正倫車業行", "address": "臺北市內湖區康樂街67號", "district": "內湖區", "city": "taipei", "operator": "中華汽車"}}, {"type": "Feature", "geometry": {"type": "Point", "coordinates": [121.492603, 25.130449]}, "properties": {"name": "金展機車行", "address": "臺北市北投區自強街62號", "district": "北投區", "city": "taipei", "operator": "中華汽車"}}, {"type": "Feature", "geometry": {"type": "Point", "coordinates": [121.49464, 25.032722]}, "properties": {"name": "聯耀機車行", "address": "臺北市萬華區環河南路1段21號", "district": "萬華區", "city": "taipei", "operator": "中華汽車"}}, {"type": "Feature", "geometry": {"type": "Point", "coordinates": [121.501135, 25.13045]}, "properties": {"name": "唭哩岸機車行", "address": "臺北市北投區致遠二路89號", "district": "北投區", "city": "taipei", "operator": "中華汽車"}}, {"type": "Feature", "geometry": {"type": "Point", "coordinates": [121.567824, 25.036983]}, "properties": {"name": "昇輪機車行", "address": "臺北市信義區信義路6段47號", "district": "信義區", "city": "taipei", "operator": "中華汽車"}}, {"type": "Feature", "geometry": {"type": "Point", "coordinates": [121.495127, 25.029783]}, "properties": {"name": "友順機車行", "address": "臺北市萬華區萬大路423巷27號", "district": "萬華區", "city": "taipei", "operator": "中華汽車"}}, {"type": "Feature", "geometry": {"type": "Point", "coordinates": [121.518533, 25.093473]}, "properties": {"name": "巨揚機車行", "address": "臺北市士林區中正路605號", "district": "士林區", "city": "taipei", "operator": "中華汽車"}}, {"type": "Feature", "geometry": {"type": "Point", "coordinates": [121.548999, 25.0249]}, "properties": {"name": "信全車業有限公司", "address": "臺北市大安區通化街168號", "district": "大安區", "city": "taipei", "operator": "中華汽車"}}, {"type": "Feature", "geometry": {"type": "Point", "coordinates": [121.521702, 25.036375]}, "properties": {"name": "立豐機車行", "address": "臺北市中正區重慶南路3段32號", "district": "中正區", "city": "taipei", "operator": "中華汽車"}}, {"type": "Feature", "geometry": {"type": "Point", "coordinates": [121.589921, 25.086851]}, "properties": {"name": "國祥機車行", "address": "臺北市內湖區康樂街32號", "district": "內湖區", "city": "taipei", "operator": "中華汽車"}}, {"type": "Feature", "geometry": {"type": "Point", "coordinates": [121.593495, 25.080192]}, "properties": {"name": "葉陽車業行", "address": "臺北市內湖區民權東路6段320號", "district": "內湖區", "city": "taipei", "operator": "中華汽車"}}, {"type": "Feature", "geometry": {"type": "Point", "coordinates": [121.582345, 25.079629]}, "properties": {"name": "通龍車業行", "address": "臺北市內湖區港墘路34號", "district": "內湖區", "city": "taipei", "operator": "中華汽車"}}, {"type": "Feature", "geometry": {"type": "Point", "coordinates": [121.493515, 25.133934]}, "properties": {"name": "大發車業", "address": "臺北市北投區中央北路2段167號", "district": "北投區", "city": "taipei", "operator": "中華汽車"}}, {"type": "Feature", "geometry": {"type": "Point", "coordinates": [121.558568, 25.046816]}, "properties": {"name": "崑宏機車行", "address": "臺北市松山區撫遠街362號", "district": "松山區", "city": "taipei", "operator": "中華汽車"}}, {"type": "Feature", "geometry": {"type": "Point", "coordinates": [121.567194, 25.036203]}, "properties": {"name": "大慶機車材料行", "address": "臺北市信義區莊敬路325巷33號", "district": "信義區", "city": "taipei", "operator": "中華汽車"}}, {"type": "Feature", "geometry": {"type": "Point", "coordinates": [121.560813, 25.034287]}, "properties": {"name": "東勝機車行", "address": "臺北市信義區松仁路167號", "district": "信義區", "city": "taipei", "operator": "中華汽車"}}, {"type": "Feature", "geometry": {"type": "Point", "coordinates": [121.609775, 25.050374]}, "properties": {"name": "益群車業有限公司", "address": "臺北市南港區東新街69號", "district": "南港區", "city": "taipei", "operator": "中華汽車"}}, {"type": "Feature", "geometry": {"type": "Point", "coordinates": [121.610632, 25.060577]}, "properties": {"name": "民豐機車行", "address": "臺北市南港區成福路137號", "district": "南港區", "city": "taipei", "operator": "中華汽車"}}, {"type": "Feature", "geometry": {"type": "Point", "coordinates": [121.602097, 25.049308]}, "properties": {"name": "政賢機車行", "address": "臺北市南港區忠孝東路7段564號", "district": "南港區", "city": "taipei", "operator": "中華汽車"}}, {"type": "Feature", "geometry": {"type": "Point", "coordinates": [121.495843, 25.036928]}, "properties": {"name": "億林機車行", "address": "臺北市萬華區艋舺大道416號", "district": "萬華區", "city": "taipei", "operator": "中華汽車"}}, {"type": "Feature", "geometry": {"type": "Point", "coordinates": [121.525398, 25.03176]}, "properties": {"name": "一成機車有限公司", "address": "臺北市中正區新生南路1段134-1號", "district": "中正區", "city": "taipei", "operator": "中華汽車"}}, {"type": "Feature", "geometry": {"type": "Point", "coordinates": [121.52248, 25.027912]}, "properties": {"name": "紘益機車行", "address": "臺北市中正區牯嶺街77號", "district": "中正區", "city": "taipei", "operator": "中華汽車"}}, {"type": "Feature", "geometry": {"type": "Point", "coordinates": [121.545287, 25.028227]}, "properties": {"name": "皇信機車行", "address": "臺北市大安區濟南路3段68號", "district": "大安區", "city": "taipei", "operator": "中華汽車"}}, {"type": "Feature", "geometry": {"type": "Point", "coordinates": [121.583323, 25.08707]}, "properties": {"name": "興陽機車行", "address": "臺北市內湖區五分街39號", "district": "內湖區", "city": "taipei", "operator": "中華汽車"}}, {"type": "Feature", "geometry": {"type": "Point", "coordinates": [121.528504, 25.094205]}, "properties": {"name": "誠鎰車業行", "address": "臺北市士林區德行東路23號", "district": "士林區", "city": "taipei", "operator": "中華汽車"}}, {"type": "Feature", "geometry": {"type": "Point", "coordinates": [121.508353, 25.068806]}, "properties": {"name": "翊翔機車行", "address": "臺北市大同區錦西街53巷2號", "district": "大同區", "city": "taipei", "operator": "中華汽車"}}, {"type": "Feature", "geometry": {"type": "Point", "coordinates": [121.501392, 25.130066]}, "properties": {"name": "欣民機車行", "address": "臺北市北投區行義路21號", "district": "北投區", "city": "taipei", "operator": "中華汽車"}}, {"type": "Feature", "geometry": {"type": "Point", "coordinates": [121.563941, 25.031447]}, "properties": {"name": "裕進車業行", "address": "臺北市信義區富陽街63號", "district": "信義區", "city": "taipei", "operator": "中華汽車"}}, {"type": "Feature", "geometry": {"type": "Point", "coordinates": [121.543072, 25.024795]}, "properties": {"name": "小林機車行", "address": "臺北市大安區建國南路2段79巷3號", "district": "大安區", "city": "taipei", "operator": "中華汽車"}}, {"type": "Feature", "geometry": {"type": "Point", "coordinates": [121.502295, 25.038668]}, "properties": {"name": "協合國際行銷有限公司", "address": "臺北市萬華區和平西路2段151號", "district": "萬華區", "city": "taipei", "operator": "中華汽車"}}, {"type": "Feature", "geometry": {"type": "Point", "coordinates": [121.583366, 25.089329]}, "properties": {"name": "鎧詮機車行", "address": "臺北市內湖區內湖路1段31號", "district": "內湖區", "city": "taipei", "operator": "中華汽車"}}, {"type": "Feature", "geometry": {"type": "Point", "coordinates": [121.544627, 25.030644]}, "properties": {"name": "駿全車坊", "address": "臺北市大安區市民大道4段22號", "district": "大安區", "city": "taipei", "operator": "中華汽車"}}, {"type": "Feature", "geometry": {"type": "Point", "coordinates": [121.545488, 25.025926]}, "properties": {"name": "致盛機車行", "address": "臺北市大安區金華街118-4號", "district": "大安區", "city": "taipei", "operator": "中華汽車"}}, {"type": "Feature", "geometry": {"type": "Point", "coordinates": [121.590906, 25.089386]}, "properties": {"name": "成功車業行", "address": "臺北市內湖區金龍路9號", "district": "內湖區", "city": "taipei", "operator": "中華汽車"}}, {"type": "Feature", "geometry": {"type": "Point", "coordinates": [121.565941, 24.999798]}, "properties": {"name": "達成車業有限公司", "address": "臺北市文山區興隆路2段177號", "district": "文山區", "city": "taipei", "operator": "中華汽車"}}, {"type": "Feature", "geometry": {"type": "Point", "coordinates": [121.524758, 25.092802]}, "properties": {"name": "嘉盛車業行", "address": "臺北市士林區延平北路6段139號", "district": "士林區", "city": "taipei", "operator": "中華汽車"}}, {"type": "Feature", "geometry": {"type": "Point", "coordinates": [121.557027, 25.052972]}, "properties": {"name": "永承車業行", "address": "臺北市松山區健康路230號", "district": "松山區", "city": "taipei", "operator": "中華汽車"}}, {"type": "Feature", "geometry": {"type": "Point", "coordinates": [121.521521, 25.097221]}, "properties": {"name": "德龍車業行", "address": "臺北市士林區故宮路41巷1號", "district": "士林區", "city": "taipei", "operator": "中華汽車"}}, {"type": "Feature", "geometry": {"type": "Point", "coordinates": [121.568769, 25.02804]}, "properties": {"name": "俊明機車行", "address": "臺北市信義區吳興街469號", "district": "信義區", "city": "taipei", "operator": "中華汽車"}}, {"type": "Feature", "geometry": {"type": "Point", "coordinates": [121.56938, 25.029926]}, "properties": {"name": "勵瑩車業有限公司", "address": "台北市信義區松山路348號", "district": "信義區", "city": "taipei", "operator": "中華汽車"}}, {"type": "Feature", "geometry": {"type": "Point", "coordinates": [121.497577, 25.133224]}, "properties": {"name": "順達機車行", "address": "臺北市北投區立農街2段206號", "district": "北投區", "city": "taipei", "operator": "中華汽車"}}, {"type": "Feature", "geometry": {"type": "Point", "coordinates": [121.496648, 25.029144]}, "properties": {"name": "車強機車行", "address": "臺北市萬華區環河南路2段105號", "district": "萬華區", "city": "taipei", "operator": "中華汽車"}}, {"type": "Feature", "geometry": {"type": "Point", "coordinates": [121.611011, 25.051182]}, "properties": {"name": "季祥車業行", "address": "臺北市南港區研究院路1段45號", "district": "南港區", "city": "taipei", "operator": "中華汽車"}}, {"type": "Feature", "geometry": {"type": "Point", "coordinates": [121.494645, 25.038374]}, "properties": {"name": "祥和機車行", "address": "臺北市萬華區環河南路2段117號", "district": "萬華區", "city": "taipei", "operator": "中華汽車"}}, {"type": "Feature", "geometry": {"type": "Point", "coordinates": [121.510984, 25.067564]}, "properties": {"name": "國真機車有限公司", "address": "臺北市大同區哈密街63巷1號", "district": "大同區", "city": "taipei", "operator": "中華汽車"}}, {"type": "Feature", "geometry": {"type": "Point", "coordinates": [121.567214, 25.030315]}, "properties": {"name": "三沅行車業股份有限公司", "address": "臺北市信義區忠孝東路5段713號", "district": "信義區", "city": "taipei", "operator": "中華汽車"}}, {"type": "Feature", "geometry": {"type": "Point", "coordinates": [121.582222, 25.089177]}, "properties": {"name": "玟樺機車行", "address": "臺北市內湖區內湖路1段91巷7號", "district": "內湖區", "city": "taipei", "operator": "中華汽車"}}, {"type": "Feature", "geometry": {"type": "Point", "coordinates": [121.538027, 25.029341]}, "properties": {"name": "典輪機車行", "address": "臺北市大安區建國南路2段161號", "district": "大安區", "city": "taipei", "operator": "中華汽車"}}, {"type": "Feature", "geometry": {"type": "Point", "coordinates": [121.536463, 25.072898]}, "properties": {"name": "偉翔機車行", "address": "臺北市中山區長安東路1段45號", "district": "中山區", "city": "taipei", "operator": "中華汽車"}}, {"type": "Feature", "geometry": {"type": "Point", "coordinates": [121.500287, 25.133651]}, "properties": {"name": "展悅機車行", "address": "臺北市北投區公館路146號", "district": "北投區", "city": "taipei", "operator": "中華汽車"}}, {"type": "Feature", "geometry": {"type": "Point", "coordinates": [121.49789, 25.135415]}, "properties": {"name": "僑王機車行", "address": "臺北市北投區致遠二路116號", "district": "北投區", "city": "taipei", "operator": "中華汽車"}}, {"type": "Feature", "geometry": {"type": "Point", "coordinates": [121.563817, 24.992759]}, "properties": {"name": "鴻吉機車行", "address": "臺北市文山區興隆路3段117號", "district": "文山區", "city": "taipei", "operator": "中華汽車"}}, {"type": "Feature", "geometry": {"type": "Point", "coordinates": [121.571001, 24.993774]}, "properties": {"name": "慧昌機車行", "address": "臺北市文山區木柵路3段102巷7號", "district": "文山區", "city": "taipei", "operator": "中華汽車"}}, {"type": "Feature", "geometry": {"type": "Point", "coordinates": [121.525279, 25.092679]}, "properties": {"name": "駿輝機車行", "address": "臺北市士林區大南路295號", "district": "士林區", "city": "taipei", "operator": "中華汽車"}}, {"type": "Feature", "geometry": {"type": "Point", "coordinates": [121.524671, 25.092106]}, "properties": {"name": "新鎰昌機車行", "address": "臺北市士林區至誠路1段2-6號", "district": "士林區", "city": "taipei", "operator": "中華汽車"}}, {"type": "Feature", "geometry": {"type": "Point", "coordinates": [121.539551, 25.067769]}, "properties": {"name": "朝日車業行", "address": "臺北市中山區民權東路2段133號", "district": "中山區", "city": "taipei", "operator": "中華汽車"}}, {"type": "Feature", "geometry": {"type": "Point", "coordinates": [121.500434, 25.129151]}, "properties": {"name": "聯盈機車材料行", "address": "臺北市北投區中央北路4段545號", "district": "北投區", "city": "taipei", "operator": "中華汽車"}}, {"type": "Feature", "geometry": {"type": "Point", "coordinates": [121.585117, 25.079248]}, "properties": {"name": "坤達機車行", "address": "臺北市內湖區文湖街75號", "district": "內湖區", "city": "taipei", "operator": "中華汽車"}}, {"type": "Feature", "geometry": {"type": "Point", "coordinates": [121.584411, 25.079235]}, "properties": {"name": "峻東機車行", "address": "臺北市內湖區東湖路119巷49弄30號", "district": "內湖區", "city": "taipei", "operator": "中華汽車"}}, {"type": "Feature", "geometry": {"type": "Point", "coordinates": [121.49853, 25.037946]}, "properties": {"name": "承鋒車業行", "address": "臺北市萬華區西園路2段67-2號", "district": "萬華區", "city": "taipei", "operator": "中華汽車"}}, {"type": "Feature", "geometry": {"type": "Point", "coordinates": [121.539222, 25.023297]}, "properties": {"name": "建維機車行", "address": "臺北市大安區潮州街86號", "district": "大安區", "city": "taipei", "operator": "中華汽車"}}, {"type": "Feature", "geometry": {"type": "Point", "coordinates": [121.60661, 25.057695]}, "properties": {"name": "力鼎機車行", "address": "台北市信義區基隆路一段99號", "district": "南港區", "city": "taipei", "operator": "中華汽車"}}, {"type": "Feature", "geometry": {"type": "Point", "coordinates": [121.530019, 25.093296]}, "properties": {"name": "原益車業行", "address": "臺北市士林區延平北路5段14號", "district": "士林區", "city": "taipei", "operator": "中華汽車"}}, {"type": "Feature", "geometry": {"type": "Point", "coordinates": [121.521696, 25.088206]}, "properties": {"name": "卉茂實業有限公司", "address": "臺北市士林區文林路764號", "district": "士林區", "city": "taipei", "operator": "中華汽車"}}, {"type": "Feature", "geometry": {"type": "Point", "coordinates": [121.584429, 25.08053]}, "properties": {"name": "百鉅機車行", "address": "臺北市內湖區成功路2段314號", "district": "內湖區", "city": "taipei", "operator": "中華汽車"}}, {"type": "Feature", "geometry": {"type": "Point", "coordinates": [121.560953, 25.02717]}, "properties": {"name": "豪信機車行", "address": "臺北市信義區松隆路217號", "district": "信義區", "city": "taipei", "operator": "中華汽車"}}, {"type": "Feature", "geometry": {"type": "Point", "coordinates": [121.53701, 25.067092]}, "properties": {"name": "泓原彰車業行", "address": "臺北市中山區中原街23號", "district": "中山區", "city": "taipei", "operator": "中華汽車"}}, {"type": "Feature", "geometry": {"type": "Point", "coordinates": [121.593792, 25.08444]}, "properties": {"name": "誠鴻機車行", "address": "臺北市內湖區民權東路6段60號", "district": "內湖區", "city": "taipei", "operator": "中華汽車"}}, {"type": "Feature", "geometry": {"type": "Point", "coordinates": [121.500369, 25.127415]}, "properties": {"name": "大利車業行", "address": "臺北市北投區中央北路1段203號", "district": "北投區", "city": "taipei", "operator": "中華汽車"}}, {"type": "Feature", "geometry": {"type": "Point", "coordinates": [121.547422, 25.026591]}, "properties": {"name": "樺新車業行", "address": "臺北市大安區市民大道4段64號", "district": "大安區", "city": "taipei", "operator": "中華汽車"}}, {"type": "Feature", "geometry": {"type": "Point", "coordinates": [121.541073, 25.070689]}, "properties": {"name": "永全機車行", "address": "臺北市中山區中山北路2段137巷36-2號", "district": "中山區", "city": "taipei", "operator": "中華汽車"}}, {"type": "Feature", "geometry": {"type": "Point", "coordinates": [121.497633, 25.131186]}, "properties": {"name": "浩成機車行", "address": "臺北市北投區崇仁路1段40號", "district": "北投區", "city": "taipei", "operator": "中華汽車"}}, {"type": "Feature", "geometry": {"type": "Point", "coordinates": [121.584312, 25.078417]}, "properties": {"name": "飛皇車業行", "address": "臺北市內湖區內湖路2段9號", "district": "內湖區", "city": "taipei", "operator": "中華汽車"}}, {"type": "Feature", "geometry": {"type": "Point", "coordinates": [121.503393, 25.034533]}, "properties": {"name": "豪成機車行", "address": "臺北市萬華區和平西路2段190巷5號", "district": "萬華區", "city": "taipei", "operator": "中華汽車"}}, {"type": "Feature", "geometry": {"type": "Point", "coordinates": [121.528165, 25.091808]}, "properties": {"name": "日輝車業有限公司", "address": "臺北市士林區延平北路5段41號1樓", "district": "士林區", "city": "taipei", "operator": "中華汽車"}}, {"type": "Feature", "geometry": {"type": "Point", "coordinates": [121.563589, 24.997653]}, "properties": {"name": "元信機車行有限公司", "address": "臺北市文山區木柵路2段125號", "district": "文山區", "city": "taipei", "operator": "中華汽車"}}, {"type": "Feature", "geometry": {"type": "Point", "coordinates": [121.559443, 25.02879]}, "properties": {"name": "益昇機車行", "address": "臺北市信義區莊敬路214號", "district": "信義區", "city": "taipei", "operator": "中華汽車"}}, {"type": "Feature", "geometry": {"type": "Point", "coordinates": [121.558554, 25.047846]}, "properties": {"name": "老羅機車行", "address": "臺北市松山區塔悠路206號", "district": "松山區", "city": "taipei", "operator": "中華汽車"}}, {"type": "Feature", "geometry": {"type": "Point", "coordinates": [121.612727, 25.050421]}, "properties": {"name": "惠展車業", "address": "臺北市南港區福德街354號", "district": "南港區", "city": "taipei", "operator": "中華汽車"}}, {"type": "Feature", "geometry": {"type": "Point", "coordinates": [121.591273, 25.085076]}, "properties": {"name": "米德車業行", "address": "臺北市內湖區環山路2段21號", "district": "內湖區", "city": "taipei", "operator": "中華汽車"}}, {"type": "Feature", "geometry": {"type": "Point", "coordinates": [121.546489, 25.023408]}, "properties": {"name": "迅誠機車行", "address": "臺北市大安區通化街171巷11號", "district": "大安區", "city": "taipei", "operator": "中華汽車"}}, {"type": "Feature", "geometry": {"type": "Point", "coordinates": [121.536871, 25.069206]}, "properties": {"name": "新星機車行", "address": "臺北市中山區新生北路3段91號", "district": "中山區", "city": "taipei", "operator": "中華汽車"}}, {"type": "Feature", "geometry": {"type": "Point", "coordinates": [121.497313, 25.136222]}, "properties": {"name": "草山車業", "address": "臺北市北投區東陽街470號1樓", "district": "北投區", "city": "taipei", "operator": "中華汽車"}}, {"type": "Feature", "geometry": {"type": "Point", "coordinates": [121.50398, 25.032465]}, "properties": {"name": "德客隆機車行", "address": "臺北市萬華區西藏路170號1樓", "district": "萬華區", "city": "taipei", "operator": "中華汽車"}}, {"type": "Feature", "geometry": {"type": "Point", "coordinates": [121.559252, 25.051516]}, "properties": {"name": "尚勇車業行", "address": "臺北市松山區八德路4段332號", "district": "松山區", "city": "taipei", "operator": "中華汽車"}}, {"type": "Feature", "geometry": {"type": "Point", "coordinates": [121.609681, 25.060371]}, "properties": {"name": "嘉駿機車行", "address": "臺北市南港區成福路155號1樓", "district": "南港區", "city": "taipei", "operator": "中華汽車"}}, {"type": "Feature", "geometry": {"type": "Point", "coordinates": [121.561293, 25.029532]}, "properties": {"name": "翔偉機車行", "address": "臺北市信義區福德街66號", "district": "信義區", "city": "taipei", "operator": "中華汽車"}}, {"type": "Feature", "geometry": {"type": "Point", "coordinates": [121.570625, 24.991985]}, "properties": {"name": "福星機車行", "address": "臺北市文山區木新路2段123號", "district": "文山區", "city": "taipei", "operator": "中華汽車"}}, {"type": "Feature", "geometry": {"type": "Point", "coordinates": [121.520386, 25.087901]}, "properties": {"name": "北大機車材料行", "address": "臺北市士林區中正路411、413號", "district": "士林區", "city": "taipei", "operator": "中華汽車"}}, {"type": "Feature", "geometry": {"type": "Point", "coordinates": [121.600832, 25.054406]}, "properties": {"name": "家育車業行", "address": "臺北市南港區成福路200之1號1樓", "district": "南港區", "city": "taipei", "operator": "中華汽車"}}, {"type": "Feature", "geometry": {"type": "Point", "coordinates": [121.607926, 25.052495]}, "properties": {"name": "三漾輪業行", "address": "臺北市南港區忠孝東路6段240號1樓", "district": "南港區", "city": "taipei", "operator": "中華汽車"}}, {"type": "Feature", "geometry": {"type": "Point", "coordinates": [121.565478, 24.998583]}, "properties": {"name": "合展車業行", "address": "臺北市文山區羅斯福路6段73、75號", "district": "文山區", "city": "taipei", "operator": "中華汽車"}}, {"type": "Feature", "geometry": {"type": "Point", "coordinates": [121.515336, 25.062448]}, "properties": {"name": "立偉成有限公司", "address": "臺北市大同區寧夏路127號", "district": "大同區", "city": "taipei", "operator": "中華汽車"}}, {"type": "Feature", "geometry": {"type": "Point", "coordinates": [121.590349, 25.088887]}, "properties": {"name": "內湖車業有限公司", "address": "臺北市內湖區文德路18號", "district": "內湖區", "city": "taipei", "operator": "中華汽車"}}, {"type": "Feature", "geometry": {"type": "Point", "coordinates": [121.591554, 25.085301]}, "properties": {"name": "法仕德車業有限公司", "address": "臺北市內湖區新明路363號", "district": "內湖區", "city": "taipei", "operator": "中華汽車"}}, {"type": "Feature", "geometry": {"type": "Point", "coordinates": [121.566734, 25.038204]}, "properties": {"name": "摩都車業行", "address": "臺北市信義區吳興街378號1樓", "district": "信義區", "city": "taipei", "operator": "中華汽車"}}, {"type": "Feature", "geometry": {"type": "Point", "coordinates": [121.563902, 25.033535]}, "properties": {"name": "光明車業有限公司", "address": "臺北市信義區基隆路2段165號", "district": "信義區", "city": "taipei", "operator": "中華汽車"}}, {"type": "Feature", "geometry": {"type": "Point", "coordinates": [121.570472, 25.001001]}, "properties": {"name": "三光機車行", "address": "臺北市文山區景興路7號1樓", "district": "文山區", "city": "taipei", "operator": "中華汽車"}}, {"type": "Feature", "geometry": {"type": "Point", "coordinates": [121.52822, 25.087857]}, "properties": {"name": "永景機車材料行", "address": "臺北市士林區中山北路6段405巷79號1樓", "district": "士林區", "city": "taipei", "operator": "中華汽車"}}, {"type": "Feature", "geometry": {"type": "Point", "coordinates": [121.520291, 25.090691]}, "properties": {"name": "進喆車業行", "address": "臺北市士林區通河東街1段198號1樓", "district": "士林區", "city": "taipei", "operator": "中華汽車"}}, {"type": "Feature", "geometry": {"type": "Point", "coordinates": [121.501087, 25.03563]}, "properties": {"name": "金里車行", "address": "臺北市萬華區桂林路244巷57號", "district": "萬華區", "city": "taipei", "operator": "中華汽車"}}, {"type": "Feature", "geometry": {"type": "Point", "coordinates": [121.495563, 25.030292]}, "properties": {"name": "永盛機車行", "address": "臺北市萬華區環河南路2段300號1樓", "district": "萬華區", "city": "taipei", "operator": "中華汽車"}}, {"type": "Feature", "geometry": {"type": "Point", "coordinates": [121.545264, 25.029097]}, "properties": {"name": "立暉機車行", "address": "臺北市大安區新生南路2段82-1號1樓", "district": "大安區", "city": "taipei", "operator": "中華汽車"}}, {"type": "Feature", "geometry": {"type": "Point", "coordinates": [121.570112, 25.033006]}, "properties": {"name": "世貿機車材料行", "address": "臺北市信義區松信路162號", "district": "信義區", "city": "taipei", "operator": "中華汽車"}}, {"type": "Feature", "geometry": {"type": "Point", "coordinates": [121.536526, 25.064765]}, "properties": {"name": "旭順車業行", "address": "臺北市中山區中原街55號", "district": "中山區", "city": "taipei", "operator": "中華汽車"}}, {"type": "Feature", "geometry": {"type": "Point", "coordinates": [121.563178, 24.995284]}, "properties": {"name": "龍杰車業行", "address": "臺北市文山區木柵路1段206號", "district": "文山區", "city": "taipei", "operator": "中華汽車"}}, {"type": "Feature", "geometry": {"type": "Point", "coordinates": [121.534468, 25.066804]}, "properties": {"name": "興羨機車行", "address": "臺北市中山區興安街65號", "district": "中山區", "city": "taipei", "operator": "中華汽車"}}, {"type": "Feature", "geometry": {"type": "Point", "coordinates": [121.583196, 25.089343]}, "properties": {"name": "千豐車業行", "address": "臺北市內湖區安康路191號", "district": "內湖區", "city": "taipei", "operator": "中華汽車"}}, {"type": "Feature", "geometry": {"type": "Point", "coordinates": [121.547032, 25.027602]}, "properties": {"name": "崇盛機車行", "address": "臺北市大安區瑞安街152號", "district": "大安區", "city": "taipei", "operator": "中華汽車"}}, {"type": "Feature", "geometry": {"type": "Point", "coordinates": [121.518309, 25.068995]}, "properties": {"name": "雄偉機車行", "address": "臺北市大同區環河北路1段335號", "district": "大同區", "city": "taipei", "operator": "中華汽車"}}, {"type": "Feature", "geometry": {"type": "Point", "coordinates": [121.590167, 25.081034]}, "properties": {"name": "冠頡車業行", "address": "臺北市內湖區康樂街200號1樓", "district": "內湖區", "city": "taipei", "operator": "中華汽車"}}, {"type": "Feature", "geometry": {"type": "Point", "coordinates": [121.518783, 25.096075]}, "properties": {"name": "學生機車行有限公司", "address": "臺北市士林區華岡路31之3號1樓", "district": "士林區", "city": "taipei", "operator": "中華汽車"}}, {"type": "Feature", "geometry": {"type": "Point", "coordinates": [121.557446, 25.052018]}, "properties": {"name": "祥瑞車業行", "address": "台北市松山區光復南路46號", "district": "松山區", "city": "taipei", "operator": "中華汽車"}}, {"type": "Feature", "geometry": {"type": "Point", "coordinates": [121.611793, 25.051178]}, "properties": {"name": "祥銘機車行", "address": "臺北市南港區興中路80巷14號1樓", "district": "南港區", "city": "taipei", "operator": "中華汽車"}}, {"type": "Feature", "geometry": {"type": "Point", "coordinates": [121.569724, 24.997717]}, "properties": {"name": "吉全機車行", "address": "臺北市文山區興隆路4段111-2號", "district": "文山區", "city": "taipei", "operator": "中華汽車"}}, {"type": "Feature", "geometry": {"type": "Point", "coordinates": [121.564701, 25.028095]}, "properties": {"name": "展旗車業行", "address": "台北市信義區松山路225號", "district": "信義區", "city": "taipei", "operator": "中華汽車"}}, {"type": "Feature", "geometry": {"type": "Point", "coordinates": [121.496176, 25.1299]}, "properties": {"name": "百傑車業行", "address": "臺北市北投區中央北路2段303號", "district": "北投區", "city": "taipei", "operator": "中華汽車"}}, {"type": "Feature", "geometry": {"type": "Point", "coordinates": [121.608842, 25.059293]}, "properties": {"name": "景隆機車有限公司", "address": "臺北市南港區忠孝東路7段597號", "district": "南港區", "city": "taipei", "operator": "中華汽車"}}, {"type": "Feature", "geometry": {"type": "Point", "coordinates": [121.517858, 25.035324]}, "properties": {"name": "三之三車業有限公司", "address": "臺北市中正區重慶南路3段56號", "district": "中正區", "city": "taipei", "operator": "中華汽車"}}, {"type": "Feature", "geometry": {"type": "Point", "coordinates": [121.562259, 25.038342]}, "properties": {"name": "正泓機車行", "address": "臺北市信義區崇德街78號1樓", "district": "信義區", "city": "taipei", "operator": "中華汽車"}}, {"type": "Feature", "geometry": {"type": "Point", "coordinates": [121.610563, 25.055601]}, "properties": {"name": "伍邦車業", "address": "臺北市南港區忠孝東路6段284號", "district": "南港區", "city": "taipei", "operator": "中華汽車"}}, {"type": "Feature", "geometry": {"type": "Point", "coordinates": [121.587558, 25.081574]}, "properties": {"name": "豪展機車行", "address": "臺北市內湖區康寧路1段206號", "district": "內湖區", "city": "taipei", "operator": "中華汽車"}}, {"type": "Feature", "geometry": {"type": "Point", "coordinates": [121.562679, 25.038642]}, "properties": {"name": "大仁機車行", "address": "臺北市信義區莊敬路325巷38號", "district": "信義區", "city": "taipei", "operator": "中華汽車"}}, {"type": "Feature", "geometry": {"type": "Point", "coordinates": [121.56365, 25.033175]}, "properties": {"name": "政辰車業行", "address": "臺北市信義區信安街184號", "district": "信義區", "city": "taipei", "operator": "中華汽車"}}, {"type": "Feature", "geometry": {"type": "Point", "coordinates": [121.593957, 25.085692]}, "properties": {"name": "熊大車業行", "address": "臺北市內湖區內湖路2段114號", "district": "內湖區", "city": "taipei", "operator": "中華汽車"}}, {"type": "Feature", "geometry": {"type": "Point", "coordinates": [121.588611, 25.082759]}, "properties": {"name": "東和機車有限公司", "address": "臺北市內湖區環山路1段96號", "district": "內湖區", "city": "taipei", "operator": "中華汽車"}}, {"type": "Feature", "geometry": {"type": "Point", "coordinates": [121.520551, 25.091341]}, "properties": {"name": "聖平車業行", "address": "臺北市士林區延平北路6段149號", "district": "士林區", "city": "taipei", "operator": "中華汽車"}}, {"type": "Feature", "geometry": {"type": "Point", "coordinates": [121.539677, 25.071305]}, "properties": {"name": "英詮機車行", "address": "臺北市中山區北安路656號1樓", "district": "中山區", "city": "taipei", "operator": "中華汽車"}}, {"type": "Feature", "geometry": {"type": "Point", "coordinates": [121.50112, 25.128343]}, "properties": {"name": "良偉機車行", "address": "臺北市北投區立農街2段284號1樓", "district": "北投區", "city": "taipei", "operator": "中華汽車"}}, {"type": "Feature", "geometry": {"type": "Point", "coordinates": [121.498591, 25.137032]}, "properties": {"name": "健展車業行", "address": "臺北市北投區中央北路4段479號", "district": "北投區", "city": "taipei", "operator": "中華汽車"}}, {"type": "Feature", "geometry": {"type": "Point", "coordinates": [121.567957, 24.998479]}, "properties": {"name": "龍騰車業行", "address": "臺北市文山區木柵路1段34號", "district": "文山區", "city": "taipei", "operator": "中華汽車"}}, {"type": "Feature", "geometry": {"type": "Point", "coordinates": [121.515357, 25.038678]}, "properties": {"name": "致盛國際車業有限公司", "address": "臺北市中正區重慶南路3段130-1、130-2號", "district": "中正區", "city": "taipei", "operator": "中華汽車"}}, {"type": "Feature", "geometry": {"type": "Point", "coordinates": [121.499306, 25.128772]}, "properties": {"name": "凱聿車業有限公司", "address": "臺北市北投區明德路150巷5號1樓", "district": "北投區", "city": "taipei", "operator": "中華汽車"}}, {"type": "Feature", "geometry": {"type": "Point", "coordinates": [121.493901, 25.13251]}, "properties": {"name": "振昇機車行", "address": "臺北市北投區中和街241號1樓", "district": "北投區", "city": "taipei", "operator": "中華汽車"}}, {"type": "Feature", "geometry": {"type": "Point", "coordinates": [121.498627, 25.127019]}, "properties": {"name": "金順機車行", "address": "臺北市北投區育仁路137號1樓", "district": "北投區", "city": "taipei", "operator": "中華汽車"}}, {"type": "Feature", "geometry": {"type": "Point", "coordinates": [121.570707, 25.037955]}, "properties": {"name": "丞時機車行", "address": "臺北市信義區大道路31號", "district": "信義區", "city": "taipei", "operator": "中華汽車"}}, {"type": "Feature", "geometry": {"type": "Point", "coordinates": [121.519437, 25.02841]}, "properties": {"name": "禾錡車業行", "address": "臺北市中正區汀州路2段251號", "district": "中正區", "city": "taipei", "operator": "中華汽車"}}, {"type": "Feature", "geometry": {"type": "Point", "coordinates": [121.572686, 24.996081]}, "properties": {"name": "孟軒機車行", "address": "臺北市文山區木柵路一段180號1樓", "district": "文山區", "city": "taipei", "operator": "中華汽車"}}, {"type": "Feature", "geometry": {"type": "Point", "coordinates": [121.590699, 25.083906]}, "properties": {"name": "動力羊機車部品開發有限公司", "address": "臺北市內湖區新明路339號1樓", "district": "內湖區", "city": "taipei", "operator": "中華汽車"}}, {"type": "Feature", "geometry": {"type": "Point", "coordinates": [121.585381, 25.087817]}, "properties": {"name": "鑫勝車業行", "address": "臺北市內湖區文德路90巷28號1樓", "district": "內湖區", "city": "taipei", "operator": "中華汽車"}}, {"type": "Feature", "geometry": {"type": "Point", "coordinates": [121.548763, 25.023625]}, "properties": {"name": "德興鑫車業行", "address": "臺北市大安區延吉街270號", "district": "大安區", "city": "taipei", "operator": "中華汽車"}}, {"type": "Feature", "geometry": {"type": "Point", "coordinates": [121.565415, 25.031603]}, "properties": {"name": "辰昶機車行", "address": "臺北市信義區信安街80號", "district": "信義區", "city": "taipei", "operator": "中華汽車"}}, {"type": "Feature", "geometry": {"type": "Point", "coordinates": [121.503062, 25.131999]}, "properties": {"name": "原馳機車行", "address": "台北市北投區東華街二段14號1樓", "district": "北投區", "city": "taipei", "operator": "中華汽車"}}, {"type": "Feature", "geometry": {"type": "Point", "coordinates": [121.502552, 25.136268]}, "properties": {"name": "聲豪機車行", "address": "臺北市北投區西安街2段185號1樓", "district": "北投區", "city": "taipei", "operator": "中華汽車"}}, {"type": "Feature", "geometry": {"type": "Point", "coordinates": [121.562115, 25.03648]}, "properties": {"name": "人豪機車行", "address": "臺北市信義區莊敬路204號1樓", "district": "信義區", "city": "taipei", "operator": "中華汽車"}}, {"type": "Feature", "geometry": {"type": "Point", "coordinates": [121.4981, 25.0348]}, "properties": {"name": "環南市場西一門超級充電站", "address": "臺北市萬華區環河南路二段245號", "district": "萬華區", "city": "taipei", "operator": "中華汽車"}}, {"type": "Feature", "geometry": {"type": "Point", "coordinates": [121.563538872434, 25.061650646414]}, "properties": {"name": "家樂福三民店超級充電站", "address": "臺北市松山區三民路160號", "district": "松山區", "city": "taipei", "operator": "中華汽車"}}, {"type": "Feature", "geometry": {"type": "Point", "coordinates": [121.575364899624, 25.060140688466]}, "properties": {"name": "家樂福內湖超級充電站", "address": "臺北市內湖區民善街88號", "district": "內湖區", "city": "taipei", "operator": "中華汽車"}}, {"type": "Feature", "geometry": {"type": "Point", "coordinates": [121.5129, 25.063]}, "properties": {"name": "家樂福重慶超級充電站", "address": "臺北市大同區重慶北路二段171號", "district": "大同區", "city": "taipei", "operator": "中華汽車"}}, {"type": "Feature", "geometry": {"type": "Point", "coordinates": [121.5881, 25.0838]}, "properties": {"name": "順益汽車內湖所超級充電站", "address": "臺北市內湖區民權東路六段13之15號", "district": "內湖區", "city": "taipei", "operator": "中華汽車"}}, {"type": "Feature", "geometry": {"type": "Point", "coordinates": [121.5366, 25.0698]}, "properties": {"name": "中華汽車濱江大樓超級充電站", "address": "臺北市中山區濱江街309號", "district": "中山區", "city": "taipei", "operator": "中華汽車"}}, {"type": "Feature", "geometry": {"type": "Point", "coordinates": [121.505171322033, 25.033746787828]}, "properties": {"name": "萬華和平西專賣店超級充電站", "address": "臺北市萬華區和平西路二段149號", "district": "萬華區", "city": "taipei", "operator": "中華汽車"}}, {"type": "Feature", "geometry": {"type": "Point", "coordinates": [121.539597642394, 25.046109508279]}, "properties": {"name": "中崙站", "address": "台北市中山區八德路二段214號", "district": "中山區", "city": "taipei", "operator": "中油"}}, {"type": "Feature", "geometry": {"type": "Point", "coordinates": [121.5881, 25.0838]}, "properties": {"name": "內湖站", "address": "台北市內湖區民權東路六段50號", "district": "內湖區", "city": "taipei", "operator": "中油"}}, {"type": "Feature", "geometry": {"type": "Point", "coordinates": [121.543, 25.0267]}, "properties": {"name": "信義路站", "address": "台北市大安區信義路四段374號", "district": "大安區", "city": "taipei", "operator": "中油"}}, {"type": "Feature", "geometry": {"type": "Point", "coordinates": [121.5578, 25.0502]}, "properties": {"name": "民生東路站", "address": "台北市松山區三民路126號", "district": "松山區", "city": "taipei", "operator": "中油"}}, {"type": "Feature", "geometry": {"type": "Point", "coordinates": [121.5243, 25.093]}, "properties": {"name": "文林路站", "address": "台北市士林區文林路100號", "district": "士林區", "city": "taipei", "operator": "中油"}}, {"type": "Feature", "geometry": {"type": "Point", "coordinates": [121.5243, 25.093]}, "properties": {"name": "臺北市公有士東市場站", "address": "台北市士林區士東路100號", "district": "士林區", "city": "taipei", "operator": "Gogoro Network (換電)"}}, {"type": "Feature", "geometry": {"type": "Point", "coordinates": [121.5243, 25.093]}, "properties": {"name": "士林運動中心站", "address": "台北市士林區士商路1號", "district": "士林區", "city": "taipei", "operator": "Gogoro Network (換電)"}}, {"type": "Feature", "geometry": {"type": "Point", "coordinates": [121.5243, 25.093]}, "properties": {"name": "台亞台北士林加油站", "address": "台北市士林區中山北路五段570號旁", "district": "士林區", "city": "taipei", "operator": "Gogoro Network (換電)"}}, {"type": "Feature", "geometry": {"type": "Point", "coordinates": [121.5243, 25.093]}, "properties": {"name": "全聯士林中正店站", "address": "台北市士林區中正路115號", "district": "士林區", "city": "taipei", "operator": "Gogoro Network (換電)"}}, {"type": "Feature", "geometry": {"type": "Point", "coordinates": [121.5243, 25.093]}, "properties": {"name": "社子國小地下停車場B1F站", "address": "台北市士林區延平北路6段308號", "district": "士林區", "city": "taipei", "operator": "Gogoro Network (換電)"}}, {"type": "Feature", "geometry": {"type": "Point", "coordinates": [121.509394049642, 25.078941018411]}, "properties": {"name": "延平北路5段臨時平面停車場站", "address": "台北市士林區延平北路五段1巷", "district": "士林區", "city": "taipei", "operator": "Gogoro Network (換電)"}}, {"type": "Feature", "geometry": {"type": "Point", "coordinates": [121.5243, 25.093]}, "properties": {"name": "Gogoro 天母忠誠門市站", "address": "台北市士林區忠誠路一段101號", "district": "士林區", "city": "taipei", "operator": "Gogoro Network (換電)"}}, {"type": "Feature", "geometry": {"type": "Point", "coordinates": [121.531438194928, 25.11181105632]}, "properties": {"name": "天母大葉高島屋百貨公司站", "address": "台北市士林區忠誠路二段55號", "district": "士林區", "city": "taipei", "operator": "Gogoro Network (換電)"}}, {"type": "Feature", "geometry": {"type": "Point", "coordinates": [121.5243, 25.093]}, "properties": {"name": "Gogoro 士林承德服務中心站", "address": "台北市士林區承德路4段340號", "district": "士林區", "city": "taipei", "operator": "Gogoro Network (換電)"}}, {"type": "Feature", "geometry": {"type": "Point", "coordinates": [121.523626764083, 25.082777442915]}, "properties": {"name": "宏佳騰士林承德店站", "address": "台北市士林區承德路四段83號", "district": "士林區", "city": "taipei", "operator": "Gogoro Network (換電)"}}, {"type": "Feature", "geometry": {"type": "Point", "coordinates": [121.5243, 25.093]}, "properties": {"name": "台北市格致路站", "address": "台北市士林區格致路59號", "district": "士林區", "city": "taipei", "operator": "Gogoro Network (換電)"}}, {"type": "Feature", "geometry": {"type": "Point", "coordinates": [121.5243, 25.093]}, "properties": {"name": "台灣聯通士林官邸場站", "address": "台北市士林區福林路100巷11弄交叉口", "district": "士林區", "city": "taipei", "operator": "Gogoro Network (換電)"}}, {"type": "Feature", "geometry": {"type": "Point", "coordinates": [121.5243, 25.093]}, "properties": {"name": "台北捷運芝山站", "address": "台北市士林區福國路70號捷運站1號出口", "district": "士林區", "city": "taipei", "operator": "Gogoro Network (換電)"}}, {"type": "Feature", "geometry": {"type": "Point", "coordinates": [121.516478890507, 25.067355732395]}, "properties": {"name": "臺北市樹德公園站", "address": "台北市大同區大龍街91巷7號對面", "district": "大同區", "city": "taipei", "operator": "Gogoro Network (換電)"}}, {"type": "Feature", "geometry": {"type": "Point", "coordinates": [121.511746757436, 25.074299064034]}, "properties": {"name": "啟聰學校地下停車場B1F站", "address": "台北市大同區延平北路四段205號", "district": "大同區", "city": "taipei", "operator": "Gogoro Network (換電)"}}, {"type": "Feature", "geometry": {"type": "Point", "coordinates": [121.5129, 25.063]}, "properties": {"name": "建成公園地下停車場B1F站", "address": "台北市大同區承德路二段31號", "district": "大同區", "city": "taipei", "operator": "Gogoro Network (換電)"}}, {"type": "Feature", "geometry": {"type": "Point", "coordinates": [121.51946036804, 25.050422446115]}, "properties": {"name": "建成國中地下停車場B1F站", "address": "台北市大同區長安西路37號之1", "district": "大同區", "city": "taipei", "operator": "Gogoro Network (換電)"}}, {"type": "Feature", "geometry": {"type": "Point", "coordinates": [121.5129, 25.063]}, "properties": {"name": "第一銀行大稻埕分行站", "address": "台北市大同區迪化街一段63號", "district": "大同區", "city": "taipei", "operator": "Gogoro Network (換電)"}}, {"type": "Feature", "geometry": {"type": "Point", "coordinates": [121.5129, 25.063]}, "properties": {"name": "第一銀行重慶北路站", "address": "台北市大同區重慶北路二段180號", "district": "大同區", "city": "taipei", "operator": "Gogoro Network (換電)"}}, {"type": "Feature", "geometry": {"type": "Point", "coordinates": [121.543, 25.0267]}, "properties": {"name": "臺北市四維廣場停車場站", "address": "台北市大安區四維路78號對面", "district": "大安區", "city": "taipei", "operator": "Gogoro Network (換電)"}}, {"type": "Feature", "geometry": {"type": "Point", "coordinates": [121.543, 25.0267]}, "properties": {"name": "Gogoro 師大和平店站", "address": "台北市大安區和平東路一段129號", "district": "大安區", "city": "taipei", "operator": "Gogoro Network (換電)"}}, {"type": "Feature", "geometry": {"type": "Point", "coordinates": [121.543, 25.0267]}, "properties": {"name": "台北捷運六張犁站", "address": "台北市大安區和平東路三段168號", "district": "大安區", "city": "taipei", "operator": "Gogoro Network (換電)"}}, {"type": "Feature", "geometry": {"type": "Point", "coordinates": [121.543, 25.0267]}, "properties": {"name": "國立臺北教育大學站", "address": "台北市大安區臥龍街20之1號旁", "district": "大安區", "city": "taipei", "operator": "Gogoro Network (換電)"}}, {"type": "Feature", "geometry": {"type": "Point", "coordinates": [121.538138939784, 25.030952345129]}, "properties": {"name": "勝利加油站", "address": "台北市大安區建國南路二段75-1號", "district": "大安區", "city": "taipei", "operator": "Gogoro Network (換電)"}}, {"type": "Feature", "geometry": {"type": "Point", "coordinates": [121.543, 25.0267]}, "properties": {"name": "更生保護會基隆路站", "address": "台北市大安區基隆路二段166-1號旁", "district": "大安區", "city": "taipei", "operator": "Gogoro Network (換電)"}}, {"type": "Feature", "geometry": {"type": "Point", "coordinates": [121.543, 25.0267]}, "properties": {"name": "國立臺灣科技大學站", "address": "台北市大安區基隆路四段43號", "district": "大安區", "city": "taipei", "operator": "Gogoro Network (換電)"}}, {"type": "Feature", "geometry": {"type": "Point", "coordinates": [121.543, 25.0267]}, "properties": {"name": "7-ELEVEN 華電店站", "address": "台北市大安區通化街177號", "district": "大安區", "city": "taipei", "operator": "Gogoro Network (換電)"}}, {"type": "Feature", "geometry": {"type": "Point", "coordinates": [121.543, 25.0267]}, "properties": {"name": "7-ELEVEN 誠安店站", "address": "台北市大安區敦化南路1段247巷12號", "district": "大安區", "city": "taipei", "operator": "Gogoro Network (換電)"}}, {"type": "Feature", "geometry": {"type": "Point", "coordinates": [121.543, 25.0267]}, "properties": {"name": "臺大二活停車場站", "address": "台北市大安區羅斯福路4段107號", "district": "大安區", "city": "taipei", "operator": "Gogoro Network (換電)"}}, {"type": "Feature", "geometry": {"type": "Point", "coordinates": [121.546234181871, 25.083586548028]}, "properties": {"name": "實踐大學站", "address": "台北市中山區大直街70號", "district": "中山區", "city": "taipei", "operator": "Gogoro Network (換電)"}}, {"type": "Feature", "geometry": {"type": "Point", "coordinates": [121.523541184852, 25.056175964445]}, "properties": {"name": "第一銀行中山分行站", "address": "台北市中山區中山北路二段59巷3弄7號", "district": "中山區", "city": "taipei", "operator": "Gogoro Network (換電)"}}, {"type": "Feature", "geometry": {"type": "Point", "coordinates": [121.5366, 25.0698]}, "properties": {"name": "全家美華店站", "address": "台北市中山區北安路819之1號", "district": "中山區", "city": "taipei", "operator": "Gogoro Network (換電)"}}, {"type": "Feature", "geometry": {"type": "Point", "coordinates": [121.5366, 25.0698]}, "properties": {"name": "臺北市新生公園停車場站", "address": "台北市中山區民族東路與吉林路口", "district": "中山區", "city": "taipei", "operator": "Gogoro Network (換電)"}}, {"type": "Feature", "geometry": {"type": "Point", "coordinates": [121.519474033974, 25.062602662976]}, "properties": {"name": "台北捷運民權西路站", "address": "台北市中山區民權西路72號捷運3號出入口", "district": "中山區", "city": "taipei", "operator": "Gogoro Network (換電)"}}, {"type": "Feature", "geometry": {"type": "Point", "coordinates": [121.5366, 25.0698]}, "properties": {"name": "Gogoro 中山松江服務中心站", "address": "台北市中山區松江路530號", "district": "中山區", "city": "taipei", "operator": "Gogoro Network (換電)"}}, {"type": "Feature", "geometry": {"type": "Point", "coordinates": [121.5366, 25.0698]}, "properties": {"name": "合作金庫銀行自強分行站", "address": "台北市中山區南京東路二段85號", "district": "中山區", "city": "taipei", "operator": "Gogoro Network (換電)"}}, {"type": "Feature", "geometry": {"type": "Point", "coordinates": [121.5366, 25.0698]}, "properties": {"name": "臺北市建國北路高架橋下停車場站", "address": "台北市中山區建國北路一段13號對面(近建國北路一段八德路二段口)", "district": "中山區", "city": "taipei", "operator": "Gogoro Network (換電)"}}, {"type": "Feature", "geometry": {"type": "Point", "coordinates": [121.537094141768, 25.052820883463]}, "properties": {"name": "便利停車場建國站", "address": "台北市中山區建國北路二段11巷內空地", "district": "中山區", "city": "taipei", "operator": "Gogoro Network (換電)"}}, {"type": "Feature", "geometry": {"type": "Point", "coordinates": [121.5366, 25.0698]}, "properties": {"name": "7-ELEVEN 金宴店站", "address": "台北市中山區建國北路二段151巷8號", "district": "中山區", "city": "taipei", "operator": "Gogoro Network (換電)"}}, {"type": "Feature", "geometry": {"type": "Point", "coordinates": [121.5366, 25.0698]}, "properties": {"name": "榮星花園地下停車場B1F站", "address": "台北市中山區建國北路三段39號", "district": "中山區", "city": "taipei", "operator": "Gogoro Network (換電)"}}, {"type": "Feature", "geometry": {"type": "Point", "coordinates": [121.5366, 25.0698]}, "properties": {"name": "7-ELEVEN 榮鑫店站", "address": "台北市中山區建國北路三段89及91號前", "district": "中山區", "city": "taipei", "operator": "Gogoro Network (換電)"}}, {"type": "Feature", "geometry": {"type": "Point", "coordinates": [121.531545567108, 25.046851767715]}, "properties": {"name": "Gogoro 新生市民服務中心站", "address": "台北市中山區新生北路一段23號1樓", "district": "中山區", "city": "taipei", "operator": "Gogoro Network (換電)"}}, {"type": "Feature", "geometry": {"type": "Point", "coordinates": [121.5366, 25.0698]}, "properties": {"name": "臺北市新壽公園站", "address": "台北市中山區新生北路三段3巷56號對面", "district": "中山區", "city": "taipei", "operator": "Gogoro Network (換電)"}}, {"type": "Feature", "geometry": {"type": "Point", "coordinates": [121.5366, 25.0698]}, "properties": {"name": "臺北市新生北廣場停車場站", "address": "台北市中山區新生北路—段36號前", "district": "中山區", "city": "taipei", "operator": "Gogoro Network (換電)"}}, {"type": "Feature", "geometry": {"type": "Point", "coordinates": [121.533901971548, 25.013179231907]}, "properties": {"name": "公館水岸新世界機車臨時平面停車場站", "address": "台北市中正區汀州路三段160巷8號", "district": "中正區", "city": "taipei", "operator": "Gogoro Network (換電)"}}, {"type": "Feature", "geometry": {"type": "Point", "coordinates": [121.5199, 25.033]}, "properties": {"name": "東吳大學城區部站", "address": "台北市中正區延平南路133巷底", "district": "中正區", "city": "taipei", "operator": "Gogoro Network (換電)"}}, {"type": "Feature", "geometry": {"type": "Point", "coordinates": [121.5199, 25.033]}, "properties": {"name": "全聯中正延平店站", "address": "台北市中正區延平南路189號", "district": "中正區", "city": "taipei", "operator": "Gogoro Network (換電)"}}, {"type": "Feature", "geometry": {"type": "Point", "coordinates": [121.52207141813, 25.044912321048]}, "properties": {"name": "台北喜來登大飯店站", "address": "台北市中正區忠孝東路一段12號", "district": "中正區", "city": "taipei", "operator": "Gogoro Network (換電)"}}, {"type": "Feature", "geometry": {"type": "Point", "coordinates": [121.5199, 25.033]}, "properties": {"name": "SOKER 中正重慶店站", "address": "台北市中正區重慶南路二段73號", "district": "中正區", "city": "taipei", "operator": "Gogoro Network (換電)"}}, {"type": "Feature", "geometry": {"type": "Point", "coordinates": [121.5881, 25.0838]}, "properties": {"name": "西湖公園站", "address": "台北市內湖區內湖路一段387巷38號", "district": "內湖區", "city": "taipei", "operator": "Gogoro Network (換電)"}}, {"type": "Feature", "geometry": {"type": "Point", "coordinates": [121.5881, 25.0838]}, "properties": {"name": "Gogoro 內湖西湖服務中心站", "address": "台北市內湖區內湖路一段411巷19弄17號", "district": "內湖區", "city": "taipei", "operator": "Gogoro Network (換電)"}}, {"type": "Feature", "geometry": {"type": "Point", "coordinates": [121.5881, 25.0838]}, "properties": {"name": "臺北市立圖書館西湖分館站", "address": "台北市內湖區內湖路一段594號", "district": "內湖區", "city": "taipei", "operator": "Gogoro Network (換電)"}}, {"type": "Feature", "geometry": {"type": "Point", "coordinates": [121.5881, 25.0838]}, "properties": {"name": "家樂福內湖店站", "address": "台北市內湖區民善街88號", "district": "內湖區", "city": "taipei", "operator": "Gogoro Network (換電)"}}, {"type": "Feature", "geometry": {"type": "Point", "coordinates": [121.5881, 25.0838]},