{"type": "FeatureCollection", "features": [{"type": "Feature", "properties": {"name": "捷運市政府站(3號出口)", "address": "忠孝東路/松仁路(東南側)", "district": "信義區", "slots": "84", "type": "electric_bike_sharing", "city": "taipei"}, "geometry": {"type": "Point", "coordinates": [121.567904444, 25.0408578889]}}, {"type": "Feature", "properties": {"name": "捷運國父紀念館站(2號出口)", "address": "忠孝東路四段/光復南路口(西南側)", "district": "大安區", "slots": "16", "type": "electric_bike_sharing", "city": "taipei"}, "geometry": {"type": "Point", "coordinates": [121.55742, 25.041254]}}, {"type": "Feature", "properties": {"name": "市民廣場", "address": "市府路/松壽路(西北側)(鄰近台北101/台北世界貿易中心/台北探索館)", "district": "信義區", "slots": "32", "type": "electric_bike_sharing", "city": "taipei"}, "geometry": {"type": "Point", "coordinates": [121.562325, 25.0360361111]}}, {"type": "Feature", "properties": {"name": "興雅國中", "address": "松仁路/松仁路95巷(東南側)(鄰近信義商圈/台北信義威秀影城)", "district": "信義區", "slots": "10", "type": "electric_bike_sharing", "city": "taipei"}, "geometry": {"type": "Point", "coordinates": [121.5686639, 25.0365638889]}}, {"type": "Feature", "properties": {"name": "臺北南山廣場", "address": "松智路/松廉路(東北側) (鄰近台北101/信義商圈/台北信義威秀影城)", "district": "信義區", "slots": "54", "type": "electric_bike_sharing", "city": "taipei"}, "geometry": {"type": "Point", "coordinates": [121.565973, 25.034047]}}, {"type": "Feature", "properties": {"name": "信義廣場(台北101)", "address": "松智路/信義路(東北側) (鄰近台北101)", "district": "信義區", "slots": "20", "type": "electric_bike_sharing", "city": "taipei"}, "geometry": {"type": "Point", "coordinates": [121.565619444, 25.0330388889]}}, {"type": "Feature", "properties": {"name": "世貿三館", "address": "市府路/松壽路(東南側) (鄰近台北101/台北世界貿易中心/台北探索館)", "district": "信義區", "slots": "42", "type": "electric_bike_sharing", "city": "taipei"}, "geometry": {"type": "Point", "coordinates": [121.563688889, 25.0352138889]}}, {"type": "Feature", "properties": {"name": "松德站", "address": "台北市信義區松德路300號", "district": "信義區", "slots": "20", "type": "electric_bike_sharing", "city": "taipei"}, "geometry": {"type": "Point", "coordinates": [121.57448, 25.031785]}}, {"type": "Feature", "properties": {"name": "台北市災害應變中心", "address": "台北市信義區莊敬路391巷11弄2號", "district": "信義區", "slots": "12", "type": "electric_bike_sharing", "city": "taipei"}, "geometry": {"type": "Point", "coordinates": [121.566116667, 25.0286611111]}}, {"type": "Feature", "properties": {"name": "三張犁", "address": "光復南路/基隆路一段364巷(鄰近大安親子館)", "district": "信義區", "slots": "16", "type": "electric_bike_sharing", "city": "taipei"}, "geometry": {"type": "Point", "coordinates": [121.55762, 25.034937]}}, {"type": "Feature", "properties": {"name": "臺北醫學大學", "address": "台北醫學大學(吳興街220巷59弄)(鄰近台北醫學大學)", "district": "信義區", "slots": "22", "type": "electric_bike_sharing", "city": "taipei"}, "geometry": {"type": "Point", "coordinates": [121.561747, 25.026679]}}, {"type": "Feature", "properties": {"name": "榮星花園", "address": "五常街/龍江路口(西南側)(鄰近榮星公園(原榮星花園))", "district": "中山區", "slots": "8", "type": "electric_bike_sharing", "city": "taipei"}, "geometry": {"type": "Point", "coordinates": [121.54037, 25.06424]}}, {"type": "Feature", "properties": {"name": "松山家商", "address": "林口街/福德街(東南側)", "district": "信義區", "slots": "10", "type": "electric_bike_sharing", "city": "taipei"}, "geometry": {"type": "Point", "coordinates": [121.579135, 25.036084]}}, {"type": "Feature", "properties": {"name": "民生光復路口", "address": "光復北路/民生東路(西北側)", "district": "松山區", "slots": "12", "type": "electric_bike_sharing", "city": "taipei"}, "geometry": {"type": "Point", "coordinates": [121.55514, 25.05862]}}, {"type": "Feature", "properties": {"name": "臺北市藝文推廣處", "address": "北寧路34號 對側(鄰近台北田徑場)", "district": "松山區", "slots": "16", "type": "electric_bike_sharing", "city": "taipei"}, "geometry": {"type": "Point", "coordinates": [121.55261, 25.049408]}}, {"type": "Feature", "properties": {"name": "象山公園", "address": "松仁路153巷17號對面(鄰近象山步道)", "district": "信義區", "slots": "14", "type": "electric_bike_sharing", "city": "taipei"}, "geometry": {"type": "Point", "coordinates": [121.56981, 25.02863]}}, {"type": "Feature", "properties": {"name": "民生敦化路口", "address": "敦化民生路口公車站旁", "district": "松山區", "slots": "14", "type": "electric_bike_sharing", "city": "taipei"}, "geometry": {"type": "Point", "coordinates": [121.548982, 25.057985]}}, {"type": "Feature", "properties": {"name": "松山車站", "address": "松山車站西出口外自行車格內(鄰近饒河街夜市/五分埔)", "district": "信義區", "slots": "8", "type": "electric_bike_sharing", "city": "taipei"}, "geometry": {"type": "Point", "coordinates": [121.57845, 25.048824]}}, {"type": "Feature", "properties": {"name": "信義建國路口", "address": "信義路三段/建國南路二段(西南側)(鄰近大安森林公園)", "district": "大安區", "slots": "12", "type": "electric_bike_sharing", "city": "taipei"}, "geometry": {"type": "Point", "coordinates": [121.53747, 25.03293]}}, {"type": "Feature", "properties": {"name": "永吉松信路口", "address": "松信路/永吉路南西側人行道", "district": "信義區", "slots": "12", "type": "electric_bike_sharing", "city": "taipei"}, "geometry": {"type": "Point", "coordinates": [121.57205, 25.04543]}}, {"type": "Feature", "properties": {"name": "捷運昆陽站(1號出口)", "address": "捷運昆陽站1號出口外停車場旁", "district": "南港區", "slots": "14", "type": "electric_bike_sharing", "city": "taipei"}, "geometry": {"type": "Point", "coordinates": [121.592375, 25.050142]}}, {"type": "Feature", "properties": {"name": "捷運南港展覽館站(5號出口)", "address": "捷運南港展覽館站（5號出口）南側", "district": "南港區", "slots": "18", "type": "electric_bike_sharing", "city": "taipei"}, "geometry": {"type": "Point", "coordinates": [121.61669, 25.05469]}}, {"type": "Feature", "properties": {"name": "五常公園", "address": "松隆路/虎林街30巷口(西南側)", "district": "信義區", "slots": "14", "type": "electric_bike_sharing", "city": "taipei"}, "geometry": {"type": "Point", "coordinates": [121.57467, 25.04814]}}, {"type": "Feature", "properties": {"name": "金山愛國路口", "address": "愛國東路/金山南路(西南側)", "district": "大安區", "slots": "22", "type": "electric_bike_sharing", "city": "taipei"}, "geometry": {"type": "Point", "coordinates": [121.52655, 25.03164]}}, {"type": "Feature", "properties": {"name": "基隆長興路口", "address": "基隆路/長興街(東南側)", "district": "大安區", "slots": "26", "type": "electric_bike_sharing", "city": "taipei"}, "geometry": {"type": "Point", "coordinates": [121.544352, 25.017054]}}, {"type": "Feature", "properties": {"name": "辛亥新生路口", "address": "辛亥路/新生南路(高架橋下)", "district": "大安區", "slots": "10", "type": "electric_bike_sharing", "city": "taipei"}, "geometry": {"type": "Point", "coordinates": [121.53456, 25.022413]}}, {"type": "Feature", "properties": {"name": "捷運六張犁站", "address": "捷運出口外和平東路側", "district": "大安區", "slots": "8", "type": "electric_bike_sharing", "city": "taipei"}, "geometry": {"type": "Point", "coordinates": [121.553161, 25.023884]}}, {"type": "Feature", "properties": {"name": "中崙高中", "address": "八德路四段91巷(中崙高中)旁(鄰近京華城/中保寶貝城(BabyBoss City))", "district": "松山區", "slots": "22", "type": "electric_bike_sharing", "city": "taipei"}, "geometry": {"type": "Point", "coordinates": [121.56087, 25.04878]}}, {"type": "Feature", "properties": {"name": "捷運行天宮站(1號出口)", "address": "捷運行天宮1號出口後方(松江路側)", "district": "中山區", "slots": "20", "type": "electric_bike_sharing", "city": "taipei"}, "geometry": {"type": "Point", "coordinates": [121.532934, 25.058369]}}, {"type": "Feature", "properties": {"name": "捷運行天宮站(3號出口)", "address": "捷運行天宮站3號出口站外", "district": "中山區", "slots": "8", "type": "electric_bike_sharing", "city": "taipei"}, "geometry": {"type": "Point", "coordinates": [121.533302, 25.059978]}}, {"type": "Feature", "properties": {"name": "臺大資訊大樓", "address": "辛亥路二段(臺大外語學院外)", "district": "大安區", "slots": "32", "type": "electric_bike_sharing", "city": "taipei"}, "geometry": {"type": "Point", "coordinates": [121.54153, 25.02101]}}, {"type": "Feature", "properties": {"name": "南港世貿公園", "address": "三重路/經貿二路88巷(東北側)", "district": "南港區", "slots": "10", "type": "electric_bike_sharing", "city": "taipei"}, "geometry": {"type": "Point", "coordinates": [121.61422, 25.058]}}, {"type": "Feature", "properties": {"name": "玉成公園", "address": "玉成街247號前", "district": "南港區", "slots": "16", "type": "electric_bike_sharing", "city": "taipei"}, "geometry": {"type": "Point", "coordinates": [121.5864, 25.04287]}}, {"type": "Feature", "properties": {"name": "中研公園", "address": "研究院路二段12巷/研究院路二段12巷58弄(西南側)", "district": "南港區", "slots": "20", "type": "electric_bike_sharing", "city": "taipei"}, "geometry": {"type": "Point", "coordinates": [121.613706, 25.047425]}}, {"type": "Feature", "properties": {"name": "捷運後山埤站(1號出口)", "address": "中坡北路/忠孝東路五段(西北側)", "district": "信義區", "slots": "16", "type": "electric_bike_sharing", "city": "taipei"}, "geometry": {"type": "Point", "coordinates": [121.58174, 25.04431]}}, {"type": "Feature", "properties": {"name": "凌雲市場", "address": "研究院路三段68巷/凌雲街(東北側)", "district": "南港區", "slots": "24", "type": "electric_bike_sharing", "city": "taipei"}, "geometry": {"type": "Point", "coordinates": [121.614154, 25.035639]}}, {"type": "Feature", "properties": {"name": "捷運南港軟體園區站(2號出口)", "address": "捷運南港軟體園區站2號出口外", "district": "南港區", "slots": "22", "type": "electric_bike_sharing", "city": "taipei"}, "geometry": {"type": "Point", "coordinates": [121.616187, 25.05973]}}, {"type": "Feature", "properties": {"name": "捷運公館站(2號出口)", "address": "羅斯福路四段/舟山路(東北側)(鄰近公館夜市)", "district": "大安區", "slots": "30", "type": "electric_bike_sharing", "city": "taipei"}, "geometry": {"type": "Point", "coordinates": [121.534538, 25.01476]}}, {"type": "Feature", "properties": {"name": "南港國小", "address": "惠民街/興東街(南側停車場)", "district": "南港區", "slots": "18", "type": "electric_bike_sharing", "city": "taipei"}, "geometry": {"type": "Point", "coordinates": [121.611389, 25.056504]}}, {"type": "Feature", "properties": {"name": "捷運忠孝新生站(4號出口)", "address": "忠孝東路三段 / 新生南路一段口 東北側(鄰近國立台北科技大學)", "district": "大安區", "slots": "32", "type": "electric_bike_sharing", "city": "taipei"}, "geometry": {"type": "Point", "coordinates": [121.533939, 25.042275]}}, {"type": "Feature", "properties": {"name": "南港車站(忠孝東路)", "address": "忠孝東路七段與忠孝東路七段415巷交叉口(鄰近南港高鐵站)", "district": "南港區", "slots": "18", "type": "electric_bike_sharing", "city": "taipei"}, "geometry": {"type": "Point", "coordinates": [121.608202, 25.05247]}}, {"type": "Feature", "properties": {"name": "龍門廣場", "address": "忠孝東路/敦化南路(西南側廣場）(鄰近東區地下街)", "district": "大安區", "slots": "20", "type": "electric_bike_sharing", "city": "taipei"}, "geometry": {"type": "Point", "coordinates": [121.548252, 25.040901]}}, {"type": "Feature", "properties": {"name": "民權運動公園", "address": "民權東路四段/新中街交叉口", "district": "松山區", "slots": "32", "type": "electric_bike_sharing", "city": "taipei"}, "geometry": {"type": "Point", "coordinates": [121.560186, 25.062002]}}, {"type": "Feature", "properties": {"name": "建國農安街口", "address": "建國北路/農安街口(中油旁邊空地)(鄰近榮星公園(原榮星花園))", "district": "中山區", "slots": "16", "type": "electric_bike_sharing", "city": "taipei"}, "geometry": {"type": "Point", "coordinates": [121.536775, 25.065031]}}, {"type": "Feature", "properties": {"name": "建國長春路口", "address": "建國北路/長春路口(北側)", "district": "中山區", "slots": "12", "type": "electric_bike_sharing", "city": "taipei"}, "geometry": {"type": "Point", "coordinates": [121.536925, 25.054761]}}, {"type": "Feature", "properties": {"name": "八德市場", "address": "建國南路一段/市民大道交叉口(北側) (鄰近國立台北科技大學)", "district": "中山區", "slots": "10", "type": "electric_bike_sharing", "city": "taipei"}, "geometry": {"type": "Point", "coordinates": [121.536609, 25.044781]}}, {"type": "Feature", "properties": {"name": "臺北市立圖書館(總館)", "address": "建國南路二段/建國南路二段151巷(東北側)", "district": "大安區", "slots": "16", "type": "electric_bike_sharing", "city": "taipei"}, "geometry": {"type": "Point", "coordinates": [121.538073, 25.028798]}}, {"type": "Feature", "properties": {"name": "臺北田徑場", "address": "敦化北路3號(鄰近臺北小巨蛋/台北田徑場)", "district": "松山區", "slots": "22", "type": "electric_bike_sharing", "city": "taipei"}, "geometry": {"type": "Point", "coordinates": [121.549408, 25.049505]}}, {"type": "Feature", "properties": {"name": "仁愛林森路口", "address": "林森南路/仁愛路一段路口(東北側)(鄰近臺北市青少年發展處/中正親子館)", "district": "中正區", "slots": "22", "type": "electric_bike_sharing", "city": "taipei"}, "geometry": {"type": "Point", "coordinates": [121.522334, 25.038954]}}, {"type": "Feature", "properties": {"name": "新生和平路口", "address": "新生南路二段/和平東路二段(東北側)", "district": "大安區", "slots": "16", "type": "electric_bike_sharing", "city": "taipei"}, "geometry": {"type": "Point", "coordinates": [121.53519, 25.026217]}}, {"type": "Feature", "properties": {"name": "捷運善導寺站(1號出口)", "address": "天津街/忠孝東路一段(東北側)(鄰近台北國際藝術村/蝴蝶宮昆蟲博物館/台北希望廣場)", "district": "中正區", "slots": "12", "type": "electric_bike_sharing", "city": "taipei"}, "geometry": {"type": "Point", "coordinates": [121.5222, 25.045267]}}, {"type": "Feature", "properties": {"name": "林森公園", "address": "林森北路/南京東路一段(鄰近林森公園/康樂公園)", "district": "中山區", "slots": "12", "type": "electric_bike_sharing", "city": "taipei"}, "geometry": {"type": "Point", "coordinates": [121.525805, 25.052227]}}, {"type": "Feature", "properties": {"name": "中山行政中心", "address": "松江路/農安街口(鄰近行天宮)", "district": "中山區", "slots": "10", "type": "electric_bike_sharing", "city": "taipei"}, "geometry": {"type": "Point", "coordinates": [121.533487, 25.064317]}}, {"type": "Feature", "properties": {"name": "台灣科技大學", "address": "基隆路四段/基隆路四段73巷交叉口(鄰近國立台灣科技大學)", "district": "大安區", "slots": "20", "type": "electric_bike_sharing", "city": "taipei"}, "geometry": {"type": "Point", "coordinates": [121.539723, 25.0131]}}, {"type": "Feature", "properties": {"name": "南昌公園", "address": "和平西路一段/南昌路", "district": "中正區", "slots": "14", "type": "electric_bike_sharing", "city": "taipei"}, "geometry": {"type": "Point", "coordinates": [121.520258, 25.026827]}}, {"type": "Feature", "properties": {"name": "仁愛醫院", "address": "大安路一段/仁愛路四段", "district": "大安區", "slots": "8", "type": "electric_bike_sharing", "city": "taipei"}, "geometry": {"type": "Point", "coordinates": [121.545632, 25.037569]}}, {"type": "Feature", "properties": {"name": "國家圖書館", "address": "中山南路/貴陽街口(西南側)(鄰近台北賓館)", "district": "中正區", "slots": "14", "type": "electric_bike_sharing", "city": "taipei"}, "geometry": {"type": "Point", "coordinates": [121.517029, 25.037773]}}, {"type": "Feature", "properties": {"name": "青年公園3號出口", "address": "青年路/青年路106巷(東側)(鄰近青年公園)", "district": "萬華區", "slots": "18", "type": "electric_bike_sharing", "city": "taipei"}, "geometry": {"type": "Point", "coordinates": [121.502708, 25.022725]}}, {"type": "Feature", "properties": {"name": "師範大學公館校區", "address": "師大公館校區校門口(汀州路側)", "district": "文山區", "slots": "20", "type": "electric_bike_sharing", "city": "taipei"}, "geometry": {"type": "Point", "coordinates": [121.537188, 25.007528]}}, {"type": "Feature", "properties": {"name": "捷運臺大醫院(4號出口)", "address": "公園路/襄陽路(西南側)(鄰近二二八和平紀念公園/國立臺灣博物館/台北賓館)", "district": "中正區", "slots": "20", "type": "electric_bike_sharing", "city": "taipei"}, "geometry": {"type": "Point", "coordinates": [121.516428, 25.042973]}}, {"type": "Feature", "properties": {"name": "國興青年路口", "address": "國興路/青年路(西南側)(鄰近萬華親子館)", "district": "萬華區", "slots": "20", "type": "electric_bike_sharing", "city": "taipei"}, "geometry": {"type": "Point", "coordinates": [121.506536, 25.025865]}}, {"type": "Feature", "properties": {"name": "興豐公園", "address": "興隆路二段123巷/興隆路二段(西北側)", "district": "文山區", "slots": "18", "type": "electric_bike_sharing", "city": "taipei"}, "geometry": {"type": "Point", "coordinates": [121.547778, 24.999837]}}, {"type": "Feature", "properties": {"name": "捷運台北101/世貿站", "address": "莊敬路/信義路五段(東南側)(鄰近台北世界貿易中心(世貿)/台北國際會議中心/信義公民會館(四四南村)/信義親子館)", "district": "信義區", "slots": "12", "type": "electric_bike_sharing", "city": "taipei"}, "geometry": {"type": "Point", "coordinates": [121.561645, 25.032752]}}, {"type": "Feature", "properties": {"name": "捷運信義安和站(4號出口)", "address": "通化街/信義路四段(西南側)(鄰近臨江街夜市(通化夜市)/大安親子館)", "district": "大安區", "slots": "12", "type": "electric_bike_sharing", "city": "taipei"}, "geometry": {"type": "Point", "coordinates": [121.554204, 25.032985]}}, {"type": "Feature", "properties": {"name": "新生長安路口", "address": "新生北路一段/長安東路二段交叉口(北側)", "district": "中山區", "slots": "22", "type": "electric_bike_sharing", "city": "taipei"}, "geometry": {"type": "Point", "coordinates": [121.529346, 25.048611]}}, {"type": "Feature", "properties": {"name": "酒泉延平路口", "address": "延平北路四段/酒泉街(西北側)", "district": "大同區", "slots": "12", "type": "electric_bike_sharing", "city": "taipei"}, "geometry": {"type": "Point", "coordinates": [121.510195, 25.072228]}}, {"type": "Feature", "properties": {"name": "信義連雲街口", "address": "信義路二段/連雲街(東北側)", "district": "中正區", "slots": "10", "type": "electric_bike_sharing", "city": "taipei"}, "geometry": {"type": "Point", "coordinates": [121.530547, 25.033817]}}, {"type": "Feature", "properties": {"name": "基隆光復路口", "address": "基隆路二段/光復南路(東北側)(鄰近通化夜市)", "district": "信義區", "slots": "12", "type": "electric_bike_sharing", "city": "taipei"}, "geometry": {"type": "Point", "coordinates": [121.557635, 25.0300508]}}, {"type": "Feature", "properties": {"name": "新生長春路口", "address": "新生北路二段/新生北路二段68巷交叉口(新生橋下)", "district": "中山區", "slots": "12", "type": "electric_bike_sharing", "city": "taipei"}, "geometry": {"type": "Point", "coordinates": [121.527522, 25.056387]}}, {"type": "Feature", "properties": {"name": "民生活動中心", "address": "民生東路五段/三民路口(西北側)(鄰近松山親子館)", "district": "松山區", "slots": "8", "type": "electric_bike_sharing", "city": "taipei"}, "geometry": {"type": "Point", "coordinates": [121.56297, 25.059147]}}, {"type": "Feature", "properties": {"name": "捷運圓山站(2號出口)", "address": "承德路三段/庫倫街(東南側)(鄰近台北孔廟/花博公園圓山園區/花博圓山公園區-爭艷館/中山親子館)", "district": "大同區", "slots": "12", "type": "electric_bike_sharing", "city": "taipei"}, "geometry": {"type": "Point", "coordinates": [121.519287, 25.071824]}}, {"type": "Feature", "properties": {"name": "捷運民權西路站(3號出口)", "address": "民權西路70巷37號對面", "district": "大同區", "slots": "8", "type": "electric_bike_sharing", "city": "taipei"}, "geometry": {"type": "Point", "coordinates": [121.520205, 25.061285]}}, {"type": "Feature", "properties": {"name": "捷運台電大樓站(2號出口)", "address": "羅斯福路/辛亥路交叉口(古亭國小前)", "district": "大安區", "slots": "8", "type": "electric_bike_sharing", "city": "taipei"}, "geometry": {"type": "Point", "coordinates": [121.528552, 25.020547]}}, {"type": "Feature", "properties": {"name": "捷運西門站(3號出口)", "address": "中華路一段/寶慶路(東南側)(鄰近國軍歷史文物館/中山堂/西門紅樓)", "district": "中正區", "slots": "24", "type": "electric_bike_sharing", "city": "taipei"}, "geometry": {"type": "Point", "coordinates": [121.508693, 25.041778]}}, {"type": "Feature", "properties": {"name": "捷運大安森林公園站", "address": "信義路三段31巷/信義路三段(南側)(鄰近大安森林公園)", "district": "大安區", "slots": "8", "type": "electric_bike_sharing", "city": "taipei"}, "geometry": {"type": "Point", "coordinates": [121.534236, 25.033344]}}, {"type": "Feature", "properties": {"name": "復華花園新城", "address": "西藏路115號/西藏路(東南側)", "district": "萬華區", "slots": "12", "type": "electric_bike_sharing", "city": "taipei"}, "geometry": {"type": "Point", "coordinates": [121.502899, 25.029705]}}, {"type": "Feature", "properties": {"name": "信義敦化路口", "address": "信義路四段/敦化南路一段(東北側)", "district": "大安區", "slots": "10", "type": "electric_bike_sharing", "city": "taipei"}, "geometry": {"type": "Point", "coordinates": [121.54911, 25.033362]}}, {"type": "Feature", "properties": {"name": "民權復興路口", "address": "復興北路/民權東路三段(東北側)", "district": "松山區", "slots": "12", "type": "electric_bike_sharing", "city": "taipei"}, "geometry": {"type": "Point", "coordinates": [121.545138, 25.062344]}}, {"type": "Feature", "properties": {"name": "捷運大安站", "address": "復興南路/信義路三段(西南側)", "district": "大安區", "slots": "10", "type": "electric_bike_sharing", "city": "taipei"}, "geometry": {"type": "Point", "coordinates": [121.543057, 25.033078]}}, {"type": "Feature", "properties": {"name": "捷運象山站", "address": "信義路五段/信義路五段91巷(西北側)", "district": "信義區", "slots": "14", "type": "electric_bike_sharing", "city": "taipei"}, "geometry": {"type": "Point", "coordinates": [121.57087, 25.032922]}}, {"type": "Feature", "properties": {"name": "和平重慶路口", "address": "重慶南路三段/和平西路一段(東北側)", "district": "中正區", "slots": "22", "type": "electric_bike_sharing", "city": "taipei"}, "geometry": {"type": "Point", "coordinates": [121.516385, 25.027323]}}, {"type": "Feature", "properties": {"name": "老松國小", "address": "康定路/桂林路(東南側)(鄰近艋舺龍山寺/艋舺清水巖祖師廟/台北市鄉土教育中心(剝皮寮歷史街區))", "district": "萬華區", "slots": "28", "type": "electric_bike_sharing", "city": "taipei"}, "geometry": {"type": "Point", "coordinates": [121.501708, 25.037783]}}, {"type": "Feature", "properties": {"name": "市立美術館", "address": "中山北路三段/酒泉街(西南側)(鄰近台北市立美術館/花博公園美術園區/台北故事館/花博公園圓山園區/花博圓山公園區-爭艷館/中山親子館)", "district": "中山區", "slots": "18", "type": "electric_bike_sharing", "city": "taipei"}, "geometry": {"type": "Point", "coordinates": [121.523268, 25.070629]}}, {"type": "Feature", "properties": {"name": "開封西寧路口", "address": "開封街二段/西寧南路(東北側)(鄰近西門町)", "district": "萬華區", "slots": "10", "type": "electric_bike_sharing", "city": "taipei"}, "geometry": {"type": "Point", "coordinates": [121.507169, 25.046618]}}, {"type": "Feature", "properties": {"name": "吳興公車總站", "address": "松仁路/吳興街交叉口", "district": "信義區", "slots": "12", "type": "electric_bike_sharing", "city": "taipei"}, "geometry": {"type": "Point", "coordinates": [121.569836, 25.023877]}}, {"type": "Feature", "properties": {"name": "捷運景美站", "address": "羅斯福路六段/景中街交叉口(東北側)(鄰近景美夜市)", "district": "文山區", "slots": "20", "type": "electric_bike_sharing", "city": "taipei"}, "geometry": {"type": "Point", "coordinates": [121.541059, 24.993254]}}, {"type": "Feature", "properties": {"name": "東園國小", "address": "東園街/萬大路344巷(東南側)", "district": "萬華區", "slots": "12", "type": "electric_bike_sharing", "city": "taipei"}, "geometry": {"type": "Point", "coordinates": [121.497679, 25.023393]}}, {"type": "Feature", "properties": {"name": "三民公園", "address": "撫遠街/富錦街(東南側)", "district": "松山區", "slots": "8", "type": "electric_bike_sharing", "city": "taipei"}, "geometry": {"type": "Point", "coordinates": [121.566558, 25.061567]}}, {"type": "Feature", "properties": {"name": "捷運劍潭站(2號出口)", "address": "基河路18號對面(鄰近劍潭公園)", "district": "士林區", "slots": "12", "type": "electric_bike_sharing", "city": "taipei"}, "geometry": {"type": "Point", "coordinates": [121.524721, 25.082825]}}, {"type": "Feature", "properties": {"name": "羅斯福景隆街口", "address": "羅斯福路六段/景隆街交叉口(東南側)", "district": "文山區", "slots": "24", "type": "electric_bike_sharing", "city": "taipei"}, "geometry": {"type": "Point", "coordinates": [121.540197, 24.999378]}}, {"type": "Feature", "properties": {"name": "捷運雙連站(2號出口)", "address": "萬全街16號(對面廣場)", "district": "大同區", "slots": "10", "type": "electric_bike_sharing", "city": "taipei"}, "geometry": {"type": "Point", "coordinates": [121.52059, 25.05821]}}, {"type": "Feature", "properties": {"name": "金山市民路口", "address": "金山北路/市民大道三段(南側)(鄰近華山文化創意產業園區/光華數位新天地(光華商場)/三創生活園區)", "district": "中正區", "slots": "20", "type": "electric_bike_sharing", "city": "taipei"}, "geometry": {"type": "Point", "coordinates": [121.530697, 25.045753]}}, {"type": "Feature", "properties": {"name": "臺北市客家文化主題公園", "address": "師大路/汀州路交叉口(鄰近客家文化主題公園(原兒童交通博物館))", "district": "中正區", "slots": "32", "type": "electric_bike_sharing", "city": "taipei"}, "geometry": {"type": "Point", "coordinates": [121.525322, 25.02043]}}, {"type": "Feature", "properties": {"name": "萬華車站", "address": "艋舺大道83號(對側)", "district": "萬華區", "slots": "22", "type": "electric_bike_sharing", "city": "taipei"}, "geometry": {"type": "Point", "coordinates": [121.503028, 25.033639]}}, {"type": "Feature", "properties": {"name": "台北花木批發市場", "address": "萬盛街/興隆路一段(西北側)", "district": "文山區", "slots": "20", "type": "electric_bike_sharing", "city": "taipei"}, "geometry": {"type": "Point", "coordinates": [121.54074, 25.004023]}}, {"type": "Feature", "properties": {"name": "峨嵋停車場", "address": "昆明街/西寧南路50巷(東南側)(鄰近西門町/台北市電影主題公園/西門紅樓)", "district": "萬華區", "slots": "16", "type": "electric_bike_sharing", "city": "taipei"}, "geometry": {"type": "Point", "coordinates": [121.505409, 25.044412]}}, {"type": "Feature", "properties": {"name": "西園艋舺路口", "address": "西園路二段/艋舺大道(西南側)", "district": "萬華區", "slots": "14", "type": "electric_bike_sharing", "city": "taipei"}, "geometry": {"type": "Point", "coordinates": [121.497674, 25.032932]}}, {"type": "Feature", "properties": {"name": "捷運小南門站(1號出口)", "address": "博愛路/愛國西路交叉口(西北側)", "district": "中正區", "slots": "26", "type": "electric_bike_sharing", "city": "taipei"}, "geometry": {"type": "Point", "coordinates": [121.509422, 25.036402]}}, {"type": "Feature", "properties": {"name": "林安泰古厝", "address": "濱江街5號對面(鄰近林安泰古厝/花博公園新生園區)", "district": "中山區", "slots": "10", "type": "electric_bike_sharing", "city": "taipei"}, "geometry": {"type": "Point", "coordinates": [121.530805, 25.071606]}}, {"type": "Feature", "properties": {"name": "文湖國小", "address": "文湖街21巷/文湖街(東北側)", "district": "內湖區", "slots": "12", "type": "electric_bike_sharing", "city": "taipei"}, "geometry": {"type": "Point", "coordinates": [121.560888, 25.086376]}}, {"type": "Feature", "properties": {"name": "捷運忠孝復興站(2號出口)", "address": "復興南路一段/仁愛路三段123巷13弄(西北側)", "district": "大安區", "slots": "18", "type": "electric_bike_sharing", "city": "taipei"}, "geometry": {"type": "Point", "coordinates": [121.543497, 25.040184]}}, {"type": "Feature", "properties": {"name": "捷運新北投站", "address": "大業路/中和街交叉口(鄰近凱達格蘭文化館/北投復興公園)", "district": "北投區", "slots": "16", "type": "electric_bike_sharing", "city": "taipei"}, "geometry": {"type": "Point", "coordinates": [121.503124, 25.137456]}}, {"type": "Feature", "properties": {"name": "仁愛逸仙路口", "address": "仁愛路四段/逸仙路(西北側)(鄰近國父紀念館/台北探索館)", "district": "信義區", "slots": "8", "type": "electric_bike_sharing", "city": "taipei"}, "geometry": {"type": "Point", "coordinates": [121.561178, 25.037724]}}, {"type": "Feature", "properties": {"name": "蘭雅公園", "address": "忠誠路二段/忠誠路二段40巷(西南側)", "district": "士林區", "slots": "10", "type": "electric_bike_sharing", "city": "taipei"}, "geometry": {"type": "Point", "coordinates": [121.530386, 25.109908]}}, {"type": "Feature", "properties": {"name": "臺北轉運站", "address": "中山北路一段/市民大道一段(西北側)(鄰近台北當代藝術館/台北轉運站(京站時尚廣場)/國父史蹟紀念館(逸仙公園)/台北國際藝術村)", "district": "中正區", "slots": "22", "type": "electric_bike_sharing", "city": "taipei"}, "geometry": {"type": "Point", "coordinates": [121.520526, 25.048222]}}, {"type": "Feature", "properties": {"name": "福林公園", "address": "志成街/中正路(南側)(鄰近志成公園/福林公園)", "district": "士林區", "slots": "14", "type": "electric_bike_sharing", "city": "taipei"}, "geometry": {"type": "Point", "coordinates": [121.530215, 25.096122]}}, {"type": "Feature", "properties": {"name": "捷運北投站", "address": "光明路2巷/光明路交叉口(鄰近北投親子館)", "district": "北投區", "slots": "26", "type": "electric_bike_sharing", "city": "taipei"}, "geometry": {"type": "Point", "coordinates": [121.498618, 25.132581]}}, {"type": "Feature", "properties": {"name": "大業大同街口", "address": "大業路/大同街口", "district": "北投區", "slots": "14", "type": "electric_bike_sharing", "city": "taipei"}, "geometry": {"type": "Point", "coordinates": [121.499152, 25.136929]}}, {"type": "Feature", "properties": {"name": "捷運劍南路站(2號出口)", "address": "敬業二路/植福路(東北側)(鄰近美麗華百樂園/劍潭古寺)", "district": "中山區", "slots": "10", "type": "electric_bike_sharing", "city": "taipei"}, "geometry": {"type": "Point", "coordinates": [121.555116, 25.08418]}}, {"type": "Feature", "properties": {"name": "捷運龍山寺站(1號出口)", "address": "和平西路三段/和平西路三段109巷(西北側)(鄰近艋舺龍山寺/艋舺夜市(萬華夜市))", "district": "萬華區", "slots": "14", "type": "electric_bike_sharing", "city": "taipei"}, "geometry": {"type": "Point", "coordinates": [121.50026, 25.035479]}}, {"type": "Feature", "properties": {"name": "捷運港墘站(2號出口)", "address": "內湖路一段/港墘路(東南側)", "district": "內湖區", "slots": "12", "type": "electric_bike_sharing", "city": "taipei"}, "geometry": {"type": "Point", "coordinates": [121.57584, 25.079666]}}, {"type": "Feature", "properties": {"name": "天母運動公園", "address": "忠誠路二段/忠誠路二段207巷(東南側)", "district": "士林區", "slots": "32", "type": "electric_bike_sharing", "city": "taipei"}, "geometry": {"type": "Point", "coordinates": [121.534136, 25.116325]}}, {"type": "Feature", "properties": {"name": "華西公園", "address": "華西街/桂林路(東北側)(鄰近艋舺龍山寺/華西街夜市/艋舺青山宮/艋舺夜市(萬華夜市))", "district": "萬華區", "slots": "14", "type": "electric_bike_sharing", "city": "taipei"}, "geometry": {"type": "Point", "coordinates": [121.498495, 25.038609]}}, {"type": "Feature", "properties": {"name": "敦化基隆路口", "address": "敦化南路二段/基隆路二段交叉口", "district": "大安區", "slots": "14", "type": "electric_bike_sharing", "city": "taipei"}, "geometry": {"type": "Point", "coordinates": [121.548336, 25.022073]}}, {"type": "Feature", "properties": {"name": "東湖國中", "address": "康樂街/康樂街125巷(東南側)", "district": "內湖區", "slots": "18", "type": "electric_bike_sharing", "city": "taipei"}, "geometry": {"type": "Point", "coordinates": [121.619521, 25.073277]}}, {"type": "Feature", "properties": {"name": "成功國宅", "address": "四維路198巷/和平東路三段1巷", "district": "大安區", "slots": "8", "type": "electric_bike_sharing", "city": "taipei"}, "geometry": {"type": "Point", "coordinates": [121.546726, 25.026808]}}, {"type": "Feature", "properties": {"name": "捷運文德站(2號出口)", "address": "文德路220巷/文德路(西南側)", "district": "內湖區", "slots": "10", "type": "electric_bike_sharing", "city": "taipei"}, "geometry": {"type": "Point", "coordinates": [121.58456, 25.078424]}}, {"type": "Feature", "properties": {"name": "羅斯福寧波東街口", "address": "羅斯福路一段/寧波東街(東南側)(鄰近愛國東路婚紗街)", "district": "中正區", "slots": "10", "type": "electric_bike_sharing", "city": "taipei"}, "geometry": {"type": "Point", "coordinates": [121.519411, 25.031445]}}, {"type": "Feature", "properties": {"name": "洲子二號公園", "address": "瑞光路500號對面", "district": "內湖區", "slots": "20", "type": "electric_bike_sharing", "city": "taipei"}, "geometry": {"type": "Point", "coordinates": [121.568688, 25.079322]}}, {"type": "Feature", "properties": {"name": "蘭興公園", "address": "中山北路六段/士東路(西北側)", "district": "士林區", "slots": "8", "type": "electric_bike_sharing", "city": "taipei"}, "geometry": {"type": "Point", "coordinates": [121.525888, 25.111839]}}, {"type": "Feature", "properties": {"name": "捷運芝山站(2號出口)", "address": "福華路/福華路162巷(東南側)", "district": "士林區", "slots": "10", "type": "electric_bike_sharing", "city": "taipei"}, "geometry": {"type": "Point", "coordinates": [121.522629, 25.10336]}}, {"type": "Feature", "properties": {"name": "捷運石牌站(2號出口)", "address": "東華街一段/裕民二路(西側)", "district": "北投區", "slots": "10", "type": "electric_bike_sharing", "city": "taipei"}, "geometry": {"type": "Point", "coordinates": [121.515677, 25.114513]}}, {"type": "Feature", "properties": {"name": "國立臺北護理健康大學", "address": "石牌路二段100號(北側)", "district": "北投區", "slots": "16", "type": "electric_bike_sharing", "city": "taipei"}, "geometry": {"type": "Point", "coordinates": [121.51668, 25.117457]}}, {"type": "Feature", "properties": {"name": "國防大學", "address": "中央北路二段/豐年路二段交叉口", "district": "北投區", "slots": "10", "type": "electric_bike_sharing", "city": "taipei"}, "geometry": {"type": "Point", "coordinates": [121.493066, 25.137976]}}, {"type": "Feature", "properties": {"name": "捷運永春站(2號出口)", "address": "忠孝東路五段420號旁(東側巷道上)", "district": "信義區", "slots": "12", "type": "electric_bike_sharing", "city": "taipei"}, "geometry": {"type": "Point", "coordinates": [121.575372, 25.040558]}}, {"type": "Feature", "properties": {"name": "永樂市場", "address": "民樂街/南京西路233巷(西北側)(鄰近迪化街/永樂市場(永樂布業商場)/霞海城隍廟)", "district": "大同區", "slots": "16", "type": "electric_bike_sharing", "city": "taipei"}, "geometry": {"type": "Point", "coordinates": [121.510549, 25.054501]}}, {"type": "Feature", "properties": {"name": "捷運大橋頭站(2號出口)", "address": "民權西路/重慶北路三段(東北側)(鄰近延三夜市(大橋頭夜市))", "district": "大同區", "slots": "8", "type": "electric_bike_sharing", "city": "taipei"}, "geometry": {"type": "Point", "coordinates": [121.512909, 25.063404]}}, {"type": "Feature", "properties": {"name": "文山行政中心", "address": "木柵路三段220號前", "district": "文山區", "slots": "10", "type": "electric_bike_sharing", "city": "taipei"}, "geometry": {"type": "Point", "coordinates": [121.569984, 24.989902]}}, {"type": "Feature", "properties": {"name": "捷運木柵站", "address": "木柵路四段82巷18號前(捷運橋樑下)", "district": "文山區", "slots": "20", "type": "electric_bike_sharing", "city": "taipei"}, "geometry": {"type": "Point", "coordinates": [121.57444, 24.997996]}}, {"type": "Feature", "properties": {"name": "捷運動物園站(2號出口)", "address": "新光路二段28號前(鄰近台北市立動物園(木柵動物園))", "district": "文山區", "slots": "46", "type": "electric_bike_sharing", "city": "taipei"}, "geometry": {"type": "Point", "coordinates": [121.578752, 24.997659]}}, {"type": "Feature", "properties": {"name": "樹德公園", "address": "大龍街/大龍街85巷(東北側)", "district": "大同區", "slots": "18", "type": "electric_bike_sharing", "city": "taipei"}, "geometry": {"type": "Point", "coordinates": [121.516149, 25.066688]}}, {"type": "Feature", "properties": {"name": "士林運動中心", "address": "承德路四段/大南路(東北側)", "district": "士林區", "slots": "20", "type": "electric_bike_sharing", "city": "taipei"}, "geometry": {"type": "Point", "coordinates": [121.521814, 25.089175]}}, {"type": "Feature", "properties": {"name": "捷運明德站", "address": "致遠一路一段46巷/西安街一段(東南側)", "district": "北投區", "slots": "16", "type": "electric_bike_sharing", "city": "taipei"}, "geometry": {"type": "Point", "coordinates": [121.518316, 25.110331]}}, {"type": "Feature", "properties": {"name": "北投運動中心", "address": "石牌路一段39巷100號前", "district": "北投區", "slots": "26", "type": "electric_bike_sharing", "city": "taipei"}, "geometry": {"type": "Point", "coordinates": [121.509621, 25.116665]}}, {"type": "Feature", "properties": {"name": "松德公園", "address": "松德路168巷20號前", "district": "信義區", "slots": "10", "type": "electric_bike_sharing", "city": "taipei"}, "geometry": {"type": "Point", "coordinates": [121.57343, 25.036568]}}, {"type": "Feature", "properties": {"name": "考試院", "address": "試院路(雙號)/木柵路一段(東北側)(鄰近文山親子館)", "district": "文山區", "slots": "12", "type": "electric_bike_sharing", "city": "taipei"}, "geometry": {"type": "Point", "coordinates": [121.549827, 24.987507]}}, {"type": "Feature", "properties": {"name": "百齡國小", "address": "前港街100巷/前港街(北方)", "district": "士林區", "slots": "12", "type": "electric_bike_sharing", "city": "taipei"}, "geometry": {"type": "Point", "coordinates": [121.519175, 25.08521]}}, {"type": "Feature", "properties": {"name": "蔣渭水紀念公園", "address": "錦西街51號對面", "district": "大同區", "slots": "16", "type": "electric_bike_sharing", "city": "taipei"}, "geometry": {"type": "Point", "coordinates": [121.516299, 25.059885]}}, {"type": "Feature", "properties": {"name": "中正基河路口", "address": "中正路420號前(鄰近台北市立天文科學教育館)", "district": "士林區", "slots": "8", "type": "electric_bike_sharing", "city": "taipei"}, "geometry": {"type": "Point", "coordinates": [121.519867, 25.093396]}}, {"type": "Feature", "properties": {"name": "瑞光港墘路口", "address": "瑞光路/港墘路(西南側)", "district": "內湖區", "slots": "18", "type": "electric_bike_sharing", "city": "taipei"}, "geometry": {"type": "Point", "coordinates": [121.57505, 25.076193]}}, {"type": "Feature", "properties": {"name": "東湖國小", "address": "東湖路/東湖路119巷(西北側)", "district": "內湖區", "slots": "16", "type": "electric_bike_sharing", "city": "taipei"}, "geometry": {"type": "Point", "coordinates": [121.61538, 25.06853]}}, {"type": "Feature", "properties": {"name": "麗山國小", "address": "內湖路一段411巷/內湖路一段411巷19弄(東北側)", "district": "內湖區", "slots": "26", "type": "electric_bike_sharing", "city": "taipei"}, "geometry": {"type": "Point", "coordinates": [121.571467, 25.082703]}}, {"type": "Feature", "properties": {"name": "捷運東湖站", "address": "安康路315巷/五分街14巷(西側)", "district": "內湖區", "slots": "18", "type": "electric_bike_sharing", "city": "taipei"}, "geometry": {"type": "Point", "coordinates": [121.61355, 25.067026]}}, {"type": "Feature", "properties": {"name": "捷運西湖站(1號出口)", "address": "環山路一段9巷/內湖路一段285巷(西南側)", "district": "內湖區", "slots": "36", "type": "electric_bike_sharing", "city": "taipei"}, "geometry": {"type": "Point", "coordinates": [121.566695, 25.082866]}}, {"type": "Feature", "properties": {"name": "大豐公園", "address": "磺港路/大興街(東北側)", "district": "北投區", "slots": "16", "type": "electric_bike_sharing", "city": "taipei"}, "geometry": {"type": "Point", "coordinates": [121.503768, 25.131143]}}, {"type": "Feature", "properties": {"name": "捷運中山國小站(4號出口)", "address": "民權東路一段/新生北路三段(北側)(新生高架橋下)", "district": "中山區", "slots": "44", "type": "electric_bike_sharing", "city": "taipei"}, "geometry": {"type": "Point", "coordinates": [121.52772, 25.062924]}}, {"type": "Feature", "properties": {"name": "捷運麟光站", "address": "和平東路三段/和平東路三段416巷(捷運高架橋下)(鄰近富陽自然生態公園)", "district": "大安區", "slots": "72", "type": "electric_bike_sharing", "city": "taipei"}, "geometry": {"type": "Point", "coordinates": [121.559279, 25.018097]}}, {"type": "Feature", "properties": {"name": "捷運奇岩站", "address": "北投路一段/三合街二段(東北側)", "district": "北投區", "slots": "28", "type": "electric_bike_sharing", "city": "taipei"}, "geometry": {"type": "Point", "coordinates": [121.500801, 25.126286]}}, {"type": "Feature", "properties": {"name": "捷運唭哩岸站(2號出口)", "address": "西安街二段/立農街一段257巷(鄰近慈生宮)", "district": "北投區", "slots": "12", "type": "electric_bike_sharing", "city": "taipei"}, "geometry": {"type": "Point", "coordinates": [121.505693, 25.120788]}}, {"type": "Feature", "properties": {"name": "臺北市立景美女中", "address": "木新路三段/一壽街(西北側)", "district": "文山區", "slots": "10", "type": "electric_bike_sharing", "city": "taipei"}, "geometry": {"type": "Point", "coordinates": [121.556177, 24.980602]}}, {"type": "Feature", "properties": {"name": "臺北市立天文館", "address": "基河路363號前(鄰近台北市立天文科學教育館/國立台灣科學教育館)", "district": "士林區", "slots": "22", "type": "electric_bike_sharing", "city": "taipei"}, "geometry": {"type": "Point", "coordinates": [121.518046, 25.095714]}}, {"type": "Feature", "properties": {"name": "河堤國小", "address": "金門街12巷23弄1號旁", "district": "中正區", "slots": "16", "type": "electric_bike_sharing", "city": "taipei"}, "geometry": {"type": "Point", "coordinates": [121.522855, 25.02288]}}, {"type": "Feature", "properties": {"name": "植物園", "address": "和平西路二段100號前(鄰近台北植物園/國立歷史博物館/131 Fun心玩親子館)", "district": "中正區", "slots": "22", "type": "electric_bike_sharing", "city": "taipei"}, "geometry": {"type": "Point", "coordinates": [121.509813, 25.030015]}}, {"type": "Feature", "properties": {"name": "新東公園", "address": "民生東路五段/塔悠路(西南側)", "district": "松山區", "slots": "24", "type": "electric_bike_sharing", "city": "taipei"}, "geometry": {"type": "Point", "coordinates": [121.568883, 25.059245]}}, {"type": "Feature", "properties": {"name": "文山運動中心", "address": "興隆路三段/興隆路三段192巷8弄", "district": "文山區", "slots": "22", "type": "electric_bike_sharing", "city": "taipei"}, "geometry": {"type": "Point", "coordinates": [121.559651, 24.996842]}}, {"type": "Feature", "properties": {"name": "捷運南京三民站(1號出口)", "address": "南京東路五段/三民路(西北側)", "district": "松山區", "slots": "10", "type": "electric_bike_sharing", "city": "taipei"}, "geometry": {"type": "Point", "coordinates": [121.562891, 25.051562]}}, {"type": "Feature", "properties": {"name": "捷運松江南京站(7號出口)", "address": "松江路/南京東路二段(東北側)(鄰近四平陽光商圈)", "district": "中山區", "slots": "14", "type": "electric_bike_sharing", "city": "taipei"}, "geometry": {"type": "Point", "coordinates": [121.533211, 25.052181]}}, {"type": "Feature", "properties": {"name": "捷運南京復興站(5號出口)", "address": "南京東路三段/南京東路三段256巷(東南側)", "district": "松山區", "slots": "12", "type": "electric_bike_sharing", "city": "taipei"}, "geometry": {"type": "Point", "coordinates": [121.544847, 25.051618]}}, {"type": "Feature", "properties": {"name": "興安華城", "address": "興安街/遼寧街", "district": "中山區", "slots": "24", "type": "electric_bike_sharing", "city": "taipei"}, "geometry": {"type": "Point", "coordinates": [121.542318, 25.055997]}}, {"type": "Feature", "properties": {"name": "葫蘆國小", "address": "環河北路三段/葫蘆街(東北側)", "district": "士林區", "slots": "34", "type": "electric_bike_sharing", "city": "taipei"}, "geometry": {"type": "Point", "coordinates": [121.507495, 25.082538]}}, {"type": "Feature", "properties": {"name": "延平國宅", "address": "延平北路五段一巷40號前", "district": "士林區", "slots": "14", "type": "electric_bike_sharing", "city": "taipei"}, "geometry": {"type": "Point", "coordinates": [121.510306, 25.078908]}}, {"type": "Feature", "properties": {"name": "南港公園", "address": "福德街383號對面(南港公園出口前)", "district": "南港區", "slots": "24", "type": "electric_bike_sharing", "city": "taipei"}, "geometry": {"type": "Point", "coordinates": [121.59073, 25.041355]}}, {"type": "Feature", "properties": {"name": "福華商場", "address": "民權東路六段/民權東路六段180巷(石潭平面停車場內)(鄰近防災科學教育館)", "district": "內湖區", "slots": "20", "type": "electric_bike_sharing", "city": "taipei"}, "geometry": {"type": "Point", "coordinates": [121.592654, 25.06877]}}, {"type": "Feature", "properties": {"name": "建國和平路口", "address": "建國南路二段/和平東路二段(西北側)", "district": "大安區", "slots": "10", "type": "electric_bike_sharing", "city": "taipei"}, "geometry": {"type": "Point", "coordinates": [121.537383, 25.02585]}}, {"type": "Feature", "properties": {"name": "捷運古亭站(2號出口)", "address": "羅斯福路二段/羅斯福路二段174巷(捷運古亭站2號出口前)", "district": "中正區", "slots": "14", "type": "electric_bike_sharing", "city": "taipei"}, "geometry": {"type": "Point", "coordinates": [121.523537, 25.0253]}}, {"type": "Feature", "properties": {"name": "圓環站", "address": "南京西路/重慶北路一段(西南側)(鄰近寧夏夜市)", "district": "大同區", "slots": "8", "type": "electric_bike_sharing", "city": "taipei"}, "geometry": {"type": "Point", "coordinates": [121.514179, 25.05379]}}, {"type": "Feature", "properties": {"name": "劍潭社區", "address": "通北街143號前", "district": "中山區", "slots": "24", "type": "electric_bike_sharing", "city": "taipei"}, "geometry": {"type": "Point", "coordinates": [121.537892, 25.084759]}}, {"type": "Feature", "properties": {"name": "臺北市立大學", "address": "愛國西路/公園路(西北側)(鄰近台北市立教育大學)", "district": "中正區", "slots": "72", "type": "electric_bike_sharing", "city": "taipei"}, "geometry": {"type": "Point", "coordinates": [121.514218, 25.035414]}}, {"type": "Feature", "properties": {"name": "仁愛延吉街口", "address": "仁愛路四段/延吉街(東南側)(鄰近大安親子館)", "district": "大安區", "slots": "10", "type": "electric_bike_sharing", "city": "taipei"}, "geometry": {"type": "Point", "coordinates": [121.555769, 25.037465]}}, {"type": "Feature", "properties": {"name": "社子國小", "address": "延平北路六段/社中街(社子國小對面跨提便道橋下)", "district": "士林區", "slots": "30", "type": "electric_bike_sharing", "city": "taipei"}, "geometry": {"type": "Point", "coordinates": [121.50189, 25.090293]}}, {"type": "Feature", "properties": {"name": "金瑞公園(金龍路)", "address": "金龍路213巷1弄7號前", "district": "內湖區", "slots": "12", "type": "electric_bike_sharing", "city": "taipei"}, "geometry": {"type": "Point", "coordinates": [121.58781, 25.087987]}}, {"type": "Feature", "properties": {"name": "捷運大直站(3號出口)", "address": "北安路458巷41弄/北安路536巷(捷運大直站3號出口前人行道)", "district": "中山區", "slots": "12", "type": "electric_bike_sharing", "city": "taipei"}, "geometry": {"type": "Point", "coordinates": [121.546683, 25.079278]}}, {"type": "Feature", "properties": {"name": "捷運大湖公園站(2號出口)", "address": "成功路五段/大湖山莊街(大湖公園地下停車場旁)(鄰近大湖公園)", "district": "內湖區", "slots": "24", "type": "electric_bike_sharing", "city": "taipei"}, "geometry": {"type": "Point", "coordinates": [121.60206, 25.083873]}}, {"type": "Feature", "properties": {"name": "捷運葫洲站(1號出口)", "address": "康寧路三段/成功路五段450巷21弄(西北側)(捷運葫洲站1號出口前自行車停放區)", "district": "內湖區", "slots": "12", "type": "electric_bike_sharing", "city": "taipei"}, "geometry": {"type": "Point", "coordinates": [121.607955, 25.072485]}}, {"type": "Feature", "properties": {"name": "舊莊區民活動中心", "address": "舊莊街一段91巷/舊莊街一段91巷12弄(舊莊區民活動中心前)(鄰近胡適公園)", "district": "南港區", "slots": "12", "type": "electric_bike_sharing", "city": "taipei"}, "geometry": {"type": "Point", "coordinates": [121.61935, 25.041277]}}, {"type": "Feature", "properties": {"name": "市民林森路口", "address": "市民大道二段/林森北路(東北側)(鄰近台北國際藝術村/台北希望廣場)", "district": "中山區", "slots": "14", "type": "electric_bike_sharing", "city": "taipei"}, "geometry": {"type": "Point", "coordinates": [121.524388, 25.047958]}}, {"type": "Feature", "properties": {"name": "信義杭州路口(中華電信總公司)", "address": "信義路一段/杭州南路一段(西北側)(鄰近國立中正紀念堂)", "district": "中正區", "slots": "16", "type": "electric_bike_sharing", "city": "taipei"}, "geometry": {"type": "Point", "coordinates": [121.523987, 25.035851]}}, {"type": "Feature", "properties": {"name": "新湖國小", "address": "民權東路六段/成功路二段320巷31弄(東南側)(鄰近防災科學教育館)", "district": "內湖區", "slots": "8", "type": "electric_bike_sharing", "city": "taipei"}, "geometry": {"type": "Point", "coordinates": [121.589233, 25.068744]}}, {"type": "Feature", "properties": {"name": "饒河夜市(八德路側)", "address": "八德路/松信路(西南側)", "district": "松山區", "slots": "18", "type": "electric_bike_sharing", "city": "taipei"}, "geometry": {"type": "Point", "coordinates": [121.571885, 25.049845]}}, {"type": "Feature", "properties": {"name": "東陽公園", "address": "重陽路125巷26號至36-2號對面人行道", "district": "南港區", "slots": "16", "type": "electric_bike_sharing", "city": "taipei"}, "geometry": {"type": "Point", "coordinates": [121.597924, 25.057164]}}, {"type": "Feature", "properties": {"name": "捷運關渡站", "address": "大度路三段270巷/立功街55巷(西南側人行道)", "district": "北投區", "slots": "30", "type": "electric_bike_sharing", "city": "taipei"}, "geometry": {"type": "Point", "coordinates": [121.467336, 25.124646]}}, {"type": "Feature", "properties": {"name": "古亭國中", "address": "中華路二段465號對面人行道(古亭國中)", "district": "萬華區", "slots": "30", "type": "electric_bike_sharing", "city": "taipei"}, "geometry": {"type": "Point", "coordinates": [121.51057, 25.024487]}}, {"type": "Feature", "properties": {"name": "臺北市立大學(天母校區)", "address": "士東路276號至280號對面人行道", "district": "士林區", "slots": "10", "type": "electric_bike_sharing", "city": "taipei"}, "geometry": {"type": "Point", "coordinates": [121.53742, 25.113625]}}, {"type": "Feature", "properties": {"name": "木柵光輝路口", "address": "木柵路一段290號西側人行道(木柵光輝路口)", "district": "文山區", "slots": "14", "type": "electric_bike_sharing", "city": "taipei"}, "geometry": {"type": "Point", "coordinates": [121.55561, 24.988241]}}, {"type": "Feature", "properties": {"name": "捷運辛亥站", "address": "辛亥路四段114號旁人行道(捷運辛亥站)", "district": "文山區", "slots": "10", "type": "electric_bike_sharing", "city": "taipei"}, "geometry": {"type": "Point", "coordinates": [121.55716, 25.005386]}}, {"type": "Feature", "properties": {"name": "福安國中", "address": "延平北路七段250號前人行道(福安國中)", "district": "士林區", "slots": "30", "type": "electric_bike_sharing", "city": "taipei"}, "geometry": {"type": "Point", "coordinates": [121.487477, 25.103242]}}, {"type": "Feature", "properties": {"name": "龍山國小", "address": "和平西路三段280號對面人行道(龍山國小)(鄰近艋舺夜市(萬華夜市))", "district": "萬華區", "slots": "30", "type": "electric_bike_sharing", "city": "taipei"}, "geometry": {"type": "Point", "coordinates": [121.495342, 25.035555]}}, {"type": "Feature", "properties": {"name": "捷運復興崗站", "address": "中央北路三段17-1號對面人行道 (中央北路三段53巷側)", "district": "北投區", "slots": "8", "type": "electric_bike_sharing", "city": "taipei"}, "geometry": {"type": "Point", "coordinates": [121.486071, 25.137837]}}, {"type": "Feature", "properties": {"name": "樂群二敬業四路口", "address": "樂群二路180號前廣場", "district": "中山區", "slots": "16", "type": "electric_bike_sharing", "city": "taipei"}, "geometry": {"type": "Point", "coordinates": [121.558135, 25.079766]}}, {"type": "Feature", "properties": {"name": "星雲金湖街口", "address": "星雲街210巷11號旁平面停車場 ", "district": "內湖區", "slots": "22", "type": "electric_bike_sharing", "city": "taipei"}, "geometry": {"type": "Point", "coordinates": [121.597339, 25.080915]}}, {"type": "Feature", "properties": {"name": "北安大直街口", "address": "北安路676號前人行道 ", "district": "中山區", "slots": "50", "type": "electric_bike_sharing", "city": "taipei"}, "geometry": {"type": "Point", "coordinates": [121.549452, 25.084223]}}, {"type": "Feature", "properties": {"name": "蘭雅國小", "address": "磺溪街80號~82號對面人行道(蘭雅國小東側)", "district": "士林區", "slots": "10", "type": "electric_bike_sharing", "city": "taipei"}, "geometry": {"type": "Point", "coordinates": [121.523107, 25.107782]}}, {"type": "Feature", "properties": {"name": "基河一期國宅", "address": "南京東路六段131號至137號對面綠地", "district": "內湖區", "slots": "30", "type": "electric_bike_sharing", "city": "taipei"}, "geometry": {"type": "Point", "coordinates": [121.578645, 25.055935]}}, {"type": "Feature", "properties": {"name": "捷運北門站(3號出口)", "address": "鄭州路/塔城街(西南側)(捷運北門站3號出口)(鄰近海關博物館/北門-承恩門)", "district": "大同區", "slots": "10", "type": "electric_bike_sharing", "city": "taipei"}, "geometry": {"type": "Point", "coordinates": [121.510367, 25.04993]}}, {"type": "Feature", "properties": {"name": "培英公園", "address": "崇實路/大直街62巷(東南側)", "district": "中山區", "slots": "26", "type": "electric_bike_sharing", "city": "taipei"}, "geometry": {"type": "Point", "coordinates": [121.544601, 25.082553]}}, {"type": "Feature", "properties": {"name": "臺北花市", "address": "新湖三路28號前人行道(鄰近台北花市)", "district": "內湖區", "slots": "40", "type": "electric_bike_sharing", "city": "taipei"}, "geometry": {"type": "Point", "coordinates": [121.574267, 25.062645]}}, {"type": "Feature", "properties": {"name": "松山高中", "address": "基隆路一段172巷15號對面人行道(松山高中)", "district": "信義區", "slots": "10", "type": "electric_bike_sharing", "city": "taipei"}, "geometry": {"type": "Point", "coordinates": [121.564108, 25.043299]}}, {"type": "Feature", "properties": {"name": "大理高中", "address": "環河南路二段300號對面人行道(大理高中)", "district": "萬華區", "slots": "20", "type": "electric_bike_sharing", "city": "taipei"}, "geometry": {"type": "Point", "coordinates": [121.49074, 25.031147]}}, {"type": "Feature", "properties": {"name": "大稻埕公園", "address": "安西街1巷15號對面人行道(大稻埕公園)", "district": "大同區", "slots": "10", "type": "electric_bike_sharing", "city": "taipei"}, "geometry": {"type": "Point", "coordinates": [121.510512, 25.059162]}}, {"type": "Feature", "properties": {"name": "泰和公園", "address": "吳興街583巷67弄(泰和公園)", "district": "信義區", "slots": "6", "type": "electric_bike_sharing", "city": "taipei"}, "geometry": {"type": "Point", "coordinates": [121.57107, 25.019276]}}, {"type": "Feature", "properties": {"name": "撫順公園", "address": "中山北路2段180號對面(鄰近大同大學/雙城街夜市)", "district": "中山區", "slots": "12", "type": "electric_bike_sharing", "city": "taipei"}, "geometry": {"type": "Point", "coordinates": [121.522065, 25.064108]}}, {"type": "Feature", "properties": {"name": "清江國小", "address": "三合街一段/公館路西南側人行道(清江國小)", "district": "北投區", "slots": "20", "type": "electric_bike_sharing", "city": "taipei"}, "geometry": {"type": "Point", "coordinates": [121.507267, 25.1274]}}, {"type": "Feature", "properties": {"name": "社正公園", "address": "社中街43號對面停車場(社正公園)", "district": "士林區", "slots": "32", "type": "electric_bike_sharing", "city": "taipei"}, "geometry": {"type": "Point", "coordinates": [121.510535, 25.088243]}}, {"type": "Feature", "properties": {"name": "臥龍樂業街口", "address": "臥龍街267號對面人行道(臥龍樂業街口)", "district": "大安區", "slots": "22", "type": "electric_bike_sharing", "city": "taipei"}, "geometry": {"type": "Point", "coordinates": [121.554839, 25.0186]}}, {"type": "Feature", "properties": {"name": "向陽南港路口", "address": "向陽路49號旁人行道(向陽南港路口)", "district": "南港區", "slots": "20", "type": "electric_bike_sharing", "city": "taipei"}, "geometry": {"type": "Point", "coordinates": [121.594228, 25.054365]}}, {"type": "Feature", "properties": {"name": "麗山高中", "address": "環山路二段131號對面人行道(麗山高中)", "district": "內湖區", "slots": "30", "type": "electric_bike_sharing", "city": "taipei"}, "geometry": {"type": "Point", "coordinates": [121.57668, 25.084244]}}, {"type": "Feature", "properties": {"name": "捷運萬芳社區站", "address": "萬芳路60號西側廣場", "district": "文山區", "slots": "16", "type": "electric_bike_sharing", "city": "taipei"}, "geometry": {"type": "Point", "coordinates": [121.56789, 24.998811]}}, {"type": "Feature", "properties": {"name": "湖光國宅", "address": "文德路22巷67號對面綠地", "district": "內湖區", "slots": "14", "type": "electric_bike_sharing", "city": "taipei"}, "geometry": {"type": "Point", "coordinates": [121.580811, 25.075366]}}, {"type": "Feature", "properties": {"name": "內政部營建署", "address": "八德路二段342號東側人行道(鄰近微風廣場/黑松世界)", "district": "松山區", "slots": "10", "type": "electric_bike_sharing", "city": "taipei"}, "geometry": {"type": "Point", "coordinates": [121.545022, 25.047805]}}, {"type": "Feature", "properties": {"name": "中山天母路口", "address": "天母西路3-55號前人行道", "district": "士林區", "slots": "16", "type": "electric_bike_sharing", "city": "taipei"}, "geometry": {"type": "Point", "coordinates": [121.529738, 25.118843]}}, {"type": "Feature", "properties": {"name": "捷運忠義站", "address": "中央北路四段262號對面人行道", "district": "北投區", "slots": "44", "type": "electric_bike_sharing", "city": "taipei"}, "geometry": {"type": "Point", "coordinates": [121.474155, 25.131411]}}, {"type": "Feature", "properties": {"name": "永欣綠地", "address": "行義路1號對面停車場", "district": "北投區", "slots": "18", "type": "electric_bike_sharing", "city": "taipei"}, "geometry": {"type": "Point", "coordinates": [121.526071, 25.124162]}}, {"type": "Feature", "properties": {"name": "市民東興路口", "address": "市民大道五段193號前方人行道(鄰近台北機廠)", "district": "松山區", "slots": "18", "type": "electric_bike_sharing", "city": "taipei"}, "geometry": {"type": "Point", "coordinates": [121.565928, 25.04846]}}, {"type": "Feature", "properties": {"name": "關渡自然公園", "address": "關渡路68號對面人行道", "district": "北投區", "slots": "20", "type": "electric_bike_sharing", "city": "taipei"}, "geometry": {"type": "Point", "coordinates": [121.469138, 25.119292]}}, {"type": "Feature", "properties": {"name": "瑞湖陽光街口", "address": "瑞湖街101號對面人行道", "district": "內湖區", "slots": "12", "type": "electric_bike_sharing", "city": "taipei"}, "geometry": {"type": "Point", "coordinates": [121.575965, 25.073119]}}, {"type": "Feature", "properties": {"name": "南京建國路口", "address": "南京東路二段/建國北路二段(北側)(鄰近袖珍博物館)", "district": "中山區", "slots": "16", "type": "electric_bike_sharing", "city": "taipei"}, "geometry": {"type": "Point", "coordinates": [121.536802, 25.052141]}}, {"type": "Feature", "properties": {"name": "林口公園", "address": "林口街72號對面公園(林口公園)", "district": "信義區", "slots": "16", "type": "electric_bike_sharing", "city": "taipei"}, "geometry": {"type": "Point", "coordinates": [121.579146, 25.038943]}}, {"type": "Feature", "properties": {"name": "關渡宮", "address": "大度路三段301巷223-5號西北側停車場(鄰近關渡宮)", "district": "北投區", "slots": "20", "type": "electric_bike_sharing", "city": "taipei"}, "geometry": {"type": "Point", "coordinates": [121.463161, 25.117472]}}, {"type": "Feature", "properties": {"name": "社子公園", "address": "永平街20巷37弄/永平街20巷11弄(社子公園南側)", "district": "士林區", "slots": "10", "type": "electric_bike_sharing", "city": "taipei"}, "geometry": {"type": "Point", "coordinates": [121.506219, 25.090202]}}, {"type": "Feature", "properties": {"name": "復興市民路口", "address": "復興南路一段36-9號前人行道(復興市民路口)(鄰近微風廣場/黑松世界)", "district": "中山區", "slots": "18", "type": "electric_bike_sharing", "city": "taipei"}, "geometry": {"type": "Point", "coordinates": [121.543736, 25.045908]}}, {"type": "Feature", "properties": {"name": "捷運中山國中站", "address": "復興北路370號前方人行道(捷運中山國中站)", "district": "中山區", "slots": "8", "type": "electric_bike_sharing", "city": "taipei"}, "geometry": {"type": "Point", "coordinates": [121.544028, 25.060632]}}, {"type": "Feature", "properties": {"name": "國立故宮博物院", "address": "至善路二段155號對面停車場(鄰近至德園)", "district": "士林區", "slots": "40", "type": "electric_bike_sharing", "city": "taipei"}, "geometry": {"type": "Point", "coordinates": [121.548086, 25.098743]}}, {"type": "Feature", "properties": {"name": "木柵公園", "address": "興隆路四段50號前人行道(木柵公園)", "district": "文山區", "slots": "14", "type": "electric_bike_sharing", "city": "taipei"}, "geometry": {"type": "Point", "coordinates": [121.560627, 24.987144]}}, {"type": "Feature", "properties": {"name": "喬治工商", "address": "基隆路二段166號前(喬治工商)", "district": "大安區", "slots": "12", "type": "electric_bike_sharing", "city": "taipei"}, "geometry": {"type": "Point", "coordinates": [121.555566, 25.027123]}}, {"type": "Feature", "properties": {"name": "中華桂林路口", "address": "中華路一段206號前方廣場(鄰近國軍歷史文物館)", "district": "萬華區", "slots": "12", "type": "electric_bike_sharing", "city": "taipei"}, "geometry": {"type": "Point", "coordinates": [121.506624, 25.037706]}}, {"type": "Feature", "properties": {"name": "忠孝東路三段217巷口", "address": "忠孝東路三段221號前方人行道", "district": "大安區", "slots": "4", "type": "electric_bike_sharing", "city": "taipei"}, "geometry": {"type": "Point", "coordinates": [121.539873, 25.04184]}}, {"type": "Feature", "properties": {"name": "華齡公園", "address": "劍潭路80對面公園(華齡公園)", "district": "士林區", "slots": "10", "type": "electric_bike_sharing", "city": "taipei"}, "geometry": {"type": "Point", "coordinates": [121.520692, 25.083023]}}, {"type": "Feature", "properties": {"name": "大安運動中心", "address": "辛亥路三段55號前方人行道(大安運動中心)(鄰近國立臺北教育大學)", "district": "大安區", "slots": "10", "type": "electric_bike_sharing", "city": "taipei"}, "geometry": {"type": "Point", "coordinates": [121.545608, 25.020544]}}, {"type": "Feature", "properties": {"name": "芝山抽水站", "address": "至誠路二段80號對面人行道(芝山抽水站)(鄰近雙溪生活水岸自行車道)", "district": "士林區", "slots": "24", "type": "electric_bike_sharing", "city": "taipei"}, "geometry": {"type": "Point", "coordinates": [121.52799, 25.101423]}}, {"type": "Feature", "properties": {"name": "立功立德路口", "address": "立功街/立德路(西南側人行道)", "district": "北投區", "slots": "14", "type": "electric_bike_sharing", "city": "taipei"}, "geometry": {"type": "Point", "coordinates": [121.471482, 25.125377]}}, {"type": "Feature", "properties": {"name": "中山中正路口", "address": "中山北路五段609-625號前人行道(中山中正路口)(鄰近福林公園)", "district": "士林區", "slots": "28", "type": "electric_bike_sharing", "city": "taipei"}, "geometry": {"type": "Point", "coordinates": [121.527526, 25.096507]}}, {"type": "Feature", "properties": {"name": "錦德公園", "address": "德昌街243號對面公園(錦德公園)", "district": "萬華區", "slots": "18", "type": "electric_bike_sharing", "city": "taipei"}, "geometry": {"type": "Point", "coordinates": [121.492637, 25.023316]}}, {"type": "Feature", "properties": {"name": "聯合醫院中興院區", "address": "長安西路299-2號對面人行道(鄰近海關博物館)", "district": "大同區", "slots": "8", "type": "electric_bike_sharing", "city": "taipei"}, "geometry": {"type": "Point", "coordinates": [121.507979, 25.052096]}}, {"type": "Feature", "properties": {"name": "南京遼寧街口", "address": "南京東路三段189號對面(南京遼寧街口東南側)(鄰近遼寧夜市)", "district": "中山區", "slots": "10", "type": "electric_bike_sharing", "city": "taipei"}, "geometry": {"type": "Point", "coordinates": [121.542168, 25.051761]}}, {"type": "Feature", "properties": {"name": "民權瑞光路口", "address": "民權東路六段50號前人行道", "district": "內湖區", "slots": "36", "type": "electric_bike_sharing", "city": "taipei"}, "geometry": {"type": "Point", "coordinates": [121.583991, 25.068616]}}, {"type": "Feature", "properties": {"name": "健康新城", "address": "健康路177號前人行道(健康新城)", "district": "松山區", "slots": "12", "type": "electric_bike_sharing", "city": "taipei"}, "geometry": {"type": "Point", "coordinates": [121.560928, 25.054095]}}, {"type": "Feature", "properties": {"name": "永安藝文館-表演36房", "address": "木新路二段156號前人行道(永安市場)", "district": "文山區", "slots": "10", "type": "electric_bike_sharing", "city": "taipei"}, "geometry": {"type": "Point", "coordinates": [121.569064, 24.984144]}}, {"type": "Feature", "properties": {"name": "至善臨溪路口", "address": "至善路一段/臨溪路(東南側)", "district": "士林區", "slots": "16", "type": "electric_bike_sharing", "city": "taipei"}, "geometry": {"type": "Point", "coordinates": [121.542153, 25.097103]}}, {"type": "Feature", "properties": {"name": "秀山區民活動中心", "address": "秀山路50號北側道路路側", "district": "北投區", "slots": "10", "type": "electric_bike_sharing", "city": "taipei"}, "geometry": {"type": "Point", "coordinates": [121.493009, 25.145936]}}, {"type": "Feature", "properties": {"name": "中央北路四段30巷口", "address": "中央北路四段30巷8號對面路側(鄰近北投行天宮)", "district": "北投區", "slots": "12", "type": "electric_bike_sharing", "city": "taipei"}, "geometry": {"type": "Point", "coordinates": [121.478, 25.135394]}}, {"type": "Feature", "properties": {"name": "洲子一號公園", "address": "基湖路32號南側公園", "district": "內湖區", "slots": "34", "type": "electric_bike_sharing", "city": "taipei"}, "geometry": {"type": "Point", "coordinates": [121.564806, 25.080258]}}, {"type": "Feature", "properties": {"name": "八德中坡路口", "address": "八德路四段869號前方人行道(鄰近饒河街夜市)", "district": "南港區", "slots": "26", "type": "electric_bike_sharing", "city": "taipei"}, "geometry": {"type": "Point", "coordinates": [121.580194, 25.05062]}}, {"type": "Feature", "properties": {"name": "南港高工", "address": "興中路29號前方人行道", "district": "南港區", "slots": "30", "type": "electric_bike_sharing", "city": "taipei"}, "geometry": {"type": "Point", "coordinates": [121.607055, 25.056655]}}, {"type": "Feature", "properties": {"name": "三軍總醫院", "address": "成功路二段/成功路二段323巷東北角人行道(鄰近防災科學教育館)", "district": "內湖區", "slots": "22", "type": "electric_bike_sharing", "city": "taipei"}, "geometry": {"type": "Point", "coordinates": [121.590304, 25.070723]}}, {"type": "Feature", "properties": {"name": "雨農國小", "address": "忠義街6號對面人行道(雨農國小)(鄰近芝山岩/芝山巖惠濟宮/芝山文化生態綠園)", "district": "士林區", "slots": "22", "type": "electric_bike_sharing", "city": "taipei"}, "geometry": {"type": "Point", "coordinates": [121.529217, 25.105429]}}, {"type": "Feature", "properties": {"name": "伊通長安路口", "address": "伊通街/長安東路二段(交叉口西南側路側)(鄰近袖珍博物館/樹火紀念紙博物館)", "district": "中山區", "slots": "10", "type": "electric_bike_sharing", "city": "taipei"}, "geometry": {"type": "Point", "coordinates": [121.534693, 25.048334]}}, {"type": "Feature", "properties": {"name": "忠順區民活動中心", "address": "忠順街二段22號前方人行道(忠順區民活動中心)", "district": "文山區", "slots": "32", "type": "electric_bike_sharing", "city": "taipei"}, "geometry": {"type": "Point", "coordinates": [121.563125, 24.984707]}}, {"type": "Feature", "properties": {"name": "芝山國小", "address": "德行東路/德行東路283巷東北角人行道(芝山國小)", "district": "士林區", "slots": "14", "type": "electric_bike_sharing", "city": "taipei"}, "geometry": {"type": "Point", "coordinates": [121.535954, 25.110437]}}, {"type": "Feature", "properties": {"name": "扶輪親恩公園", "address": "民權東路六段13之15號對面人行道(民權大橋)(鄰近華生水水體驗館)", "district": "內湖區", "slots": "30", "type": "electric_bike_sharing", "city": "taipei"}, "geometry": {"type": "Point", "coordinates": [121.579833, 25.066997]}}, {"type": "Feature", "properties": {"name": "西本願寺廣場", "address": "中華路一段/長沙街二段路口西南側人行道(西本願寺)(鄰近國軍歷史文物館/中山堂/西門紅樓)", "district": "萬華區", "slots": "18", "type": "electric_bike_sharing", "city": "taipei"}, "geometry": {"type": "Point", "coordinates": [121.507688, 25.040988]}}, {"type": "Feature", "properties": {"name": "三興公園", "address": "吳興街118巷35弄28號前方(三興公園)", "district": "信義區", "slots": "14", "type": "electric_bike_sharing", "city": "taipei"}, "geometry": {"type": "Point", "coordinates": [121.55932, 25.028679]}}, {"type": "Feature", "properties": {"name": "中山堂", "address": "延平南路/武昌街一段東南角人行道(延平武昌街口)(鄰近中山堂/西門町)", "district": "中正區", "slots": "16", "type": "electric_bike_sharing", "city": "taipei"}, "geometry": {"type": "Point", "coordinates": [121.51025, 25.044091]}}, {"type": "Feature", "properties": {"name": "明美公園", "address": "石潭路/南京東路六段451巷口西南人行道綠帶(明美公園)", "district": "內湖區", "slots": "10", "type": "electric_bike_sharing", "city": "taipei"}, "geometry": {"type": "Point", "coordinates": [121.586065, 25.062557]}}, {"type": "Feature", "properties": {"name": "南港車站(興華路)", "address": "市民大道八段/興華路口西北側人行道(鄰近南港高鐵站)", "district": "南港區", "slots": "26", "type": "electric_bike_sharing", "city": "taipei"}, "geometry": {"type": "Point", "coordinates": [121.606331, 25.053432]}}, {"type": "Feature", "properties": {"name": "士林新天地", "address": "大南路325號前方人行道", "district": "士林區", "slots": "10", "type": "electric_bike_sharing", "city": "taipei"}, "geometry": {"type": "Point", "coordinates": [121.51732, 25.089034]}}, {"type": "Feature", "properties": {"name": "松江公園", "address": "松江路/松江路84巷(西北側路側)(鄰近樹火紀念紙博物館)", "district": "中山區", "slots": "12", "type": "electric_bike_sharing", "city": "taipei"}, "geometry": {"type": "Point", "coordinates": [121.532725, 25.050245]}}, {"type": "Feature", "properties": {"name": "富台公園", "address": "松信路209號前人行道", "district": "信義區", "slots": "10", "type": "electric_bike_sharing", "city": "taipei"}, "geometry": {"type": "Point", "coordinates": [121.571999, 25.041935]}}, {"type": "Feature", "properties": {"name": "中央北路四段540巷口", "address": "中央北路四段529號對面", "district": "北投區", "slots": "10", "type": "electric_bike_sharing", "city": "taipei"}, "geometry": {"type": "Point", "coordinates": [121.4677, 25.127959]}}, {"type": "Feature", "properties": {"name": "華聲公園", "address": "華聲街17號南側路側(全聯)", "district": "士林區", "slots": "16", "type": "electric_bike_sharing", "city": "taipei"}, "geometry": {"type": "Point", "coordinates": [121.522096, 25.096166]}}, {"type": "Feature", "properties": {"name": "螢橋國小", "address": "泉州街32號對面人行道(螢橋國小)", "district": "中正區", "slots": "20", "type": "electric_bike_sharing", "city": "taipei"}, "geometry": {"type": "Point", "coordinates": [121.51377, 25.025966]}}, {"type": "Feature", "properties": {"name": "德明財經科技大學", "address": "環山路一段56號對面(德明財經科技大學)", "district": "內湖區", "slots": "18", "type": "electric_bike_sharing", "city": "taipei"}, "geometry": {"type": "Point", "coordinates": [121.565713, 25.086372]}}, {"type": "Feature", "properties": {"name": "第二果菜批發市場", "address": "民族東路410巷1號 對面 遷到 民族東路410巷2弄20號 東側", "district": "中山區", "slots": "12", "type": "electric_bike_sharing", "city": "taipei"}, "geometry": {"type": "Point", "coordinates": [121.537354, 25.066424]}}, {"type": "Feature", "properties": {"name": "濟南紹興路口", "address": "濟南路一段/紹興南街口東南側(鄰近蝴蝶宮昆蟲博物館/國立台北商業技術學院)", "district": "中正區", "slots": "34", "type": "electric_bike_sharing", "city": "taipei"}, "geometry": {"type": "Point", "coordinates": [121.524591, 25.041928]}}, {"type": "Feature", "properties": {"name": "牯嶺公園", "address": "廈門街113巷/牯嶺街口西側", "district": "中正區", "slots": "18", "type": "electric_bike_sharing", "city": "taipei"}, "geometry": {"type": "Point", "coordinates": [121.518835, 25.023377]}}, {"type": "Feature", "properties": {"name": "新生公園", "address": "民族東路/吉林路口(西北側)(鄰近花博公園新生園區)", "district": "中山區", "slots": "8", "type": "electric_bike_sharing", "city": "taipei"}, "geometry": {"type": "Point", "coordinates": [121.530188, 25.068387]}}, {"type": "Feature", "properties": {"name": "捷運松山站(3號出口)", "address": "松山路/市民大道六段(西北側捷運3號出口)(鄰近饒河街夜市/彩虹橋)", "district": "松山區", "slots": "20", "type": "electric_bike_sharing", "city": "taipei"}, "geometry": {"type": "Point", "coordinates": [121.577459, 25.049616]}}, {"type": "Feature", "properties": {"name": "合心廣場", "address": "玉成街80號(對面)", "district": "南港區", "slots": "22", "type": "electric_bike_sharing", "city": "taipei"}, "geometry": {"type": "Point", "coordinates": [121.582848, 25.046361]}}, {"type": "Feature", "properties": {"name": "自來水園區", "address": "中正區思源街16號對面人行道(鄰近自來水博物館/自來水園區)", "district": "中正區", "slots": "20", "type": "electric_bike_sharing", "city": "taipei"}, "geometry": {"type": "Point", "coordinates": [121.530037, 25.013284]}}, {"type": "Feature", "properties": {"name": "朱崙商場", "address": "龍江路15號前方人行道(鄰近遼寧夜市)", "district": "中山區", "slots": "12", "type": "electric_bike_sharing", "city": "taipei"}, "geometry": {"type": "Point", "coordinates": [121.540431, 25.047617]}}, {"type": "Feature", "properties": {"name": "敦親公園", "address": "和平東路二段96巷8之1號(前方)(鄰近資訊科學展示中心)", "district": "大安區", "slots": "10", "type": "electric_bike_sharing", "city": "taipei"}, "geometry": {"type": "Point", "coordinates": [121.541083, 25.023473]}}, {"type": "Feature", "properties": {"name": "萬和二號公園", "address": "萬隆街255號(對面)", "district": "文山區", "slots": "20", "type": "electric_bike_sharing", "city": "taipei"}, "geometry": {"type": "Point", "coordinates": [121.536446, 25.001545]}}, {"type": "Feature", "properties": {"name": "長沙公園", "address": "環河南路一段280號之1(東側)(鄰近艋舺青山宮)", "district": "萬華區", "slots": "10", "type": "electric_bike_sharing", "city": "taipei"}, "geometry": {"type": "Point", "coordinates": [121.499922, 25.041702]}}, {"type": "Feature", "properties": {"name": "太原五原路口", "address": "太原路 / 五原路口(東南側)(鄰近寧夏夜市)", "district": "大同區", "slots": "12", "type": "electric_bike_sharing", "city": "taipei"}, "geometry": {"type": "Point", "coordinates": [121.516976, 25.056458]}}, {"type": "Feature", "properties": {"name": "萬華國中", "address": "西藏路 / 莒光路299巷口(東南側)", "district": "萬華區", "slots": "14", "type": "electric_bike_sharing", "city": "taipei"}, "geometry": {"type": "Point", "coordinates": [121.499358, 25.029264]}}, {"type": "Feature", "properties": {"name": "信義基隆路口", "address": "信義路四段401號(前方)(鄰近台北國際會議中心)", "district": "信義區", "slots": "10", "type": "electric_bike_sharing", "city": "taipei"}, "geometry": {"type": "Point", "coordinates": [121.558731, 25.033209]}}, {"type": "Feature", "properties": {"name": "林森長春路口", "address": "林森北路/長春路口西北角人行道(林森長春路口)(鄰近林森公園/康樂公園)", "district": "中山區", "slots": "10", "type": "electric_bike_sharing", "city": "taipei"}, "geometry": {"type": "Point", "coordinates": [121.525383, 25.055062]}}, {"type": "Feature", "properties": {"name": "敦北公園", "address": "敦化北路 / 富錦街口(東北側)", "district": "松山區", "slots": "14", "type": "electric_bike_sharing", "city": "taipei"}, "geometry": {"type": "Point", "coordinates": [121.550711, 25.060746]}}, {"type": "Feature", "properties": {"name": "安泰街83巷", "address": "安泰街83巷3號對面", "district": "內湖區", "slots": "10", "type": "electric_bike_sharing", "city": "taipei"}, "geometry": {"type": "Point", "coordinates": [121.617085, 25.076691]}}, {"type": "Feature", "properties": {"name": "金華公園", "address": "金華街251號對面(金華公園)(鄰近永康街)", "district": "大安區", "slots": "8", "type": "electric_bike_sharing", "city": "taipei"}, "geometry": {"type": "Point", "coordinates": [121.531235, 25.029902]}}, {"type": "Feature", "properties": {"name": "碧山公園", "address": "內湖路三段60巷8弄1號(東南側)", "district": "內湖區", "slots": "18", "type": "electric_bike_sharing", "city": "taipei"}, "geometry": {"type": "Point", "coordinates": [121.592253, 25.087413]}}, {"type": "Feature", "properties": {"name": "仁愛安和路口", "address": "仁愛路四段 / 仁愛路四段222巷(東南側)", "district": "大安區", "slots": "10", "type": "electric_bike_sharing", "city": "taipei"}, "geometry": {"type": "Point", "coordinates": [121.552076, 25.03757]}}, {"type": "Feature", "properties": {"name": "西松高中", "address": "健康路325巷 / 健康路325巷12弄口(東北側)", "district": "松山區", "slots": "12", "type": "electric_bike_sharing", "city": "taipei"}, "geometry": {"type": "Point", "coordinates": [121.567127, 25.055672]}}, {"type": "Feature", "properties": {"name": "三軍總醫院(松山分院)", "address": "光復北路 / 光復北路190巷口(東南側)", "district": "松山區", "slots": "18", "type": "electric_bike_sharing", "city": "taipei"}, "geometry": {"type": "Point", "coordinates": [121.556098, 25.05447]}}, {"type": "Feature", "properties": {"name": "國立臺北大學(臺北校區)", "address": "民生東路三段 / 復興北路280巷10弄口(西北側)", "district": "中山區", "slots": "8", "type": "electric_bike_sharing", "city": "taipei"}, "geometry": {"type": "Point", "coordinates": [121.542732, 25.057923]}}, {"type": "Feature", "properties": {"name": "捷運忠孝新生站(2號出口)", "address": "忠孝東路二段123號對面(捷運忠孝新生站2號出口)(鄰近光華數位新天地(光華商場))", "district": "中正區", "slots": "12", "type": "electric_bike_sharing", "city": "taipei"}, "geometry": {"type": "Point", "coordinates": [121.532229, 25.042392]}}, {"type": "Feature", "properties": {"name": "捷運信義安和站(1號出口)", "address": "信義路四段 / 安和路一段口(東北側)", "district": "大安區", "slots": "10", "type": "electric_bike_sharing", "city": "taipei"}, "geometry": {"type": "Point", "coordinates": [121.552787, 25.033323]}}, {"type": "Feature", "properties": {"name": "光華商場", "address": "市民大道三段/新生北路一段路口西南側人行道(光華商場)(鄰近光華數位新天地(光華商場)/三創生活園區)", "district": "中正區", "slots": "12", "type": "electric_bike_sharing", "city": "taipei"}, "geometry": {"type": "Point", "coordinates": [121.532738, 25.04515]}}, {"type": "Feature", "properties": {"name": "敦化長春路口", "address": "敦化北路 / 敦化北路120巷口(西南側)(鄰近臺北小巨蛋)", "district": "松山區", "slots": "12", "type": "electric_bike_sharing", "city": "taipei"}, "geometry": {"type": "Point", "coordinates": [121.54872, 25.053614]}}, {"type": "Feature", "properties": {"name": "捷運萬隆站(1號出口)", "address": "羅斯福路五段 / 羅斯福路五段236巷口(南側)", "district": "文山區", "slots": "20", "type": "electric_bike_sharing", "city": "taipei"}, "geometry": {"type": "Point", "coordinates": [121.539037, 25.001447]}}, {"type": "Feature", "properties": {"name": "民有一號公園", "address": "敦化北路244巷 / 民權東路三段160巷口(西南側)", "district": "松山區", "slots": "10", "type": "electric_bike_sharing", "city": "taipei"}, "geometry": {"type": "Point", "coordinates": [121.54763, 25.060911]}}, {"type": "Feature", "properties": {"name": "雙園國中", "address": "西園路二段320巷 / 興義街(西北側)", "district": "萬華區", "slots": "24", "type": "electric_bike_sharing", "city": "taipei"}, "geometry": {"type": "Point", "coordinates": [121.491675, 25.026823]}}, {"type": "Feature", "properties": {"name": "成功金龍路口", "address": "成功路四段/金龍路口(捷運內湖站1號出口)", "district": "內湖區", "slots": "8", "type": "electric_bike_sharing", "city": "taipei"}, "geometry": {"type": "Point", "coordinates": [121.59484, 25.084135]}}, {"type": "Feature", "properties": {"name": "民族林森路口", "address": "民族東路 / 林森北路口(西北側)(鄰近花博公園美術園區)", "district": "中山區", "slots": "38", "type": "electric_bike_sharing", "city": "taipei"}, "geometry": {"type": "Point", "coordinates": [121.525322, 25.068507]}}, {"type": "Feature", "properties": {"name": "捷運南京三民站(3號出口)", "address": "南京東路五段204號(前方)", "district": "松山區", "slots": "28", "type": "electric_bike_sharing", "city": "taipei"}, "geometry": {"type": "Point", "coordinates": [121.564262, 25.051287]}}, {"type": "Feature", "properties": {"name": "永盛公園(民生東路一段23巷)", "address": "民生東路一段23巷 / 民生東路一段27巷口(北側)", "district": "中山區", "slots": "18", "type": "electric_bike_sharing", "city": "taipei"}, "geometry": {"type": "Point", "coordinates": [121.52504, 25.058835]}}, {"type": "Feature", "properties": {"name": "新興公園", "address": "錦州街13巷 / 中山北路二段137巷口(東南側)(鄰近雙城街夜市)", "district": "中山區", "slots": "10", "type": "electric_bike_sharing", "city": "taipei"}, "geometry": {"type": "Point", "coordinates": [121.524392, 25.061568]}}, {"type": "Feature", "properties": {"name": "市立圖書館葫蘆堵分館", "address": "延平北路5段136巷4號對面", "district": "士林區", "slots": "10", "type": "electric_bike_sharing", "city": "taipei"}, "geometry": {"type": "Point", "coordinates": [121.5108, 25.08221]}}, {"type": "Feature", "properties": {"name": "南京東路六段368巷", "address": "南京東路六段368巷30號對面人行道", "district": "內湖區", "slots": "18", "type": "electric_bike_sharing", "city": "taipei"}, "geometry": {"type": "Point", "coordinates": [121.58707, 25.05827]}}, {"type": "Feature", "properties": {"name": "基隆路一段101巷口", "address": "基隆路一段 / 基隆路一段101巷口(東南側)", "district": "信義區", "slots": "10", "type": "electric_bike_sharing", "city": "taipei"}, "geometry": {"type": "Point", "coordinates": [121.56709, 25.04525]}}, {"type": "Feature", "properties": {"name": "重慶南海路口", "address": "重慶南路二段45號前方(郵政博物館前)(鄰近郵政博物館/國立台灣藝術教育館)", "district": "中正區", "slots": "10", "type": "electric_bike_sharing", "city": "taipei"}, "geometry": {"type": "Point", "coordinates": [121.51464, 25.03158]}}, {"type": "Feature", "properties": {"name": "一江公園", "address": "一江街 / 松江路132巷口(西北側)(鄰近四平陽光商圈)", "district": "中山區", "slots": "10", "type": "electric_bike_sharing", "city": "taipei"}, "geometry": {"type": "Point", "coordinates": [121.53146, 25.05316]}}, {"type": "Feature", "properties": {"name": "樂群二明水路口", "address": "樂群二路 / 明水路口(東側)", "district": "中山區", "slots": "14", "type": "electric_bike_sharing", "city": "taipei"}, "geometry": {"type": "Point", "coordinates": [121.55236, 25.07983]}}, {"type": "Feature", "properties": {"name": "迪化休閒運動公園", "address": "延平北路四段200號(南側)", "district": "大同區", "slots": "12", "type": "electric_bike_sharing", "city": "taipei"}, "geometry": {"type": "Point", "coordinates": [121.5115, 25.07491]}}, {"type": "Feature", "properties": {"name": "捷運中山站(2號出口)", "address": "南京西路6號(前方)(鄰近台北之家(光點台北))", "district": "中山區", "slots": "8", "type": "electric_bike_sharing", "city": "taipei"}, "geometry": {"type": "Point", "coordinates": [121.52193, 25.05225]}}, {"type": "Feature", "properties": {"name": "復盛公園", "address": "八德路四段106巷6弄2號(東側)(鄰近京華城/中保寶貝城(BabyBoss City)/台北機廠)", "district": "松山區", "slots": "22", "type": "electric_bike_sharing", "city": "taipei"}, "geometry": {"type": "Point", "coordinates": [121.561182, 25.047428]}}, {"type": "Feature", "properties": {"name": "敦化南路二段103巷口", "address": "敦化南路二段97-101號(西側)", "district": "大安區", "slots": "12", "type": "electric_bike_sharing", "city": "taipei"}, "geometry": {"type": "Point", "coordinates": [121.549024, 25.028973]}}, {"type": "Feature", "properties": {"name": "景文中學", "address": "保儀路/木柵路三段102巷口(西南側)", "district": "文山區", "slots": "16", "type": "electric_bike_sharing", "city": "taipei"}, "geometry": {"type": "Point", "coordinates": [121.567855, 24.986301]}}, {"type": "Feature", "properties": {"name": "承德路三段8巷口", "address": "承德路三段12號(前方)", "district": "大同區", "slots": "12", "type": "electric_bike_sharing", "city": "taipei"}, "geometry": {"type": "Point", "coordinates": [121.51815, 25.06382]}}, {"type": "Feature", "properties": {"name": "彩虹橋", "address": "潭美街27號西側(行善公園東南角)(鄰近饒河街夜市/彩虹橋)", "district": "內湖區", "slots": "24", "type": "electric_bike_sharing", "city": "taipei"}, "geometry": {"type": "Point", "coordinates": [121.57592, 25.05301]}}, {"type": "Feature", "properties": {"name": "成德國中", "address": "東新街108巷10之1號(西側)", "district": "南港區", "slots": "16", "type": "electric_bike_sharing", "city": "taipei"}, "geometry": {"type": "Point", "coordinates": [121.58794, 25.04573]}}, {"type": "Feature", "properties": {"name": "重慶國中", "address": "敦煌路68號(北側)", "district": "大同區", "slots": "22", "type": "electric_bike_sharing", "city": "taipei"}, "geometry": {"type": "Point", "coordinates": [121.51816, 25.07581]}}, {"type": "Feature", "properties": {"name": "南京光復路口", "address": "南京東路四段182號(北側)", "district": "松山區", "slots": "10", "type": "electric_bike_sharing", "city": "taipei"}, "geometry": {"type": "Point", "coordinates": [121.55716, 25.05143]}}, {"type": "Feature", "properties": {"name": "捷運芝山站(1號出口)", "address": "文林路 / 福華路口(東側)", "district": "士林區", "slots": "18", "type": "electric_bike_sharing", "city": "taipei"}, "geometry": {"type": "Point", "coordinates": [121.52243, 25.10094]}}, {"type": "Feature", "properties": {"name": "文林建民路口", "address": "文林北路224-238號(東南側)", "district": "北投區", "slots": "10", "type": "electric_bike_sharing", "city": "taipei"}, "geometry": {"type": "Point", "coordinates": [121.51468, 25.10779]}}, {"type": "Feature", "properties": {"name": "捷運忠孝復興站(5號出口)", "address": "復興南路一段133號(西南側)(鄰近東區地下街)", "district": "大安區", "slots": "22", "type": "electric_bike_sharing", "city": "taipei"}, "geometry": {"type": "Point", "coordinates": [121.54401, 25.04264]}}, {"type": "Feature", "properties": {"name": "中正運動中心", "address": "信義路一段1號(西側)(鄰近臺北市青少年發展處/中正親子館)", "district": "中正區", "slots": "12", "type": "electric_bike_sharing", "city": "taipei"}, "geometry": {"type": "Point", "coordinates": [121.51943, 25.03806]}}, {"type": "Feature", "properties": {"name": "陽明高中", "address": "中正路510號(西南側)", "district": "士林區", "slots": "14", "type": "electric_bike_sharing", "city": "taipei"}, "geometry": {"type": "Point", "coordinates": [121.51669, 25.09157]}}, {"type": "Feature", "properties": {"name": "博愛寶慶路口", "address": "博愛路 / 寶慶路口(西北側)(鄰近總統府/中山堂)", "district": "中正區", "slots": "14", "type": "electric_bike_sharing", "city": "taipei"}, "geometry": {"type": "Point", "coordinates": [121.51135, 25.04134]}}, {"type": "Feature", "properties": {"name": "民生立體停車場", "address": "民生東路五段82號(東側)", "district": "松山區", "slots": "6", "type": "electric_bike_sharing", "city": "taipei"}, "geometry": {"type": "Point", "coordinates": [121.55942, 25.058522]}}, {"type": "Feature", "properties": {"name": "重慶酒泉街口", "address": "重慶北路三段272號(東側)(鄰近保安宮)", "district": "大同區", "slots": "12", "type": "electric_bike_sharing", "city": "taipei"}, "geometry": {"type": "Point", "coordinates": [121.51364, 25.07183]}}, {"type": "Feature", "properties": {"name": "復興南路二段128巷口", "address": "復興南路二段144-3號前方", "district": "大安區", "slots": "8", "type": "electric_bike_sharing", "city": "taipei"}, "geometry": {"type": "Point", "coordinates": [121.54336, 25.02904]}}, {"type": "Feature", "properties": {"name": "中山青島路口", "address": "中山南路 / 青島東路口東北側", "district": "中正區", "slots": "8", "type": "electric_bike_sharing", "city": "taipei"}, "geometry": {"type": "Point", "coordinates": [121.51954, 25.04469]}}, {"type": "Feature", "properties": {"name": "民權迪化街口", "address": "迪化街一段351號(東北側)(鄰近延三夜市(大橋頭夜市))", "district": "大同區", "slots": "14", "type": "electric_bike_sharing", "city": "taipei"}, "geometry": {"type": "Point", "coordinates": [121.50944, 25.06318]}}, {"type": "Feature", "properties": {"name": "建國濟南路口", "address": "建國南路一段/濟南路三段口(東南側)", "district": "大安區", "slots": "16", "type": "electric_bike_sharing", "city": "taipei"}, "geometry": {"type": "Point", "coordinates": [121.538084, 25.040033]}}, {"type": "Feature", "properties": {"name": "福山公園", "address": "研究院路二段61巷15號(東側)", "district": "南港區", "slots": "24", "type": "electric_bike_sharing", "city": "taipei"}, "geometry": {"type": "Point", "coordinates": [121.61759, 25.04478]}}, {"type": "Feature", "properties": {"name": "臺北市網球中心", "address": "民權東路六段/民權東路六段210巷口(西南側)", "district": "內湖區", "slots": "16", "type": "electric_bike_sharing", "city": "taipei"}, "geometry": {"type": "Point", "coordinates": [121.59749, 25.0674]}}, {"type": "Feature", "properties": {"name": "松友公園", "address": "信義路六段76巷2弄16號(南側)", "district": "信義區", "slots": "8", "type": "electric_bike_sharing", "city": "taipei"}, "geometry": {"type": "Point", "coordinates": [121.57636, 25.03423]}}, {"type": "Feature", "properties": {"name": "新明成功路口", "address": "新明路/成功路二段口(西南側)", "district": "內湖區", "slots": "24", "type": "electric_bike_sharing", "city": "taipei"}, "geometry": {"type": "Point", "coordinates": [121.5911, 25.06058]}}, {"type": "Feature", "properties": {"name": "民權建國路口", "address": "民權東路三段/建國北路三段口(東北側)(鄰近建國假日花市)", "district": "中山區", "slots": "14", "type": "electric_bike_sharing", "city": "taipei"}, "geometry": {"type": "Point", "coordinates": [121.53754, 25.06252]}}, {"type": "Feature", "properties": {"name": "振興醫院", "address": "振興街/明德路口(西北側)(鄰近國立臺北護理健康大學)", "district": "北投區", "slots": "14", "type": "electric_bike_sharing", "city": "taipei"}, "geometry": {"type": "Point", "coordinates": [121.5222, 25.1177]}}, {"type": "Feature", "properties": {"name": "和平金山路口", "address": "和平東路一段 / 金山南路二段口(西南側)(鄰近臺灣師範大學)", "district": "大安區", "slots": "18", "type": "electric_bike_sharing", "city": "taipei"}, "geometry": {"type": "Point", "coordinates": [121.52533, 25.02672]}}, {"type": "Feature", "properties": {"name": "復興南路一段340巷口", "address": "復興南路一段322號(東南側)", "district": "大安區", "slots": "12", "type": "electric_bike_sharing", "city": "taipei"}, "geometry": {"type": "Point", "coordinates": [121.5435, 25.03617]}}, {"type": "Feature", "properties": {"name": "嘉興公園", "address": "樂業街101巷 / 樂業街口(北側側)", "district": "大安區", "slots": "12", "type": "electric_bike_sharing", "city": "taipei"}, "geometry": {"type": "Point", "coordinates": [121.55219, 25.02109]}}, {"type": "Feature", "properties": {"name": "陽明大學", "address": "東華街二段136號(南側)", "district": "北投區", "slots": "28", "type": "electric_bike_sharing", "city": "taipei"}, "geometry": {"type": "Point", "coordinates": [121.51223, 25.11912]}}, {"type": "Feature", "properties": {"name": "碧湖公園", "address": "內湖路二段/內湖路二段103巷口(東北側)(鄰近碧湖公園)", "district": "內湖區", "slots": "22", "type": "electric_bike_sharing", "city": "taipei"}, "geometry": {"type": "Point", "coordinates": [121.58287, 25.07988]}}, {"type": "Feature", "properties": {"name": "豐年公園", "address": "大業路539號(東側)", "district": "北投區", "slots": "14", "type": "electric_bike_sharing", "city": "taipei"}, "geometry": {"type": "Point", "coordinates": [121.497019, 25.13597]}}, {"type": "Feature", "properties": {"name": "臺灣戲曲中心", "address": "文林路751號(南側)(鄰近臺灣戲曲中心)", "district": "士林區", "slots": "28", "type": "electric_bike_sharing", "city": "taipei"}, "geometry": {"type": "Point", "coordinates": [121.51979, 25.10208]}}, {"type": "Feature", "properties": {"name": "世新大學", "address": "木柵路一段17巷1號(西側)", "district": "文山區", "slots": "10", "type": "electric_bike_sharing", "city": "taipei"}, "geometry": {"type": "Point", "coordinates": [121.54361, 24.98862]}}, {"type": "Feature", "properties": {"name": "南門國中", "address": "廣州街8巷/廣州街口(東南側)", "district": "中正區", "slots": "14", "type": "electric_bike_sharing", "city": "taipei"}, "geometry": {"type": "Point", "coordinates": [121.50834, 25.03532]}}, {"type": "Feature", "properties": {"name": "重慶民族路口", "address": "重慶北路三段154號(前方/東側)", "district": "大同區", "slots": "8", "type": "electric_bike_sharing", "city": "taipei"}, "geometry": {"type": "Point", "coordinates": [121.51359, 25.06825]}}, {"type": "Feature", "properties": {"name": "中崙福成宮", "address": "市民大道四段63號(鄰近微風廣場/黑松世界)", "district": "松山區", "slots": "10", "type": "electric_bike_sharing", "city": "taipei"}, "geometry": {"type": "Point", "coordinates": [121.546635, 25.04525]}}, {"type": "Feature", "properties": {"name": "麗湖國小", "address": "金湖路363巷5號對側", "district": "內湖區", "slots": "10", "type": "electric_bike_sharing", "city": "taipei"}, "geometry": {"type": "Point", "coordinates": [121.602225, 25.073322]}}, {"type": "Feature", "properties": {"name": "民生建國路口", "address": "民生東路三段 / 建國北路二段口", "district": "中山區", "slots": "14", "type": "electric_bike_sharing", "city": "taipei"}, "geometry": {"type": "Point", "coordinates": [121.536915, 25.057778]}}, {"type": "Feature", "properties": {"name": "南港路二段178巷口", "address": "南港路二段 / 南港路二段178巷口(北側)", "district": "南港區", "slots": "12", "type": "electric_bike_sharing", "city": "taipei"}, "geometry": {"type": "Point", "coordinates": [121.599693, 25.053675]}}, {"type": "Feature", "properties": {"name": "春光公園", "address": "忠孝東路五段721號(對側)", "district": "信義區", "slots": "38", "type": "electric_bike_sharing", "city": "taipei"}, "geometry": {"type": "Point", "coordinates": [121.580762, 25.042619]}}, {"type": "Feature", "properties": {"name": "塔悠疏散門", "address": "塔悠路 / 撫遠街389巷口(南側)", "district": "松山區", "slots": "10", "type": "electric_bike_sharing", "city": "taipei"}, "geometry": {"type": "Point", "coordinates": [121.567899, 25.064713]}}, {"type": "Feature", "properties": {"name": "民權東路六段15巷", "address": "民權東路六段15巷35號", "district": "內湖區", "slots": "16", "type": "electric_bike_sharing", "city": "taipei"}, "geometry": {"type": "Point", "coordinates": [121.578125, 25.06853]}}, {"type": "Feature", "properties": {"name": "聯合醫院和平院區", "address": "中華路二段33號(南側)", "district": "中正區", "slots": "10", "type": "electric_bike_sharing", "city": "taipei"}, "geometry": {"type": "Point", "coordinates": [121.50639, 25.03516]}}, {"type": "Feature", "properties": {"name": "一壽橋", "address": "樟新街64號前方", "district": "文山區", "slots": "10", "type": "electric_bike_sharing", "city": "taipei"}, "geometry": {"type": "Point", "coordinates": [121.55545, 24.97848]}}, {"type": "Feature", "properties": {"name": "和興路26巷口", "address": "和興路44巷 / 和興路26巷口", "district": "文山區", "slots": "24", "type": "electric_bike_sharing", "city": "taipei"}, "geometry": {"type": "Point", "coordinates": [121.54531, 24.9856]}}, {"type": "Feature", "properties": {"name": "錦州吉林路口", "address": "錦州街162號前方", "district": "中山區", "slots": "10", "type": "electric_bike_sharing", "city": "taipei"}, "geometry": {"type": "Point", "coordinates": [121.52981, 25.06029]}}, {"type": "Feature", "properties": {"name": "吳興街260巷", "address": "吳興街260巷 / 吳興街260巷19弄口(鄰近台北醫學大學)", "district": "信義區", "slots": "10", "type": "electric_bike_sharing", "city": "taipei"}, "geometry": {"type": "Point", "coordinates": [121.56316, 25.0261]}}, {"type": "Feature", "properties": {"name": "景華街128巷口", "address": "景華街126號前方", "district": "文山區", "slots": "18", "type": "electric_bike_sharing", "city": "taipei"}, "geometry": {"type": "Point", "coordinates": [121.547092, 24.995563]}}, {"type": "Feature", "properties": {"name": "福德國小", "address": "福德街251巷2號(對面/東側)", "district": "信義區", "slots": "6", "type": "electric_bike_sharing", "city": "taipei"}, "geometry": {"type": "Point", "coordinates": [121.586245, 25.038324]}}, {"type": "Feature", "properties": {"name": "稻香重三路口", "address": "稻香路 / 稻香路43巷口(西北側)", "district": "北投區", "slots": "20", "type": "electric_bike_sharing", "city": "taipei"}, "geometry": {"type": "Point", "coordinates": [121.489594, 25.139937]}}, {"type": "Feature", "properties": {"name": "景仁公園", "address": "景仁街 / 羅斯福路六段142巷口(北側)", "district": "文山區", "slots": "14", "type": "electric_bike_sharing", "city": "taipei"}, "geometry": {"type": "Point", "coordinates": [121.540295, 24.9966]}}, {"type": "Feature", "properties": {"name": "南京東興路口", "address": "南京東路五段 / 東興路口(北側)", "district": "松山區", "slots": "8", "type": "electric_bike_sharing", "city": "taipei"}, "geometry": {"type": "Point", "coordinates": [121.565347, 25.051489]}}, {"type": "Feature", "properties": {"name": "內溝溪生態展示館", "address": "康樂街236之3號(西北側)", "district": "內湖區", "slots": "8", "type": "electric_bike_sharing", "city": "taipei"}, "geometry": {"type": "Point", "coordinates": [121.623062, 25.087217]}}, {"type": "Feature", "properties": {"name": "松德虎林街口", "address": "松德路71號前方", "district": "信義區", "slots": "10", "type": "electric_bike_sharing", "city": "taipei"}, "geometry": {"type": "Point", "coordinates": [121.576248, 25.038352]}}, {"type": "Feature", "properties": {"name": "安強公園", "address": "虎林街212巷58號(西南側)", "district": "信義區", "slots": "10", "type": "electric_bike_sharing", "city": "taipei"}, "geometry": {"type": "Point", "coordinates": [121.575413, 25.036844]}}, {"type": "Feature", "properties": {"name": "新東街51巷口", "address": "三民路 / 新東街51巷口(東側)(鄰近松山親子館)", "district": "松山區", "slots": "12", "type": "electric_bike_sharing", "city": "taipei"}, "geometry": {"type": "Point", "coordinates": [121.563318, 25.061501]}}, {"type": "Feature", "properties": {"name": "劍潭海外青年活動中心", "address": "通河街 / 通河街2巷(南側)(鄰近圓山大飯店/劍潭公園)(鄰近芝山岩/芝山巖惠濟宮/芝山文化生態綠園)", "district": "士林區", "slots": "12", "type": "electric_bike_sharing", "city": "taipei"}, "geometry": {"type": "Point", "coordinates": [121.5237, 25.079603]}}, {"type": "Feature", "properties": {"name": "聯合醫院陽明院區", "address": "雨聲街105號(南側)", "district": "士林區", "slots": "24", "type": "electric_bike_sharing", "city": "taipei"}, "geometry": {"type": "Point", "coordinates": [121.531949, 25.104546]}}, {"type": "Feature", "properties": {"name": "和平敦化路口", "address": "和平東路三段 / 敦化南路二段口(東側)", "district": "大安區", "slots": "12", "type": "electric_bike_sharing", "city": "taipei"}, "geometry": {"type": "Point", "coordinates": [121.549076, 25.02444]}}, {"type": "Feature", "properties": {"name": "南京新生路口", "address": "新生北路一段 / 南京東路一段口(橋墩下方)(鄰近林森公園/康樂公園)", "district": "中山區", "slots": "8", "type": "electric_bike_sharing", "city": "taipei"}, "geometry": {"type": "Point", "coordinates": [121.527661, 25.051944]}}, {"type": "Feature", "properties": {"name": "下灣公園", "address": "民權東路六段206巷 / 民權東路六段190巷75弄口", "district": "內湖區", "slots": "12", "type": "electric_bike_sharing", "city": "taipei"}, "geometry": {"type": "Point", "coordinates": [121.595611, 25.065159]}}, {"type": "Feature", "properties": {"name": "捷運內湖站(1號出口)", "address": "成功路四段182巷 / 成功路四段182巷6弄口(東南側)", "district": "內湖區", "slots": "10", "type": "electric_bike_sharing", "city": "taipei"}, "geometry": {"type": "Point", "coordinates": [121.593929, 25.083868]}}, {"type": "Feature", "properties": {"name": "民族延平路口", "address": "民族西路 310 號前方", "district": "大同區", "slots": "10", "type": "electric_bike_sharing", "city": "taipei"}, "geometry": {"type": "Point", "coordinates": [121.510569, 25.068653]}}, {"type": "Feature", "properties": {"name": "捷運科技大樓站(台北教育大學)", "address": "和平東路二段134號(前方)", "district": "大安區", "slots": "20", "type": "electric_bike_sharing", "city": "taipei"}, "geometry": {"type": "Point", "coordinates": [121.544156, 25.024685]}}, {"type": "Feature", "properties": {"name": "YouBike2.0_下庄市場", "address": "舊城路21號(前)", "district": "八里區", "slots": "20", "type": "electric_bike_sharing", "city": "newtaipei"}, "geometry": {"type": "Point", "coordinates": [121.3999, 25.14678]}}, {"type": "Feature", "properties": {"name": "YouBike2.0_八里行政中心", "address": "十三行路(靠中山路二段路口西南側人行道)", "district": "八里區", "slots": "20", "type": "electric_bike_sharing", "city": "newtaipei"}, "geometry": {"type": "Point", "coordinates": [121.40721, 25.15397]}}, {"type": "Feature", "properties": {"name": "YouBike2.0_八里中庄市場綜合大樓", "address": "中山路一段268巷2號(對面汽車停車場)", "district": "八里區", "slots": "28", "type": "electric_bike_sharing", "city": "newtaipei"}, "geometry": {"type": "Point", "coordinates": [121.41407, 25.15993]}}, {"type": "Feature", "properties": {"name": "YouBike2.0_大崁國小", "address": "忠八街2號(前)", "district": "八里區", "slots": "20", "type": "electric_bike_sharing", "city": "newtaipei"}, "geometry": {"type": "Point", "coordinates": [121.41938, 25.16064]}}, {"type": "Feature", "properties": {"name": "YouBike2.0_龍形停車場", "address": "龍米路一段318號(對面停車場)", "district": "八里區", "slots": "40", "type": "electric_bike_sharing", "city": "newtaipei"}, "geometry": {"type": "Point", "coordinates": [121.4513, 25.13041]}}, {"type": "Feature", "properties": {"name": "YouBike2.0_十三行博物館", "address": "博物館路183號(對面)", "district": "八里區", "slots": "46", "type": "electric_bike_sharing", "city": "newtaipei"}, "geometry": {"type": "Point", "coordinates": [121.406, 25.157]}}, {"type": "Feature", "properties": {"name": "YouBike2.0_八里區民活動中心", "address": "中山路二段356巷12號(旁)", "district": "八里區", "slots": "14", "type": "electric_bike_sharing", "city": "newtaipei"}, "geometry": {"type": "Point", "coordinates": [121.40126, 25.14933]}}, {"type": "Feature", "properties": {"name": "YouBike2.0_挖仔尾自然生態保留區", "address": "博物館路/挖仔尾街口(西側)", "district": "八里區", "slots": "15", "type": "electric_bike_sharing", "city": "newtaipei"}, "geometry": {"type": "Point", "coordinates": [121.41586, 25.16419]}}, {"type": "Feature", "properties": {"name": "YouBike2.0_文昌公園", "address": "中山路二段/文昌路(東側)", "district": "八里區", "slots": "15", "type": "electric_bike_sharing", "city": "newtaipei"}, "geometry": {"type": "Point", "coordinates": [121.41033, 25.15709]}}, {"type": "Feature", "properties": {"name": "YouBike2.0_八里國小", "address": "中山路二段251號(對面)", "district": "八里區", "slots": "15", "type": "electric_bike_sharing", "city": "newtaipei"}, "geometry": {"type": "Point", "coordinates": [121.4026, 25.14896]}}, {"type": "Feature", "properties": {"name": "YouBike2.0_八里文化公園(棒球場)", "address": "忠孝路與挖仔街口(棒球場公園入口)", "district": "八里區", "slots": "60", "type": "electric_bike_sharing", "city": "newtaipei"}, "geometry": {"type": "Point", "coordinates": [121.41251, 25.16359]}}, {"type": "Feature", "properties": {"name": "YouBike2.0_水興公", "address": "觀海大道/忠四街(北側)", "district": "八里區", "slots": "15", "type": "electric_bike_sharing", "city": "newtaipei"}, "geometry": {"type": "Point", "coordinates": [121.42509, 25.16208]}}, {"type": "Feature", "properties": {"name": "YouBike2.0_片仔溝公園", "address": "中華路二段210號旁", "district": "八里區", "slots": "20", "type": "electric_bike_sharing", "city": "newtaipei"}, "geometry": {"type": "Point", "coordinates": [121.40581, 25.1502]}}, {"type": "Feature", "properties": {"name": "YouBike2.0_八里福朋喜來登酒店", "address": "觀海大道8號", "district": "八里區", "slots": "30", "type": "electric_bike_sharing", "city": "newtaipei"}, "geometry": {"type": "Point", "coordinates": [121.42945, 25.15922]}}, {"type": "Feature", "properties": {"name": "YouBike2.0_訊塘社區公園", "address": "商港路/中山路二段口(東北側)", "district": "八里區", "slots": "13", "type": "electric_bike_sharing", "city": "newtaipei"}, "geometry": {"type": "Point", "coordinates": [121.39609, 25.1455]}}, {"type": "Feature", "properties": {"name": "YouBike2.0_商港公園(商港八商港一路口)", "address": "商港八路/商港一路口", "district": "八里區", "slots": "15", "type": "electric_bike_sharing", "city": "newtaipei"}, "geometry": {"type": "Point", "coordinates": [121.40026, 25.15039]}}, {"type": "Feature", "properties": {"name": "YouBike2.0_商港公園(商港七商港一路口)", "address": "商港七路/商港一路口", "district": "八里區", "slots": "15", "type": "electric_bike_sharing", "city": "newtaipei"}, "geometry": {"type": "Point", "coordinates": [121.39841, 25.14916]}}, {"type": "Feature", "properties": {"name": "YouBike2.0_渡船頭平面停車場", "address": "渡船頭路/龍米路二段口(西北側)", "district": "八里區", "slots": "33", "type": "electric_bike_sharing", "city": "newtaipei"}, "geometry": {"type": "Point", "coordinates": [121.43527, 25.15687]}}, {"type": "Feature", "properties": {"name": "YouBike2.0_訊塘廣場(義民中華路口)", "address": "義民街/中華路三段口", "district": "八里區", "slots": "21", "type": "electric_bike_sharing", "city": "newtaipei"}, "geometry": {"type": "Point", "coordinates": [121.39564, 25.14256]}}, {"type": "Feature", "properties": {"name": "YouBike2.0_八里停五平面停車場", "address": "賢三街/大崁二街口(西南側)", "district": "八里區", "slots": "30", "type": "electric_bike_sharing", "city": "newtaipei"}, "geometry": {"type": "Point", "coordinates": [121.41758, 25.15779]}}, {"type": "Feature", "properties": {"name": "YouBike2.0_頂罟公園", "address": "商港一路/商港九路(南側)", "district": "八里區", "slots": "15", "type": "electric_bike_sharing", "city": "newtaipei"}, "geometry": {"type": "Point", "coordinates": [121.40413, 25.1533]}}, {"type": "Feature", "properties": {"name": "YouBike2.0_狀元公園", "address": "狀元路/文昌五街(西北側)", "district": "八里區", "slots": "20", "type": "electric_bike_sharing", "city": "newtaipei"}, "geometry": {"type": "Point", "coordinates": [121.41036, 25.1545]}}, {"type": "Feature", "properties": {"name": "YouBike2.0_商港三頂罟二路口", "address": "商港三路101號(西北側)", "district": "八里區", "slots": "25", "type": "electric_bike_sharing", "city": "newtaipei"}, "geometry": {"type": "Point", "coordinates": [121.40168, 25.15333]}}, {"type": "Feature", "properties": {"name": "YouBike2.0_商港六商港三路口", "address": "商港六路/商港三路(西北側)", "district": "八里區", "slots": "15", "type": "electric_bike_sharing", "city": "newtaipei"}, "geometry": {"type": "Point", "coordinates": [121.39589, 25.14968]}}, {"type": "Feature", "properties": {"name": "YouBike2.0_訊庄埔公園", "address": "訊塘二路/添丁街(西北側)", "district": "八里區", "slots": "15", "type": "electric_bike_sharing", "city": "newtaipei"}, "geometry": {"type": "Point", "coordinates": [121.39222, 25.14244]}}, {"type": "Feature", "properties": {"name": "YouBike2.0_八里左岸自行車道(4.4K福德宮)", "address": "龍米路二段86-9號(自行車道旁)", "district": "八里區", "slots": "15", "type": "electric_bike_sharing", "city": "newtaipei"}, "geometry": {"type": "Point", "coordinates": [121.44789, 25.14315]}}, {"type": "Feature", "properties": {"name": "YouBike2.0_中山賢一街口", "address": "中山路一段25號", "district": "八里區", "slots": "17", "type": "electric_bike_sharing", "city": "newtaipei"}, "geometry": {"type": "Point", "coordinates": [121.42144, 25.15916]}}, {"type": "Feature", "properties": {"name": "YouBike2.0_商港一十三行路口", "address": "商港一路/十三行路口(南側)", "district": "八里區", "slots": "30", "type": "electric_bike_sharing", "city": "newtaipei"}, "geometry": {"type": "Point", "coordinates": [121.40558, 25.15483]}}, {"type": "Feature", "properties": {"name": "YouBike2.0_龍米路二段205巷口", "address": "龍米路二段228-3號", "district": "八里區", "slots": "22", "type": "electric_bike_sharing", "city": "newtaipei"}, "geometry": {"type": "Point", "coordinates": [121.43231, 25.1585]}}, {"type": "Feature", "properties": {"name": "YouBike2.0_淺水灣", "address": "北勢子42-11號西側", "district": "三芝區", "slots": "48", "type": "electric_bike_sharing", "city": "newtaipei"}, "geometry": {"type": "Point", "coordinates": [121.47131, 25.25232]}}, {"type": "Feature", "properties": {"name": "YouBike2.0_三芝國中", "address": "淡金路一段38號", "district": "三芝區", "slots": "14", "type": "electric_bike_sharing", "city": "newtaipei"}, "geometry": {"type": "Point", "coordinates": [121.50182, 25.25898]}}, {"type": "Feature", "properties": {"name": "YouBike2.0_櫻花水車公園", "address": "埔頭里埔頭11-5號南側", "district": "三芝區", "slots": "15", "type": "electric_bike_sharing", "city": "newtaipei"}, "geometry": {"type": "Point", "coordinates": [121.50125, 25.25119]}}, {"type": "Feature", "properties": {"name": "YouBike2.0_三芝兒一公園", "address": "長安街79號西側", "district": "三芝區", "slots": "15", "type": "electric_bike_sharing", "city": "newtaipei"}, "geometry": {"type": "Point", "coordinates": [121.4994, 25.25719]}}, {"type": "Feature", "properties": {"name": "YouBike2.0_三芝區公所", "address": "中山路一段32號", "district": "三芝區", "slots": "15", "type": "electric_bike_sharing", "city": "newtaipei"}, "geometry": {"type": "Point", "coordinates": [121.50082, 25.25788]}},