{"type": "FeatureCollection", "features": [{"type": "Feature", "geometry": {"type": "Point", "coordinates": [121.513, 25.046]}, "properties": {"address": "\u81fa\u5317\u5e02\u4e2d\u6b63\u5340\u91cd\u6176\u5357\u8def1\u865f", "person_capacity": 600, "town": "\u4e2d\u6b63\u5340", "area": 1200, "is_accessible": true}}, {"type": "Feature", "geometry": {"type": "Point", "coordinates": [121.51, 25.042]}, "properties": {"address": "\u81fa\u5317\u5e02\u4e2d\u6b63\u5340\u611b\u570b\u897f\u8def100\u865f", "person_capacity": 400, "town": "\u4e2d\u6b63\u5340", "area": 800, "is_accessible": false}}, {"type": "Feature", "geometry": {"type": "Point", "coordinates": [121.532, 25.025]}, "properties": {"address": "\u81fa\u5317\u5e02\u5927\u5b89\u5340\u7f85\u65af\u798f\u8def2\u865f", "person_capacity": 450, "town": "\u5927\u5b89\u5340", "area": 900, "is_accessible": true}}, {"type": "Feature", "geometry": {"type": "Point", "coordinates": [121.566, 25.033]}, "properties": {"address": "\u81fa\u5317\u5e02\u4fe1\u7fa9\u5340\u4fe1\u7fa9\u8def5\u865f", "person_capacity": 750, "town": "\u4fe1\u7fa9\u5340", "area": 1500, "is_accessible": true}}, {"type": "Feature", "geometry": {"type": "Point", "coordinates": [121.577, 25.05]}, "properties": {"address": "\u81fa\u5317\u5e02\u677e\u5c71\u5340\u5357\u4eac\u6771\u8def4\u865f", "person_capacity": 350, "town": "\u677e\u5c71\u5340", "area": 700, "is_accessible": true}}]}