{
  "type": "FeatureCollection",
  "crs": {
    "type": "name",
    "properties": {
      "name": "urn:ogc:def:crs:OGC:1.3:CRS84"
    }
  },
  "features": [
    {
      "type": "Feature",
      "properties": {
        "stop_id": "U101001",
        "stop_name": "捷運科技大樓站",
        "capacity": 28,
        "latitude": 25.02605,
        "longitude": 121.5436,
        "category": "高"
      },
      "geometry": {
        "type": "Point",
        "coordinates": [
          121.5436,
          25.02605
        ]
      }
    },
    {
      "type": "Feature",
      "properties": {
        "stop_id": "U101002",
        "stop_name": "復興南路二段273號前",
        "capacity": 21,
        "latitude": 25.02565,
        "longitude": 121.54357,
        "category": "中"
      },
      "geometry": {
        "type": "Point",
        "coordinates": [
          121.54357,
          25.02565
        ]
      }
    },
    {
      "type": "Feature",
      "properties": {
        "stop_id": "U101003",
        "stop_name": "國北教大實小東側門",
        "capacity": 28,
        "latitude": 25.02429,
        "longitude": 121.54124,
        "category": "高"
      },
      "geometry": {
        "type": "Point",
        "coordinates": [
          121.54124,
          25.02429
        ]
      }
    },
    {
      "type": "Feature",
      "properties": {
        "stop_id": "U101004",
        "stop_name": "和平公園東側",
        "capacity": 11,
        "latitude": 25.02351,
        "longitude": 121.54282,
        "category": "高"
      },
      "geometry": {
        "type": "Point",
        "coordinates": [
          121.54282,
          25.02351
        ]
      }
    },
    {
      "type": "Feature",
      "properties": {
        "stop_id": "U101005",
        "stop_name": "辛亥復興路口西北側",
        "capacity": 16,
        "latitude": 25.02153,
        "longitude": 121.54299,
        "category": "高"
      },
      "geometry": {
        "type": "Point",
        "coordinates": [
          121.54299,
          25.02153
        ]
      }
    },
    {
      "type": "Feature",
      "properties": {
        "stop_id": "U101006",
        "stop_name": "復興南路二段280號前",
        "capacity": 27,
        "latitude": 25.02429,
        "longitude": 121.54328,
        "category": "高"
      },
      "geometry": {
        "type": "Point",
        "coordinates": [
          121.54328,
          25.02429
        ]
      }
    },
    {
      "type": "Feature",
      "properties": {
        "stop_id": "U101007",
        "stop_name": "復興南路二段340巷口",
        "capacity": 11,
        "latitude": 25.02253,
        "longitude": 121.54326,
        "category": "中"
      },
      "geometry": {
        "type": "Point",
        "coordinates": [
          121.54326,
          25.02253
        ]
      }
    },
    {
      "type": "Feature",
      "properties": {
        "stop_id": "U101008",
        "stop_name": "新生南路三段52號前",
        "capacity": 17,
        "latitude": 25.02112,
        "longitude": 121.53407,
        "category": "高"
      },
      "geometry": {
        "type": "Point",
        "coordinates": [
          121.53407,
          25.02112
        ]
      }
    },
    {
      "type": "Feature",
      "properties": {
        "stop_id": "U101009",
        "stop_name": "新生南路三段66號前",
        "capacity": 16,
        "latitude": 25.01976,
        "longitude": 121.53384,
        "category": "高"
      },
      "geometry": {
        "type": "Point",
        "coordinates": [
          121.53384,
          25.01976
        ]
      }
    },
    {
      "type": "Feature",
      "properties": {
        "stop_id": "U101010",
        "stop_name": "新生南路三段82號前",
        "capacity": 20,
        "latitude": 25.01894,
        "longitude": 121.53361,
        "category": "高"
      },
      "geometry": {
        "type": "Point",
        "coordinates": [
          121.53361,
          25.01894
        ]
      }
    },
    {
      "type": "Feature",
      "properties": {
        "stop_id": "U101012",
        "stop_name": "辛亥路一段30號前",
        "capacity": 8,
        "latitude": 25.01986,
        "longitude": 121.52982,
        "category": "中"
      },
      "geometry": {
        "type": "Point",
        "coordinates": [
          121.52982,
          25.01986
        ]
      }
    },
    {
      "type": "Feature",
      "properties": {
        "stop_id": "U101013",
        "stop_name": "和平復興路口西北側",
        "capacity": 9,
        "latitude": 25.02543,
        "longitude": 121.54332,
        "category": "高"
      },
      "geometry": {
        "type": "Point",
        "coordinates": [
          121.54332,
          25.02543
        ]
      }
    },
    {
      "type": "Feature",
      "properties": {
        "stop_id": "U101014",
        "stop_name": "羅斯福路三段311號前",
        "capacity": 11,
        "latitude": 25.01717,
        "longitude": 121.53202,
        "category": "高"
      },
      "geometry": {
        "type": "Point",
        "coordinates": [
          121.53202,
          25.01717
        ]
      }
    },
    {
      "type": "Feature",
      "properties": {
        "stop_id": "U101015",
        "stop_name": "大安運動中心停車場",
        "capacity": 19,
        "latitude": 25.02089,
        "longitude": 121.54697,
        "category": "高"
      },
      "geometry": {
        "type": "Point",
        "coordinates": [
          121.54697,
          25.02089
        ]
      }
    },
    {
      "type": "Feature",
      "properties": {
        "stop_id": "U101016",
        "stop_name": "羅斯福路三段245號前",
        "capacity": 8,
        "latitude": 25.01927,
        "longitude": 121.52989,
        "category": "中"
      },
      "geometry": {
        "type": "Point",
        "coordinates": [
          121.52989,
          25.01927
        ]
      }
    },
    {
      "type": "Feature",
      "properties": {
        "stop_id": "U101018",
        "stop_name": "溫州公園",
        "capacity": 5,
        "latitude": 25.01895,
        "longitude": 121.53156,
        "category": "高"
      },
      "geometry": {
        "type": "Point",
        "coordinates": [
          121.53156,
          25.01895
        ]
      }
    },
    {
      "type": "Feature",
      "properties": {
        "stop_id": "U101019",
        "stop_name": "和平臥龍街口",
        "capacity": 24,
        "latitude": 25.024461,
        "longitude": 121.546705,
        "category": "高"
      },
      "geometry": {
        "type": "Point",
        "coordinates": [
          121.546705,
          25.024461
        ]
      }
    },
    {
      "type": "Feature",
      "properties": {
        "stop_id": "U101021",
        "stop_name": "銘傳國小側門",
        "capacity": 7,
        "latitude": 25.01385,
        "longitude": 121.53549,
        "category": "中"
      },
      "geometry": {
        "type": "Point",
        "coordinates": [
          121.53549,
          25.01385
        ]
      }
    },
    {
      "type": "Feature",
      "properties": {
        "stop_id": "U101022",
        "stop_name": "捷運公館站(2號出口)",
        "capacity": 99,
        "latitude": 25.01491,
        "longitude": 121.53438,
        "category": "高"
      },
      "geometry": {
        "type": "Point",
        "coordinates": [
          121.53438,
          25.01491
        ]
      }
    },
    {
      "type": "Feature",
      "properties": {
        "stop_id": "U101023",
        "stop_name": "第二學生活動中心",
        "capacity": 87,
        "latitude": 25.01244,
        "longitude": 121.53661,
        "category": "高"
      },
      "geometry": {
        "type": "Point",
        "coordinates": [
          121.53661,
          25.01244
        ]
      }
    },
    {
      "type": "Feature",
      "properties": {
        "stop_id": "U101024",
        "stop_name": "臺灣科技大學正門",
        "capacity": 50,
        "latitude": 25.01451,
        "longitude": 121.54142,
        "category": "中"
      },
      "geometry": {
        "type": "Point",
        "coordinates": [
          121.54142,
          25.01451
        ]
      }
    },
    {
      "type": "Feature",
      "properties": {
        "stop_id": "U101025",
        "stop_name": "臺灣科技大學側門",
        "capacity": 97,
        "latitude": 25.01295,
        "longitude": 121.53973,
        "category": "高"
      },
      "geometry": {
        "type": "Point",
        "coordinates": [
          121.53973,
          25.01295
        ]
      }
    },
    {
      "type": "Feature",
      "properties": {
        "stop_id": "U101026",
        "stop_name": "公館公園",
        "capacity": 30,
        "latitude": 25.01137,
        "longitude": 121.54062,
        "category": "中"
      },
      "geometry": {
        "type": "Point",
        "coordinates": [
          121.54062,
          25.01137
        ]
      }
    },
    {
      "type": "Feature",
      "properties": {
        "stop_id": "U101027",
        "stop_name": "臺灣科技大學後門",
        "capacity": 39,
        "latitude": 25.01182,
        "longitude": 121.54165,
        "category": "高"
      },
      "geometry": {
        "type": "Point",
        "coordinates": [
          121.54165,
          25.01182
        ]
      }
    },
    {
      "type": "Feature",
      "properties": {
        "stop_id": "U101028",
        "stop_name": "臺大醫學院附設癌醫中心",
        "capacity": 20,
        "latitude": 25.01426,
        "longitude": 121.54382,
        "category": "中"
      },
      "geometry": {
        "type": "Point",
        "coordinates": [
          121.54382,
          25.01426
        ]
      }
    },
    {
      "type": "Feature",
      "properties": {
        "stop_id": "U101029",
        "stop_name": "臺大環研大樓",
        "capacity": 41,
        "latitude": 25.01234,
        "longitude": 121.54503,
        "category": "中"
      },
      "geometry": {
        "type": "Point",
        "coordinates": [
          121.54503,
          25.01234
        ]
      }
    },
    {
      "type": "Feature",
      "properties": {
        "stop_id": "U101030",
        "stop_name": "臺大永齡生醫工程館",
        "capacity": 34,
        "latitude": 25.0136,
        "longitude": 121.54656,
        "category": "高"
      },
      "geometry": {
        "type": "Point",
        "coordinates": [
          121.54656,
          25.0136
        ]
      }
    },
    {
      "type": "Feature",
      "properties": {
        "stop_id": "U101031",
        "stop_name": "臺大男七舍前",
        "capacity": 20,
        "latitude": 25.01537,
        "longitude": 121.54698,
        "category": "高"
      },
      "geometry": {
        "type": "Point",
        "coordinates": [
          121.54698,
          25.01537
        ]
      }
    },
    {
      "type": "Feature",
      "properties": {
        "stop_id": "U101032",
        "stop_name": "臺大男一舍前",
        "capacity": 61,
        "latitude": 25.01637,
        "longitude": 121.54535,
        "category": "高"
      },
      "geometry": {
        "type": "Point",
        "coordinates": [
          121.54535,
          25.01637
        ]
      }
    },
    {
      "type": "Feature",
      "properties": {
        "stop_id": "U101033",
        "stop_name": "臺大男六舍前",
        "capacity": 40,
        "latitude": 25.01664,
        "longitude": 121.5452,
        "category": "中"
      },
      "geometry": {
        "type": "Point",
        "coordinates": [
          121.5452,
          25.01664
        ]
      }
    },
    {
      "type": "Feature",
      "properties": {
        "stop_id": "U101034",
        "stop_name": "臺大動物醫院前",
        "capacity": 18,
        "latitude": 25.01576,
        "longitude": 121.54291,
        "category": "中"
      },
      "geometry": {
        "type": "Point",
        "coordinates": [
          121.54291,
          25.01576
        ]
      }
    },
    {
      "type": "Feature",
      "properties": {
        "stop_id": "U101035",
        "stop_name": "臺大土木研究大樓前",
        "capacity": 24,
        "latitude": 25.01787,
        "longitude": 121.5476,
        "category": "高"
      },
      "geometry": {
        "type": "Point",
        "coordinates": [
          121.5476,
          25.01787
        ]
      }
    },
    {
      "type": "Feature",
      "properties": {
        "stop_id": "U101036",
        "stop_name": "臺大萬才館前",
        "capacity": 20,
        "latitude": 25.02032,
        "longitude": 121.54497,
        "category": "中"
      },
      "geometry": {
        "type": "Point",
        "coordinates": [
          121.54497,
          25.02032
        ]
      }
    },
    {
      "type": "Feature",
      "properties": {
        "stop_id": "U101037",
        "stop_name": "臺大國青大樓宿舍前",
        "capacity": 20,
        "latitude": 25.02076,
        "longitude": 121.54432,
        "category": "高"
      },
      "geometry": {
        "type": "Point",
        "coordinates": [
          121.54432,
          25.02076
        ]
      }
    },
    {
      "type": "Feature",
      "properties": {
        "stop_id": "U101038",
        "stop_name": "臺大社科院圖書館前",
        "capacity": 27,
        "latitude": 25.02101,
        "longitude": 121.54284,
        "category": "中"
      },
      "geometry": {
        "type": "Point",
        "coordinates": [
          121.54284,
          25.02101
        ]
      }
    },
    {
      "type": "Feature",
      "properties": {
        "stop_id": "U101039",
        "stop_name": "臺大法人語言訓練中心前",
        "capacity": 28,
        "latitude": 25.02104,
        "longitude": 121.54081,
        "category": "高"
      },
      "geometry": {
        "type": "Point",
        "coordinates": [
          121.54081,
          25.02104
        ]
      }
    },
    {
      "type": "Feature",
      "properties": {
        "stop_id": "U101040",
        "stop_name": "臺大綜合體育館停車場前",
        "capacity": 25,
        "latitude": 25.0222,
        "longitude": 121.53626,
        "category": "高"
      },
      "geometry": {
        "type": "Point",
        "coordinates": [
          121.53626,
          25.0222
        ]
      }
    },
    {
      "type": "Feature",
      "properties": {
        "stop_id": "U101041",
        "stop_name": "辛亥新生路口東南側",
        "capacity": 50,
        "latitude": 25.02218,
        "longitude": 121.53474,
        "category": "高"
      },
      "geometry": {
        "type": "Point",
        "coordinates": [
          121.53474,
          25.02218
        ]
      }
    },
    {
      "type": "Feature",
      "properties": {
        "stop_id": "U101042",
        "stop_name": "基隆長興路口東側",
        "capacity": 15,
        "latitude": 25.01727,
        "longitude": 121.54471,
        "category": "中"
      },
      "geometry": {
        "type": "Point",
        "coordinates": [
          121.54471,
          25.01727
        ]
      }
    },
    {
      "type": "Feature",
      "properties": {
        "stop_id": "U101091",
        "stop_name": "國北教大側門南側",
        "capacity": 34,
        "latitude": 25.022864,
        "longitude": 121.546622,
        "category": "高"
      },
      "geometry": {
        "type": "Point",
        "coordinates": [
          121.546622,
          25.022864
        ]
      }
    },
    {
      "type": "Feature",
      "properties": {
        "stop_id": "U101092",
        "stop_name": "和平實小東北側",
        "capacity": 25,
        "latitude": 25.021641,
        "longitude": 121.54704,
        "category": "高"
      },
      "geometry": {
        "type": "Point",
        "coordinates": [
          121.54704,
          25.021641
        ]
      }
    },
    {
      "type": "Feature",
      "properties": {
        "stop_id": "U101093",
        "stop_name": "大安區健康服務中心",
        "capacity": 23,
        "latitude": 25.021469,
        "longitude": 121.544069,
        "category": "中"
      },
      "geometry": {
        "type": "Point",
        "coordinates": [
          121.544069,
          25.021469
        ]
      }
    },
    {
      "type": "Feature",
      "properties": {
        "stop_id": "U101094",
        "stop_name": "辛亥泰順街口",
        "capacity": 20,
        "latitude": 25.02193,
        "longitude": 121.53165,
        "category": "高"
      },
      "geometry": {
        "type": "Point",
        "coordinates": [
          121.53165,
          25.02193
        ]
      }
    },
    {
      "type": "Feature",
      "properties": {
        "stop_id": "U101095",
        "stop_name": "臺北市芳和實驗中學",
        "capacity": 76,
        "latitude": 25.0189,
        "longitude": 121.55013,
        "category": "高"
      },
      "geometry": {
        "type": "Point",
        "coordinates": [
          121.55013,
          25.0189
        ]
      }
    },
    {
      "type": "Feature",
      "properties": {
        "stop_id": "U101097",
        "stop_name": "臥龍樂業街口",
        "capacity": 64,
        "latitude": 25.01856,
        "longitude": 121.55558,
        "category": "高"
      },
      "geometry": {
        "type": "Point",
        "coordinates": [
          121.55558,
          25.01856
        ]
      }
    },
    {
      "type": "Feature",
      "properties": {
        "stop_id": "U101098",
        "stop_name": "臥龍公園",
        "capacity": 25,
        "latitude": 25.01623,
        "longitude": 121.55037,
        "category": "高"
      },
      "geometry": {
        "type": "Point",
        "coordinates": [
          121.55037,
          25.01623
        ]
      }
    },
    {
      "type": "Feature",
      "properties": {
        "stop_id": "U101099",
        "stop_name": "嘉興公園",
        "capacity": 44,
        "latitude": 25.021,
        "longitude": 121.55211,
        "category": "高"
      },
      "geometry": {
        "type": "Point",
        "coordinates": [
          121.55211,
          25.021
        ]
      }
    },
    {
      "type": "Feature",
      "properties": {
        "stop_id": "U101100",
        "stop_name": "捷運麟光站(2號出口)",
        "capacity": 69,
        "latitude": 25.0181,
        "longitude": 121.55929,
        "category": "高"
      },
      "geometry": {
        "type": "Point",
        "coordinates": [
          121.55929,
          25.0181
        ]
      }
    },
    {
      "type": "Feature",
      "properties": {
        "stop_id": "U101101",
        "stop_name": "捷運六張犁站",
        "capacity": 64,
        "latitude": 25.02397,
        "longitude": 121.55266,
        "category": "高"
      },
      "geometry": {
        "type": "Point",
        "coordinates": [
          121.55266,
          25.02397
        ]
      }
    },
    {
      "type": "Feature",
      "properties": {
        "stop_id": "U101102",
        "stop_name": "喬治工商",
        "capacity": 22,
        "latitude": 25.02705,
        "longitude": 121.55551,
        "category": "高"
      },
      "geometry": {
        "type": "Point",
        "coordinates": [
          121.55551,
          25.02705
        ]
      }
    },
    {
      "type": "Feature",
      "properties": {
        "stop_id": "U101103",
        "stop_name": "法治公園",
        "capacity": 41,
        "latitude": 25.02694,
        "longitude": 121.55325,
        "category": "高"
      },
      "geometry": {
        "type": "Point",
        "coordinates": [
          121.55325,
          25.02694
        ]
      }
    },
    {
      "type": "Feature",
      "properties": {
        "stop_id": "U101104",
        "stop_name": "捷運臺電大樓站(2號出口)",
        "capacity": 18,
        "latitude": 25.02021,
        "longitude": 121.52942,
        "category": "中"
      },
      "geometry": {
        "type": "Point",
        "coordinates": [
          121.52942,
          25.02021
        ]
      }
    },
    {
      "type": "Feature",
      "properties": {
        "stop_id": "U101105",
        "stop_name": "和平金山路口",
        "capacity": 58,
        "latitude": 25.02669,
        "longitude": 121.52529,
        "category": "高"
      },
      "geometry": {
        "type": "Point",
        "coordinates": [
          121.52529,
          25.02669
        ]
      }
    },
    {
      "type": "Feature",
      "properties": {
        "stop_id": "U101107",
        "stop_name": "和平龍泉街口",
        "capacity": 34,
        "latitude": 25.02638,
        "longitude": 121.52971,
        "category": "高"
      },
      "geometry": {
        "type": "Point",
        "coordinates": [
          121.52971,
          25.02638
        ]
      }
    },
    {
      "type": "Feature",
      "properties": {
        "stop_id": "U101108",
        "stop_name": "和平泰順街口",
        "capacity": 19,
        "latitude": 25.02621,
        "longitude": 121.53171,
        "category": "高"
      },
      "geometry": {
        "type": "Point",
        "coordinates": [
          121.53171,
          25.02621
        ]
      }
    },
    {
      "type": "Feature",
      "properties": {
        "stop_id": "U101109",
        "stop_name": "臺灣師範大學(圖書館)",
        "capacity": 40,
        "latitude": 25.0266,
        "longitude": 121.52973,
        "category": "高"
      },
      "geometry": {
        "type": "Point",
        "coordinates": [
          121.52973,
          25.0266
        ]
      }
    },
    {
      "type": "Feature",
      "properties": {
        "stop_id": "U101110",
        "stop_name": "捷運古亭站(6號出口)",
        "capacity": 60,
        "latitude": 25.0276,
        "longitude": 121.52217,
        "category": "高"
      },
      "geometry": {
        "type": "Point",
        "coordinates": [
          121.52217,
          25.0276
        ]
      }
    },
    {
      "type": "Feature",
      "properties": {
        "stop_id": "U101113",
        "stop_name": "臺北市立圖書館(總館)",
        "capacity": 99,
        "latitude": 25.02895,
        "longitude": 121.5379,
        "category": "高"
      },
      "geometry": {
        "type": "Point",
        "coordinates": [
          121.5379,
          25.02895
        ]
      }
    },
    {
      "type": "Feature",
      "properties": {
        "stop_id": "U101114",
        "stop_name": "新生和平路口東北側",
        "capacity": 51,
        "latitude": 25.02657,
        "longitude": 121.53515,
        "category": "高"
      },
      "geometry": {
        "type": "Point",
        "coordinates": [
          121.53515,
          25.02657
        ]
      }
    },
    {
      "type": "Feature",
      "properties": {
        "stop_id": "U101115",
        "stop_name": "建國和平路口西北側",
        "capacity": 50,
        "latitude": 25.02606,
        "longitude": 121.53738,
        "category": "高"
      },
      "geometry": {
        "type": "Point",
        "coordinates": [
          121.53738,
          25.02606
        ]
      }
    },
    {
      "type": "Feature",
      "properties": {
        "stop_id": "U101116",
        "stop_name": "金華公園",
        "capacity": 44,
        "latitude": 25.02984,
        "longitude": 121.53107,
        "category": "高"
      },
      "geometry": {
        "type": "Point",
        "coordinates": [
          121.53107,
          25.02984
        ]
      }
    },
    {
      "type": "Feature",
      "properties": {
        "stop_id": "U101118",
        "stop_name": "金甌女中",
        "capacity": 15,
        "latitude": 25.03519,
        "longitude": 121.5245,
        "category": "高"
      },
      "geometry": {
        "type": "Point",
        "coordinates": [
          121.5245,
          25.03519
        ]
      }
    },
    {
      "type": "Feature",
      "properties": {
        "stop_id": "U101119",
        "stop_name": "金杭公園",
        "capacity": 20,
        "latitude": 25.03325,
        "longitude": 121.52436,
        "category": "高"
      },
      "geometry": {
        "type": "Point",
        "coordinates": [
          121.52436,
          25.03325
        ]
      }
    },
    {
      "type": "Feature",
      "properties": {
        "stop_id": "U101120",
        "stop_name": "愛國金山路口",
        "capacity": 57,
        "latitude": 25.03164,
        "longitude": 121.52661,
        "category": "高"
      },
      "geometry": {
        "type": "Point",
        "coordinates": [
          121.52661,
          25.03164
        ]
      }
    },
    {
      "type": "Feature",
      "properties": {
        "stop_id": "U101122",
        "stop_name": "敦化南路二段293巷口南側",
        "capacity": 14,
        "latitude": 25.0237,
        "longitude": 121.54899,
        "category": "中"
      },
      "geometry": {
        "type": "Point",
        "coordinates": [
          121.54899,
          25.0237
        ]
      }
    },
    {
      "type": "Feature",
      "properties": {
        "stop_id": "U101123",
        "stop_name": "敦化基隆路口",
        "capacity": 38,
        "latitude": 25.02215,
        "longitude": 121.54839,
        "category": "高"
      },
      "geometry": {
        "type": "Point",
        "coordinates": [
          121.54839,
          25.02215
        ]
      }
    },
    {
      "type": "Feature",
      "properties": {
        "stop_id": "U101124",
        "stop_name": "安和路二段181巷口",
        "capacity": 29,
        "latitude": 25.02721,
        "longitude": 121.54988,
        "category": "高"
      },
      "geometry": {
        "type": "Point",
        "coordinates": [
          121.54988,
          25.02721
        ]
      }
    },
    {
      "type": "Feature",
      "properties": {
        "stop_id": "U101125",
        "stop_name": "臨江街夜市(通化街101巷口)",
        "capacity": 30,
        "latitude": 25.02952,
        "longitude": 121.55406,
        "category": "高"
      },
      "geometry": {
        "type": "Point",
        "coordinates": [
          121.55406,
          25.02952
        ]
      }
    },
    {
      "type": "Feature",
      "properties": {
        "stop_id": "U101126",
        "stop_name": "臨江街夜市(基隆路)",
        "capacity": 29,
        "latitude": 25.02931,
        "longitude": 121.55721,
        "category": "高"
      },
      "geometry": {
        "type": "Point",
        "coordinates": [
          121.55721,
          25.02931
        ]
      }
    },
    {
      "type": "Feature",
      "properties": {
        "stop_id": "U101127",
        "stop_name": "台北科技大學億光大樓",
        "capacity": 59,
        "latitude": 25.04177,
        "longitude": 121.53833,
        "category": "高"
      },
      "geometry": {
        "type": "Point",
        "coordinates": [
          121.53833,
          25.04177
        ]
      }
    },
    {
      "type": "Feature",
      "properties": {
        "stop_id": "U101128",
        "stop_name": "新生南路一段119巷口",
        "capacity": 63,
        "latitude": 25.04003,
        "longitude": 121.53299,
        "category": "高"
      },
      "geometry": {
        "type": "Point",
        "coordinates": [
          121.53299,
          25.04003
        ]
      }
    },
    {
      "type": "Feature",
      "properties": {
        "stop_id": "U101129",
        "stop_name": "幸安國小(仁愛路)",
        "capacity": 28,
        "latitude": 25.03753,
        "longitude": 121.53523,
        "category": "高"
      },
      "geometry": {
        "type": "Point",
        "coordinates": [
          121.53523,
          25.03753
        ]
      }
    },
    {
      "type": "Feature",
      "properties": {
        "stop_id": "U101130",
        "stop_name": "民榮公園",
        "capacity": 31,
        "latitude": 25.03534,
        "longitude": 121.5354,
        "category": "高"
      },
      "geometry": {
        "type": "Point",
        "coordinates": [
          121.5354,
          25.03534
        ]
      }
    },
    {
      "type": "Feature",
      "properties": {
        "stop_id": "U101131",
        "stop_name": "復興南路1段340巷口",
        "capacity": 50,
        "latitude": 25.03701,
        "longitude": 121.54348,
        "category": "高"
      },
      "geometry": {
        "type": "Point",
        "coordinates": [
          121.54348,
          25.03701
        ]
      }
    },
    {
      "type": "Feature",
      "properties": {
        "stop_id": "U101132",
        "stop_name": "建國濟南路口",
        "capacity": 54,
        "latitude": 25.03935,
        "longitude": 121.53828,
        "category": "高"
      },
      "geometry": {
        "type": "Point",
        "coordinates": [
          121.53828,
          25.03935
        ]
      }
    },
    {
      "type": "Feature",
      "properties": {
        "stop_id": "U101133",
        "stop_name": "捷運忠孝復興站(2號出口)",
        "capacity": 43,
        "latitude": 25.04035,
        "longitude": 121.5436,
        "category": "高"
      },
      "geometry": {
        "type": "Point",
        "coordinates": [
          121.5436,
          25.04035
        ]
      }
    },
    {
      "type": "Feature",
      "properties": {
        "stop_id": "U101134",
        "stop_name": "捷運大安站(4號出口)",
        "capacity": 13,
        "latitude": 25.0332,
        "longitude": 121.5439,
        "category": "中"
      },
      "geometry": {
        "type": "Point",
        "coordinates": [
          121.5439,
          25.0332
        ]
      }
    },
    {
      "type": "Feature",
      "properties": {
        "stop_id": "U101135",
        "stop_name": "捷運大安站(2號出口)",
        "capacity": 60,
        "latitude": 25.03358,
        "longitude": 121.54141,
        "category": "高"
      },
      "geometry": {
        "type": "Point",
        "coordinates": [
          121.54141,
          25.03358
        ]
      }
    },
    {
      "type": "Feature",
      "properties": {
        "stop_id": "U101136",
        "stop_name": "信義大安路口(信維大樓)",
        "capacity": 18,
        "latitude": 25.03317,
        "longitude": 121.54639,
        "category": "高"
      },
      "geometry": {
        "type": "Point",
        "coordinates": [
          121.54639,
          25.03317
        ]
      }
    },
    {
      "type": "Feature",
      "properties": {
        "stop_id": "U101137",
        "stop_name": "龍門廣場",
        "capacity": 70,
        "latitude": 25.04092,
        "longitude": 121.54825,
        "category": "高"
      },
      "geometry": {
        "type": "Point",
        "coordinates": [
          121.54825,
          25.04092
        ]
      }
    },
    {
      "type": "Feature",
      "properties": {
        "stop_id": "U101138",
        "stop_name": "仁愛安和路口",
        "capacity": 33,
        "latitude": 25.03754,
        "longitude": 121.55285,
        "category": "高"
      },
      "geometry": {
        "type": "Point",
        "coordinates": [
          121.55285,
          25.03754
        ]
      }
    },
    {
      "type": "Feature",
      "properties": {
        "stop_id": "U101139",
        "stop_name": "信義敦化路口",
        "capacity": 52,
        "latitude": 25.03333,
        "longitude": 121.54977,
        "category": "高"
      },
      "geometry": {
        "type": "Point",
        "coordinates": [
          121.54977,
          25.03333
        ]
      }
    },
    {
      "type": "Feature",
      "properties": {
        "stop_id": "U101140",
        "stop_name": "仁愛國中",
        "capacity": 25,
        "latitude": 25.03706,
        "longitude": 121.55166,
        "category": "高"
      },
      "geometry": {
        "type": "Point",
        "coordinates": [
          121.55166,
          25.03706
        ]
      }
    },
    {
      "type": "Feature",
      "properties": {
        "stop_id": "U101141",
        "stop_name": "捷運信義安和站(2號出口)",
        "capacity": 24,
        "latitude": 25.03304,
        "longitude": 121.55171,
        "category": "高"
      },
      "geometry": {
        "type": "Point",
        "coordinates": [
          121.55171,
          25.03304
        ]
      }
    },
    {
      "type": "Feature",
      "properties": {
        "stop_id": "U101142",
        "stop_name": "八德市場",
        "capacity": 30,
        "latitude": 25.04463,
        "longitude": 121.53665,
        "category": "高"
      },
      "geometry": {
        "type": "Point",
        "coordinates": [
          121.53665,
          25.04463
        ]
      }
    },
    {
      "type": "Feature",
      "properties": {
        "stop_id": "U101143",
        "stop_name": "昌隆公園",
        "capacity": 16,
        "latitude": 25.04448,
        "longitude": 121.53946,
        "category": "高"
      },
      "geometry": {
        "type": "Point",
        "coordinates": [
          121.53946,
          25.04448
        ]
      }
    },
    {
      "type": "Feature",
      "properties": {
        "stop_id": "U101144",
        "stop_name": "捷運大安森林公園站(2號出口)",
        "capacity": 69,
        "latitude": 25.03332,
        "longitude": 121.53435,
        "category": "高"
      },
      "geometry": {
        "type": "Point",
        "coordinates": [
          121.53435,
          25.03332
        ]
      }
    },
    {
      "type": "Feature",
      "properties": {
        "stop_id": "U101145",
        "stop_name": "信義延吉街口",
        "capacity": 15,
        "latitude": 25.03318,
        "longitude": 121.55725,
        "category": "高"
      },
      "geometry": {
        "type": "Point",
        "coordinates": [
          121.55725,
          25.03318
        ]
      }
    },
    {
      "type": "Feature",
      "properties": {
        "stop_id": "U101146",
        "stop_name": "光信公園(光復南路456巷)",
        "capacity": 25,
        "latitude": 25.03513,
        "longitude": 121.5561,
        "category": "高"
      },
      "geometry": {
        "type": "Point",
        "coordinates": [
          121.5561,
          25.03513
        ]
      }
    },
    {
      "type": "Feature",
      "properties": {
        "stop_id": "U101147",
        "stop_name": "僑安地下停車場(2號出口)東南側",
        "capacity": 20,
        "latitude": 25.0391,
        "longitude": 121.5569,
        "category": "高"
      },
      "geometry": {
        "type": "Point",
        "coordinates": [
          121.5569,
          25.0391
        ]
      }
    },
    {
      "type": "Feature",
      "properties": {
        "stop_id": "U101148",
        "stop_name": "建國南路一段279巷口",
        "capacity": 62,
        "latitude": 25.03635,
        "longitude": 121.53833,
        "category": "高"
      },
      "geometry": {
        "type": "Point",
        "coordinates": [
          121.53833,
          25.03635
        ]
      }
    },
    {
      "type": "Feature",
      "properties": {
        "stop_id": "U101149",
        "stop_name": "捷運忠孝新生站(6號出口)",
        "capacity": 35,
        "latitude": 25.04091,
        "longitude": 121.53295,
        "category": "高"
      },
      "geometry": {
        "type": "Point",
        "coordinates": [
          121.53295,
          25.04091
        ]
      }
    },
    {
      "type": "Feature",
      "properties": {
        "stop_id": "U101150",
        "stop_name": "捷運忠孝新生站(4號出口)",
        "capacity": 46,
        "latitude": 25.04239,
        "longitude": 121.53324,
        "category": "高"
      },
      "geometry": {
        "type": "Point",
        "coordinates": [
          121.53324,
          25.04239
        ]
      }
    },
    {
      "type": "Feature",
      "properties": {
        "stop_id": "U101151",
        "stop_name": "大安高工",
        "capacity": 23,
        "latitude": 25.03126,
        "longitude": 121.54339,
        "category": "高"
      },
      "geometry": {
        "type": "Point",
        "coordinates": [
          121.54339,
          25.03126
        ]
      }
    },
    {
      "type": "Feature",
      "properties": {
        "stop_id": "U101152",
        "stop_name": "捷運忠孝新生站(3號出口)",
        "capacity": 43,
        "latitude": 25.04189,
        "longitude": 121.53376,
        "category": "高"
      },
      "geometry": {
        "type": "Point",
        "coordinates": [
          121.53376,
          25.04189
        ]
      }
    },
    {
      "type": "Feature",
      "properties": {
        "stop_id": "U101154",
        "stop_name": "敦化市民路口",
        "capacity": 23,
        "latitude": 25.04405,
        "longitude": 121.5486,
        "category": "高"
      },
      "geometry": {
        "type": "Point",
        "coordinates": [
          121.5486,
          25.04405
        ]
      }
    },
    {
      "type": "Feature",
      "properties": {
        "stop_id": "U101155",
        "stop_name": "捷運大安森林公園站(5號出口)",
        "capacity": 15,
        "latitude": 25.03336,
        "longitude": 121.5364,
        "category": "中"
      },
      "geometry": {
        "type": "Point",
        "coordinates": [
          121.5364,
          25.03336
        ]
      }
    },
    {
      "type": "Feature",
      "properties": {
        "stop_id": "U101156",
        "stop_name": "信義建國路口",
        "capacity": 52,
        "latitude": 25.0328,
        "longitude": 121.53746,
        "category": "高"
      },
      "geometry": {
        "type": "Point",
        "coordinates": [
          121.53746,
          25.0328
        ]
      }
    },
    {
      "type": "Feature",
      "properties": {
        "stop_id": "U101157",
        "stop_name": "東豐公園",
        "capacity": 19,
        "latitude": 25.03569,
        "longitude": 121.5451,
        "category": "高"
      },
      "geometry": {
        "type": "Point",
        "coordinates": [
          121.5451,
          25.03569
        ]
      }
    },
    {
      "type": "Feature",
      "properties": {
        "stop_id": "U101158",
        "stop_name": "德安公園(四維路66巷)",
        "capacity": 22,
        "latitude": 25.03473,
        "longitude": 121.54767,
        "category": "高"
      },
      "geometry": {
        "type": "Point",
        "coordinates": [
          121.54767,
          25.03473
        ]
      }
    },
    {
      "type": "Feature",
      "properties": {
        "stop_id": "U101159",
        "stop_name": "捷運忠孝復興站(5號出口)",
        "capacity": 30,
        "latitude": 25.04253,
        "longitude": 121.54407,
        "category": "高"
      },
      "geometry": {
        "type": "Point",
        "coordinates": [
          121.54407,
          25.04253
        ]
      }
    },
    {
      "type": "Feature",
      "properties": {
        "stop_id": "U101160",
        "stop_name": "捷運忠孝敦化站(2號出口)",
        "capacity": 17,
        "latitude": 25.04153,
        "longitude": 121.5524,
        "category": "高"
      },
      "geometry": {
        "type": "Point",
        "coordinates": [
          121.5524,
          25.04153
        ]
      }
    },
    {
      "type": "Feature",
      "properties": {
        "stop_id": "U101161",
        "stop_name": "捷運忠孝敦化站(7號出口)",
        "capacity": 18,
        "latitude": 25.04159,
        "longitude": 121.54937,
        "category": "高"
      },
      "geometry": {
        "type": "Point",
        "coordinates": [
          121.54937,
          25.04159
        ]
      }
    },
    {
      "type": "Feature",
      "properties": {
        "stop_id": "U101162",
        "stop_name": "忠孝東路四段223巷口(市民大道側)",
        "capacity": 25,
        "latitude": 25.04427,
        "longitude": 121.55291,
        "category": "高"
      },
      "geometry": {
        "type": "Point",
        "coordinates": [
          121.55291,
          25.04427
        ]
      }
    },
    {
      "type": "Feature",
      "properties": {
        "stop_id": "U101163",
        "stop_name": "瑞安街208巷",
        "capacity": 15,
        "latitude": 25.02979,
        "longitude": 121.54053,
        "category": "高"
      },
      "geometry": {
        "type": "Point",
        "coordinates": [
          121.54053,
          25.02979
        ]
      }
    },
    {
      "type": "Feature",
      "properties": {
        "stop_id": "U101165",
        "stop_name": "樂利路21巷口",
        "capacity": 17,
        "latitude": 25.0277,
        "longitude": 121.55132,
        "category": "高"
      },
      "geometry": {
        "type": "Point",
        "coordinates": [
          121.55132,
          25.0277
        ]
      }
    },
    {
      "type": "Feature",
      "properties": {
        "stop_id": "U101166",
        "stop_name": "捷運科技大樓站(台北教育大學)",
        "capacity": 54,
        "latitude": 25.02472,
        "longitude": 121.54417,
        "category": "高"
      },
      "geometry": {
        "type": "Point",
        "coordinates": [
          121.54417,
          25.02472
        ]
      }
    },
    {
      "type": "Feature",
      "properties": {
        "stop_id": "U101167",
        "stop_name": "捷運國父紀念館站(2號出口)",
        "capacity": 45,
        "latitude": 25.04122,
        "longitude": 121.55745,
        "category": "高"
      },
      "geometry": {
        "type": "Point",
        "coordinates": [
          121.55745,
          25.04122
        ]
      }
    },
    {
      "type": "Feature",
      "properties": {
        "stop_id": "U101168",
        "stop_name": "仁愛醫院",
        "capacity": 36,
        "latitude": 25.03756,
        "longitude": 121.54587,
        "category": "高"
      },
      "geometry": {
        "type": "Point",
        "coordinates": [
          121.54587,
          25.03756
        ]
      }
    },
    {
      "type": "Feature",
      "properties": {
        "stop_id": "U101169",
        "stop_name": "捷運信義安和站(4號出口)",
        "capacity": 49,
        "latitude": 25.03305,
        "longitude": 121.55378,
        "category": "高"
      },
      "geometry": {
        "type": "Point",
        "coordinates": [
          121.55378,
          25.03305
        ]
      }
    },
    {
      "type": "Feature",
      "properties": {
        "stop_id": "U101170",
        "stop_name": "成功國宅",
        "capacity": 36,
        "latitude": 25.02681,
        "longitude": 121.54668,
        "category": "高"
      },
      "geometry": {
        "type": "Point",
        "coordinates": [
          121.54668,
          25.02681
        ]
      }
    },
    {
      "type": "Feature",
      "properties": {
        "stop_id": "U101171",
        "stop_name": "仁愛延吉街口",
        "capacity": 33,
        "latitude": 25.03748,
        "longitude": 121.55564,
        "category": "高"
      },
      "geometry": {
        "type": "Point",
        "coordinates": [
          121.55564,
          25.03748
        ]
      }
    },
    {
      "type": "Feature",
      "properties": {
        "stop_id": "U101172",
        "stop_name": "捷運信義安和站(1號出口)",
        "capacity": 49,
        "latitude": 25.03331,
        "longitude": 121.55265,
        "category": "高"
      },
      "geometry": {
        "type": "Point",
        "coordinates": [
          121.55265,
          25.03331
        ]
      }
    },
    {
      "type": "Feature",
      "properties": {
        "stop_id": "U101173",
        "stop_name": "敦化南路二段103巷口",
        "capacity": 24,
        "latitude": 25.0287,
        "longitude": 121.54904,
        "category": "高"
      },
      "geometry": {
        "type": "Point",
        "coordinates": [
          121.54904,
          25.0287
        ]
      }
    },
    {
      "type": "Feature",
      "properties": {
        "stop_id": "U101174",
        "stop_name": "復興南路二段128巷口",
        "capacity": 31,
        "latitude": 25.02861,
        "longitude": 121.54336,
        "category": "高"
      },
      "geometry": {
        "type": "Point",
        "coordinates": [
          121.54336,
          25.02861
        ]
      }
    },
    {
      "type": "Feature",
      "properties": {
        "stop_id": "U101175",
        "stop_name": "和平東建國南路口",
        "capacity": 17,
        "latitude": 25.02575,
        "longitude": 121.5377,
        "category": "高"
      },
      "geometry": {
        "type": "Point",
        "coordinates": [
          121.5377,
          25.02575
        ]
      }
    },
    {
      "type": "Feature",
      "properties": {
        "stop_id": "U101176",
        "stop_name": "芳蘭山莊",
        "capacity": 16,
        "latitude": 25.01223,
        "longitude": 121.54788,
        "category": "高"
      },
      "geometry": {
        "type": "Point",
        "coordinates": [
          121.54788,
          25.01223
        ]
      }
    },
    {
      "type": "Feature",
      "properties": {
        "stop_id": "U101177",
        "stop_name": "復興南路一段126巷口",
        "capacity": 15,
        "latitude": 25.04311,
        "longitude": 121.54313,
        "category": "高"
      },
      "geometry": {
        "type": "Point",
        "coordinates": [
          121.54313,
          25.04311
        ]
      }
    },
    {
      "type": "Feature",
      "properties": {
        "stop_id": "U101179",
        "stop_name": "捷運東門站(5號出口)",
        "capacity": 28,
        "latitude": 25.03363,
        "longitude": 121.52962,
        "category": "高"
      },
      "geometry": {
        "type": "Point",
        "coordinates": [
          121.52962,
          25.03363
        ]
      }
    },
    {
      "type": "Feature",
      "properties": {
        "stop_id": "U101180",
        "stop_name": "仁愛路四段48巷口",
        "capacity": 12,
        "latitude": 25.03597,
        "longitude": 121.54693,
        "category": "高"
      },
      "geometry": {
        "type": "Point",
        "coordinates": [
          121.54693,
          25.03597
        ]
      }
    },
    {
      "type": "Feature",
      "properties": {
        "stop_id": "U101181",
        "stop_name": "捷運公館站(3號出口)",
        "capacity": 99,
        "latitude": 25.01551,
        "longitude": 121.53374,
        "category": "高"
      },
      "geometry": {
        "type": "Point",
        "coordinates": [
          121.53374,
          25.01551
        ]
      }
    },
    {
      "type": "Feature",
      "properties": {
        "stop_id": "U101182",
        "stop_name": "臺北科技大學(電機工程系)",
        "capacity": 34,
        "latitude": 25.04196,
        "longitude": 121.53653,
        "category": "高"
      },
      "geometry": {
        "type": "Point",
        "coordinates": [
          121.53653,
          25.04196
        ]
      }
    },
    {
      "type": "Feature",
      "properties": {
        "stop_id": "U101184",
        "stop_name": "新生南路三段94巷口",
        "capacity": 15,
        "latitude": 25.01744,
        "longitude": 121.53334,
        "category": "中"
      },
      "geometry": {
        "type": "Point",
        "coordinates": [
          121.53334,
          25.01744
        ]
      }
    },
    {
      "type": "Feature",
      "properties": {
        "stop_id": "U101185",
        "stop_name": "辛亥新生路口西北側",
        "capacity": 40,
        "latitude": 25.02267,
        "longitude": 121.5341,
        "category": "高"
      },
      "geometry": {
        "type": "Point",
        "coordinates": [
          121.5341,
          25.02267
        ]
      }
    },
    {
      "type": "Feature",
      "properties": {
        "stop_id": "U101186",
        "stop_name": "捷運大安站(6號出口)",
        "capacity": 29,
        "latitude": 25.03479,
        "longitude": 121.54376,
        "category": "高"
      },
      "geometry": {
        "type": "Point",
        "coordinates": [
          121.54376,
          25.03479
        ]
      }
    },
    {
      "type": "Feature",
      "properties": {
        "stop_id": "U101187",
        "stop_name": "臥龍街195巷口",
        "capacity": 14,
        "latitude": 25.01783,
        "longitude": 121.55224,
        "category": "高"
      },
      "geometry": {
        "type": "Point",
        "coordinates": [
          121.55224,
          25.01783
        ]
      }
    },
    {
      "type": "Feature",
      "properties": {
        "stop_id": "U101188",
        "stop_name": "辛亥路三段157巷口",
        "capacity": 27,
        "latitude": 25.01727,
        "longitude": 121.54904,
        "category": "高"
      },
      "geometry": {
        "type": "Point",
        "coordinates": [
          121.54904,
          25.01727
        ]
      }
    },
    {
      "type": "Feature",
      "properties": {
        "stop_id": "U101189",
        "stop_name": "臥龍基隆路口",
        "capacity": 25,
        "latitude": 25.02039,
        "longitude": 121.54853,
        "category": "中"
      },
      "geometry": {
        "type": "Point",
        "coordinates": [
          121.54853,
          25.02039
        ]
      }
    },
    {
      "type": "Feature",
      "properties": {
        "stop_id": "U101190",
        "stop_name": "敦親公園",
        "capacity": 26,
        "latitude": 25.02347,
        "longitude": 121.54108,
        "category": "高"
      },
      "geometry": {
        "type": "Point",
        "coordinates": [
          121.54108,
          25.02347
        ]
      }
    },
    {
      "type": "Feature",
      "properties": {
        "stop_id": "U101191",
        "stop_name": "大安運動中心",
        "capacity": 33,
        "latitude": 25.02054,
        "longitude": 121.54561,
        "category": "中"
      },
      "geometry": {
        "type": "Point",
        "coordinates": [
          121.54561,
          25.02054
        ]
      }
    },
    {
      "type": "Feature",
      "properties": {
        "stop_id": "U101192",
        "stop_name": "和平敦化路口",
        "capacity": 36,
        "latitude": 25.02444,
        "longitude": 121.54908,
        "category": "高"
      },
      "geometry": {
        "type": "Point",
        "coordinates": [
          121.54908,
          25.02444
        ]
      }
    },
    {
      "type": "Feature",
      "properties": {
        "stop_id": "U101193",
        "stop_name": "基隆長興路口",
        "capacity": 51,
        "latitude": 25.01705,
        "longitude": 121.54435,
        "category": "中"
      },
      "geometry": {
        "type": "Point",
        "coordinates": [
          121.54435,
          25.01705
        ]
      }
    },
    {
      "type": "Feature",
      "properties": {
        "stop_id": "U101194",
        "stop_name": "仁愛路四段122巷口",
        "capacity": 25,
        "latitude": 25.03762,
        "longitude": 121.55009,
        "category": "高"
      },
      "geometry": {
        "type": "Point",
        "coordinates": [
          121.55009,
          25.03762
        ]
      }
    },
    {
      "type": "Feature",
      "properties": {
        "stop_id": "U101196",
        "stop_name": "市民敦化路口",
        "capacity": 32,
        "latitude": 25.04464,
        "longitude": 121.54944,
        "category": "高"
      },
      "geometry": {
        "type": "Point",
        "coordinates": [
          121.54944,
          25.04464
        ]
      }
    },
    {
      "type": "Feature",
      "properties": {
        "stop_id": "U101197",
        "stop_name": "忠孝東路四段49巷口",
        "capacity": 15,
        "latitude": 25.04172,
        "longitude": 121.54541,
        "category": "高"
      },
      "geometry": {
        "type": "Point",
        "coordinates": [
          121.54541,
          25.04172
        ]
      }
    },
    {
      "type": "Feature",
      "properties": {
        "stop_id": "U101198",
        "stop_name": "市民復興路口(東南側)",
        "capacity": 26,
        "latitude": 25.04472,
        "longitude": 121.54401,
        "category": "高"
      },
      "geometry": {
        "type": "Point",
        "coordinates": [
          121.54401,
          25.04472
        ]
      }
    },
    {
      "type": "Feature",
      "properties": {
        "stop_id": "U101199",
        "stop_name": "和平新生路口西南側",
        "capacity": 24,
        "latitude": 25.02604,
        "longitude": 121.534,
        "category": "高"
      },
      "geometry": {
        "type": "Point",
        "coordinates": [
          121.534,
          25.02604
        ]
      }
    },
    {
      "type": "Feature",
      "properties": {
        "stop_id": "U101200",
        "stop_name": "全安公園",
        "capacity": 16,
        "latitude": 25.02535,
        "longitude": 121.55101,
        "category": "高"
      },
      "geometry": {
        "type": "Point",
        "coordinates": [
          121.55101,
          25.02535
        ]
      }
    },
    {
      "type": "Feature",
      "properties": {
        "stop_id": "U101201",
        "stop_name": "信義路三段134巷口",
        "capacity": 28,
        "latitude": 25.03333,
        "longitude": 121.53968,
        "category": "高"
      },
      "geometry": {
        "type": "Point",
        "coordinates": [
          121.53968,
          25.03333
        ]
      }
    },
    {
      "type": "Feature",
      "properties": {
        "stop_id": "U101202",
        "stop_name": "仁愛敦南圓環(東南側)",
        "capacity": 16,
        "latitude": 25.03715,
        "longitude": 121.54936,
        "category": "高"
      },
      "geometry": {
        "type": "Point",
        "coordinates": [
          121.54936,
          25.03715
        ]
      }
    },
    {
      "type": "Feature",
      "properties": {
        "stop_id": "U101203",
        "stop_name": "臺北遠企購物中心",
        "capacity": 33,
        "latitude": 25.02709,
        "longitude": 121.54902,
        "category": "高"
      },
      "geometry": {
        "type": "Point",
        "coordinates": [
          121.54902,
          25.02709
        ]
      }
    },
    {
      "type": "Feature",
      "properties": {
        "stop_id": "U101204",
        "stop_name": "外交部外交及國際事務學院",
        "capacity": 26,
        "latitude": 25.0371,
        "longitude": 121.54839,
        "category": "高"
      },
      "geometry": {
        "type": "Point",
        "coordinates": [
          121.54839,
          25.0371
        ]
      }
    },
    {
      "type": "Feature",
      "properties": {
        "stop_id": "U101205",
        "stop_name": "四維路170巷口",
        "capacity": 22,
        "latitude": 25.02821,
        "longitude": 121.54864,
        "category": "高"
      },
      "geometry": {
        "type": "Point",
        "coordinates": [
          121.54864,
          25.02821
        ]
      }
    },
    {
      "type": "Feature",
      "properties": {
        "stop_id": "U101206",
        "stop_name": "捷運大安站(3號出口)",
        "capacity": 46,
        "latitude": 25.03328,
        "longitude": 121.5425,
        "category": "高"
      },
      "geometry": {
        "type": "Point",
        "coordinates": [
          121.5425,
          25.03328
        ]
      }
    },
    {
      "type": "Feature",
      "properties": {
        "stop_id": "U101207",
        "stop_name": "捷運臺電大樓站(2號出口)_1",
        "capacity": 38,
        "latitude": 25.02055,
        "longitude": 121.52855,
        "category": "高"
      },
      "geometry": {
        "type": "Point",
        "coordinates": [
          121.52855,
          25.02055
        ]
      }
    },
    {
      "type": "Feature",
      "properties": {
        "stop_id": "U101209",
        "stop_name": "臺大資訊大樓",
        "capacity": 80,
        "latitude": 25.02101,
        "longitude": 121.54153,
        "category": "高"
      },
      "geometry": {
        "type": "Point",
        "coordinates": [
          121.54153,
          25.02101
        ]
      }
    },
    {
      "type": "Feature",
      "properties": {
        "stop_id": "U101210",
        "stop_name": "敦化南路二段81巷",
        "capacity": 40,
        "latitude": 25.03002,
        "longitude": 121.54893,
        "category": "高"
      },
      "geometry": {
        "type": "Point",
        "coordinates": [
          121.54893,
          25.03002
        ]
      }
    },
    {
      "type": "Feature",
      "properties": {
        "stop_id": "U101211",
        "stop_name": "原臺北刑務所官舍",
        "capacity": 23,
        "latitude": 25.03054,
        "longitude": 121.52466,
        "category": "高"
      },
      "geometry": {
        "type": "Point",
        "coordinates": [
          121.52466,
          25.03054
        ]
      }
    },
    {
      "type": "Feature",
      "properties": {
        "stop_id": "U101212",
        "stop_name": "捷運國父紀念館站(1號出口)",
        "capacity": 24,
        "latitude": 25.04205,
        "longitude": 121.55657,
        "category": "高"
      },
      "geometry": {
        "type": "Point",
        "coordinates": [
          121.55657,
          25.04205
        ]
      }
    },
    {
      "type": "Feature",
      "properties": {
        "stop_id": "U101213",
        "stop_name": "懷生國中",
        "capacity": 24,
        "latitude": 25.0401,
        "longitude": 121.54122,
        "category": "高"
      },
      "geometry": {
        "type": "Point",
        "coordinates": [
          121.54122,
          25.0401
        ]
      }
    },
    {
      "type": "Feature",
      "properties": {
        "stop_id": "U101214",
        "stop_name": "仁愛敦南圓環(西北側)",
        "capacity": 20,
        "latitude": 25.03827,
        "longitude": 121.54802,
        "category": "中"
      },
      "geometry": {
        "type": "Point",
        "coordinates": [
          121.54802,
          25.03827
        ]
      }
    },
    {
      "type": "Feature",
      "properties": {
        "stop_id": "U101215",
        "stop_name": "立人國小",
        "capacity": 17,
        "latitude": 25.02974,
        "longitude": 121.55146,
        "category": "高"
      },
      "geometry": {
        "type": "Point",
        "coordinates": [
          121.55146,
          25.02974
        ]
      }
    },
    {
      "type": "Feature",
      "properties": {
        "stop_id": "U101216",
        "stop_name": "和平東路二段18巷口",
        "capacity": 24,
        "latitude": 25.02268,
        "longitude": 121.53608,
        "category": "高"
      },
      "geometry": {
        "type": "Point",
        "coordinates": [
          121.53608,
          25.02268
        ]
      }
    },
    {
      "type": "Feature",
      "properties": {
        "stop_id": "U101217",
        "stop_name": "捷運大安站(5號出口)",
        "capacity": 26,
        "latitude": 25.03303,
        "longitude": 121.54372,
        "category": "中"
      },
      "geometry": {
        "type": "Point",
        "coordinates": [
          121.54372,
          25.03303
        ]
      }
    },
    {
      "type": "Feature",
      "properties": {
        "stop_id": "U101218",
        "stop_name": "臨江公園",
        "capacity": 23,
        "latitude": 25.02832,
        "longitude": 121.55592,
        "category": "高"
      },
      "geometry": {
        "type": "Point",
        "coordinates": [
          121.55592,
          25.02832
        ]
      }
    },
    {
      "type": "Feature",
      "properties": {
        "stop_id": "U101219",
        "stop_name": "羅斯福路四段113巷19弄口",
        "capacity": 14,
        "latitude": 25.01027,
        "longitude": 121.53998,
        "category": "高"
      },
      "geometry": {
        "type": "Point",
        "coordinates": [
          121.53998,
          25.01027
        ]
      }
    },
    {
      "type": "Feature",
      "properties": {
        "stop_id": "U101221",
        "stop_name": "忠孝東路四段248巷口",
        "capacity": 25,
        "latitude": 25.04132,
        "longitude": 121.55393,
        "category": "高"
      },
      "geometry": {
        "type": "Point",
        "coordinates": [
          121.55393,
          25.04132
        ]
      }
    },
    {
      "type": "Feature",
      "properties": {
        "stop_id": "U101222",
        "stop_name": "仁愛延吉路口(西北側)",
        "capacity": 24,
        "latitude": 25.03795,
        "longitude": 121.55466,
        "category": "高"
      },
      "geometry": {
        "type": "Point",
        "coordinates": [
          121.55466,
          25.03795
        ]
      }
    },
    {
      "type": "Feature",
      "properties": {
        "stop_id": "U101223",
        "stop_name": "樂利路101巷口",
        "capacity": 13,
        "latitude": 25.02528,
        "longitude": 121.55224,
        "category": "高"
      },
      "geometry": {
        "type": "Point",
        "coordinates": [
          121.55224,
          25.02528
        ]
      }
    },
    {
      "type": "Feature",
      "properties": {
        "stop_id": "U101224",
        "stop_name": "羅斯福浦城街口",
        "capacity": 25,
        "latitude": 25.02208,
        "longitude": 121.52678,
        "category": "高"
      },
      "geometry": {
        "type": "Point",
        "coordinates": [
          121.52678,
          25.02208
        ]
      }
    },
    {
      "type": "Feature",
      "properties": {
        "stop_id": "U101225",
        "stop_name": "敦化南路一段295巷口",
        "capacity": 18,
        "latitude": 25.03551,
        "longitude": 121.54951,
        "category": "高"
      },
      "geometry": {
        "type": "Point",
        "coordinates": [
          121.54951,
          25.03551
        ]
      }
    },
    {
      "type": "Feature",
      "properties": {
        "stop_id": "U101226",
        "stop_name": "通安區民活動中心",
        "capacity": 28,
        "latitude": 25.02942,
        "longitude": 121.55294,
        "category": "高"
      },
      "geometry": {
        "type": "Point",
        "coordinates": [
          121.55294,
          25.02942
        ]
      }
    },
    {
      "type": "Feature",
      "properties": {
        "stop_id": "U101227",
        "stop_name": "復興忠孝東路口(東南側)",
        "capacity": 28,
        "latitude": 25.04061,
        "longitude": 121.54389,
        "category": "高"
      },
      "geometry": {
        "type": "Point",
        "coordinates": [
          121.54389,
          25.04061
        ]
      }
    },
    {
      "type": "Feature",
      "properties": {
        "stop_id": "U101228",
        "stop_name": "仁愛大安路口(東北側)",
        "capacity": 21,
        "latitude": 25.03813,
        "longitude": 121.54631,
        "category": "高"
      },
      "geometry": {
        "type": "Point",
        "coordinates": [
          121.54631,
          25.03813
        ]
      }
    },
    {
      "type": "Feature",
      "properties": {
        "stop_id": "U101229",
        "stop_name": "臺灣師範大學(浦城街)",
        "capacity": 20,
        "latitude": 25.02476,
        "longitude": 121.52803,
        "category": "高"
      },
      "geometry": {
        "type": "Point",
        "coordinates": [
          121.52803,
          25.02476
        ]
      }
    },
    {
      "type": "Feature",
      "properties": {
        "stop_id": "U101230",
        "stop_name": "安和路二段69巷口",
        "capacity": 20,
        "latitude": 25.03056,
        "longitude": 121.55252,
        "category": "高"
      },
      "geometry": {
        "type": "Point",
        "coordinates": [
          121.55252,
          25.03056
        ]
      }
    },
    {
      "type": "Feature",
      "properties": {
        "stop_id": "U101231",
        "stop_name": "大安國小",
        "capacity": 25,
        "latitude": 25.02014,
        "longitude": 121.55084,
        "category": "高"
      },
      "geometry": {
        "type": "Point",
        "coordinates": [
          121.55084,
          25.02014
        ]
      }
    },
    {
      "type": "Feature",
      "properties": {
        "stop_id": "U101232",
        "stop_name": "捷運古亭站(3號出口)",
        "capacity": 15,
        "latitude": 25.02572,
        "longitude": 121.52359,
        "category": "高"
      },
      "geometry": {
        "type": "Point",
        "coordinates": [
          121.52359,
          25.02572
        ]
      }
    },
    {
      "type": "Feature",
      "properties": {
        "stop_id": "U101233",
        "stop_name": "捷運忠孝復興站(3號出口)",
        "capacity": 37,
        "latitude": 25.04152,
        "longitude": 121.54414,
        "category": "高"
      },
      "geometry": {
        "type": "Point",
        "coordinates": [
          121.54414,
          25.04152
        ]
      }
    },
    {
      "type": "Feature",
      "properties": {
        "stop_id": "U101234",
        "stop_name": "和平東路二段90巷",
        "capacity": 20,
        "latitude": 25.02468,
        "longitude": 121.53965,
        "category": "高"
      },
      "geometry": {
        "type": "Point",
        "coordinates": [
          121.53965,
          25.02468
        ]
      }
    },
    {
      "type": "Feature",
      "properties": {
        "stop_id": "U101235",
        "stop_name": "光復南路420巷口",
        "capacity": 16,
        "latitude": 25.03601,
        "longitude": 121.55742,
        "category": "高"
      },
      "geometry": {
        "type": "Point",
        "coordinates": [
          121.55742,
          25.03601
        ]
      }
    },
    {
      "type": "Feature",
      "properties": {
        "stop_id": "U101236",
        "stop_name": "富陽臥龍街口",
        "capacity": 18,
        "latitude": 25.0187,
        "longitude": 121.55688,
        "category": "高"
      },
      "geometry": {
        "type": "Point",
        "coordinates": [
          121.55688,
          25.0187
        ]
      }
    },
    {
      "type": "Feature",
      "properties": {
        "stop_id": "U101237",
        "stop_name": "仁愛復興路口",
        "capacity": 29,
        "latitude": 25.03817,
        "longitude": 121.544,
        "category": "高"
      },
      "geometry": {
        "type": "Point",
        "coordinates": [
          121.544,
          25.03817
        ]
      }
    },
    {
      "type": "Feature",
      "properties": {
        "stop_id": "U101238",
        "stop_name": "仁愛敦南圓環(東側)",
        "capacity": 26,
        "latitude": 25.03804,
        "longitude": 121.55042,
        "category": "高"
      },
      "geometry": {
        "type": "Point",
        "coordinates": [
          121.55042,
          25.03804
        ]
      }
    },
    {
      "type": "Feature",
      "properties": {
        "stop_id": "U101239",
        "stop_name": "古風公園",
        "capacity": 15,
        "latitude": 25.02187,
        "longitude": 121.52912,
        "category": "高"
      },
      "geometry": {
        "type": "Point",
        "coordinates": [
          121.52912,
          25.02187
        ]
      }
    },
    {
      "type": "Feature",
      "properties": {
        "stop_id": "U101240",
        "stop_name": "和平東路二段76巷",
        "capacity": 40,
        "latitude": 25.02263,
        "longitude": 121.53906,
        "category": "高"
      },
      "geometry": {
        "type": "Point",
        "coordinates": [
          121.53906,
          25.02263
        ]
      }
    },
    {
      "type": "Feature",
      "properties": {
        "stop_id": "U101241",
        "stop_name": "敦化信義路口(東南側)",
        "capacity": 20,
        "latitude": 25.03276,
        "longitude": 121.54907,
        "category": "高"
      },
      "geometry": {
        "type": "Point",
        "coordinates": [
          121.54907,
          25.03276
        ]
      }
    },
    {
      "type": "Feature",
      "properties": {
        "stop_id": "U101242",
        "stop_name": "和平東路三段308巷口",
        "capacity": 14,
        "latitude": 25.01883,
        "longitude": 121.5544,
        "category": "高"
      },
      "geometry": {
        "type": "Point",
        "coordinates": [
          121.5544,
          25.01883
        ]
      }
    },
    {
      "type": "Feature",
      "properties": {
        "stop_id": "U101243",
        "stop_name": "忠孝建國路口(東南側)",
        "capacity": 21,
        "latitude": 25.04159,
        "longitude": 121.5378,
        "category": "高"
      },
      "geometry": {
        "type": "Point",
        "coordinates": [
          121.5378,
          25.04159
        ]
      }
    },
    {
      "type": "Feature",
      "properties": {
        "stop_id": "U101244",
        "stop_name": "浦城街26巷",
        "capacity": 17,
        "latitude": 25.02324,
        "longitude": 121.52618,
        "category": "高"
      },
      "geometry": {
        "type": "Point",
        "coordinates": [
          121.52618,
          25.02324
        ]
      }
    },
    {
      "type": "Feature",
      "properties": {
        "stop_id": "U101245",
        "stop_name": "青峰活動中心",
        "capacity": 25,
        "latitude": 25.01524,
        "longitude": 121.55121,
        "category": "高"
      },
      "geometry": {
        "type": "Point",
        "coordinates": [
          121.55121,
          25.01524
        ]
      }
    },
    {
      "type": "Feature",
      "properties": {
        "stop_id": "U101246",
        "stop_name": "忠孝東路三段216巷口",
        "capacity": 28,
        "latitude": 25.04157,
        "longitude": 121.5402,
        "category": "高"
      },
      "geometry": {
        "type": "Point",
        "coordinates": [
          121.5402,
          25.04157
        ]
      }
    },
    {
      "type": "Feature",
      "properties": {
        "stop_id": "U101247",
        "stop_name": "捷運忠孝復興站(4號出口)",
        "capacity": 25,
        "latitude": 25.04173,
        "longitude": 121.54412,
        "category": "中"
      },
      "geometry": {
        "type": "Point",
        "coordinates": [
          121.54412,
          25.04173
        ]
      }
    },
    {
      "type": "Feature",
      "properties": {
        "stop_id": "U101248",
        "stop_name": "和平溫州街口",
        "capacity": 23,
        "latitude": 25.02634,
        "longitude": 121.53342,
        "category": "高"
      },
      "geometry": {
        "type": "Point",
        "coordinates": [
          121.53342,
          25.02634
        ]
      }
    },
    {
      "type": "Feature",
      "properties": {
        "stop_id": "U101250",
        "stop_name": "國立臺北教育大學創意館",
        "capacity": 32,
        "latitude": 25.02305,
        "longitude": 121.54394,
        "category": "高"
      },
      "geometry": {
        "type": "Point",
        "coordinates": [
          121.54394,
          25.02305
        ]
      }
    },
    {
      "type": "Feature",
      "properties": {
        "stop_id": "U101251",
        "stop_name": "捷運忠孝復興站(1號出口)",
        "capacity": 27,
        "latitude": 25.04199,
        "longitude": 121.54362,
        "category": "高"
      },
      "geometry": {
        "type": "Point",
        "coordinates": [
          121.54362,
          25.04199
        ]
      }
    },
    {
      "type": "Feature",
      "properties": {
        "stop_id": "U101252",
        "stop_name": "政大公企中心",
        "capacity": 13,
        "latitude": 25.03076,
        "longitude": 121.52781,
        "category": "高"
      },
      "geometry": {
        "type": "Point",
        "coordinates": [
          121.52781,
          25.03076
        ]
      }
    },
    {
      "type": "Feature",
      "properties": {
        "stop_id": "U101253",
        "stop_name": "大安路二段90巷口",
        "capacity": 19,
        "latitude": 25.03117,
        "longitude": 121.54602,
        "category": "高"
      },
      "geometry": {
        "type": "Point",
        "coordinates": [
          121.54602,
          25.03117
        ]
      }
    },
    {
      "type": "Feature",
      "properties": {
        "stop_id": "U101254",
        "stop_name": "師大附中運動中心",
        "capacity": 33,
        "latitude": 25.03626,
        "longitude": 121.53997,
        "category": "高"
      },
      "geometry": {
        "type": "Point",
        "coordinates": [
          121.53997,
          25.03626
        ]
      }
    },
    {
      "type": "Feature",
      "properties": {
        "stop_id": "U101255",
        "stop_name": "錦安區民活動中心",
        "capacity": 20,
        "latitude": 25.02846,
        "longitude": 121.52935,
        "category": "高"
      },
      "geometry": {
        "type": "Point",
        "coordinates": [
          121.52935,
          25.02846
        ]
      }
    },
    {
      "type": "Feature",
      "properties": {
        "stop_id": "U101256",
        "stop_name": "敦化基隆路口(東北側)",
        "capacity": 22,
        "latitude": 25.02196,
        "longitude": 121.54899,
        "category": "高"
      },
      "geometry": {
        "type": "Point",
        "coordinates": [
          121.54899,
          25.02196
        ]
      }
    },
    {
      "type": "Feature",
      "properties": {
        "stop_id": "U101257",
        "stop_name": "龍圖公園",
        "capacity": 20,
        "latitude": 25.0305,
        "longitude": 121.54184,
        "category": "高"
      },
      "geometry": {
        "type": "Point",
        "coordinates": [
          121.54184,
          25.0305
        ]
      }
    },
    {
      "type": "Feature",
      "properties": {
        "stop_id": "U101258",
        "stop_name": "新生南路二段54巷口",
        "capacity": 26,
        "latitude": 25.02878,
        "longitude": 121.53412,
        "category": "高"
      },
      "geometry": {
        "type": "Point",
        "coordinates": [
          121.53412,
          25.02878
        ]
      }
    },
    {
      "type": "Feature",
      "properties": {
        "stop_id": "U101259",
        "stop_name": "臺靜農人文會館",
        "capacity": 12,
        "latitude": 25.02462,
        "longitude": 121.53347,
        "category": "高"
      },
      "geometry": {
        "type": "Point",
        "coordinates": [
          121.53347,
          25.02462
        ]
      }
    },
    {
      "type": "Feature",
      "properties": {
        "stop_id": "U101260",
        "stop_name": "建國南路二段瑞安街264巷口",
        "capacity": 33,
        "latitude": 25.02716,
        "longitude": 121.53782,
        "category": "高"
      },
      "geometry": {
        "type": "Point",
        "coordinates": [
          121.53782,
          25.02716
        ]
      }
    },
    {
      "type": "Feature",
      "properties": {
        "stop_id": "U101261",
        "stop_name": "辛亥路一段77巷口",
        "capacity": 22,
        "latitude": 25.02128,
        "longitude": 121.53034,
        "category": "高"
      },
      "geometry": {
        "type": "Point",
        "coordinates": [
          121.53034,
          25.02128
        ]
      }
    },
    {
      "type": "Feature",
      "properties": {
        "stop_id": "U101262",
        "stop_name": "愛國東路210巷口",
        "capacity": 34,
        "latitude": 25.03187,
        "longitude": 121.52407,
        "category": "高"
      },
      "geometry": {
        "type": "Point",
        "coordinates": [
          121.52407,
          25.03187
        ]
      }
    },
    {
      "type": "Feature",
      "properties": {
        "stop_id": "U101264",
        "stop_name": "金華國中",
        "capacity": 21,
        "latitude": 25.03165,
        "longitude": 121.53306,
        "category": "高"
      },
      "geometry": {
        "type": "Point",
        "coordinates": [
          121.53306,
          25.03165
        ]
      }
    },
    {
      "type": "Feature",
      "properties": {
        "stop_id": "U101265",
        "stop_name": "羅斯福路三段283巷",
        "capacity": 18,
        "latitude": 25.02017,
        "longitude": 121.53178,
        "category": "高"
      },
      "geometry": {
        "type": "Point",
        "coordinates": [
          121.53178,
          25.02017
        ]
      }
    },
    {
      "type": "Feature",
      "properties": {
        "stop_id": "U101266",
        "stop_name": "臺科大側門(基隆路四段73巷)",
        "capacity": 35,
        "latitude": 25.01291,
        "longitude": 121.53967,
        "category": "中"
      },
      "geometry": {
        "type": "Point",
        "coordinates": [
          121.53967,
          25.01291
        ]
      }
    },
    {
      "type": "Feature",
      "properties": {
        "stop_id": "U101267",
        "stop_name": "黎和公園",
        "capacity": 15,
        "latitude": 25.01663,
        "longitude": 121.56011,
        "category": "高"
      },
      "geometry": {
        "type": "Point",
        "coordinates": [
          121.56011,
          25.01663
        ]
      }
    },
    {
      "type": "Feature",
      "properties": {
        "stop_id": "U101268",
        "stop_name": "信義四維路口",
        "capacity": 19,
        "latitude": 25.03341,
        "longitude": 121.54796,
        "category": "高"
      },
      "geometry": {
        "type": "Point",
        "coordinates": [
          121.54796,
          25.03341
        ]
      }
    },
    {
      "type": "Feature",
      "properties": {
        "stop_id": "U101269",
        "stop_name": "和平高中(辛亥基隆路口)",
        "capacity": 55,
        "latitude": 25.01917,
        "longitude": 121.54708,
        "category": "中"
      },
      "geometry": {
        "type": "Point",
        "coordinates": [
          121.54708,
          25.01917
        ]
      }
    },
    {
      "type": "Feature",
      "properties": {
        "stop_id": "U101270",
        "stop_name": "和平東路二段107巷口",
        "capacity": 12,
        "latitude": 25.02555,
        "longitude": 121.53951,
        "category": "高"
      },
      "geometry": {
        "type": "Point",
        "coordinates": [
          121.53951,
          25.02555
        ]
      }
    },
    {
      "type": "Feature",
      "properties": {
        "stop_id": "U101272",
        "stop_name": "金華國中(信義路二段198巷)",
        "capacity": 13,
        "latitude": 25.03126,
        "longitude": 121.5311,
        "category": "高"
      },
      "geometry": {
        "type": "Point",
        "coordinates": [
          121.5311,
          25.03126
        ]
      }
    },
    {
      "type": "Feature",
      "properties": {
        "stop_id": "U103001",
        "stop_name": "延平國宅",
        "capacity": 41,
        "latitude": 25.07894,
        "longitude": 121.51121,
        "category": "高"
      },
      "geometry": {
        "type": "Point",
        "coordinates": [
          121.51121,
          25.07894
        ]
      }
    },
    {
      "type": "Feature",
      "properties": {
        "stop_id": "U103002",
        "stop_name": "臺北市立圖書館大同分館",
        "capacity": 40,
        "latitude": 25.0741,
        "longitude": 121.51349,
        "category": "高"
      },
      "geometry": {
        "type": "Point",
        "coordinates": [
          121.51349,
          25.0741
        ]
      }
    },
    {
      "type": "Feature",
      "properties": {
        "stop_id": "U103003",
        "stop_name": "合昌宮",
        "capacity": 15,
        "latitude": 25.07717,
        "longitude": 121.50934,
        "category": "高"
      },
      "geometry": {
        "type": "Point",
        "coordinates": [
          121.50934,
          25.07717
        ]
      }
    },
    {
      "type": "Feature",
      "properties": {
        "stop_id": "U103004",
        "stop_name": "民族延平路口",
        "capacity": 36,
        "latitude": 25.06864,
        "longitude": 121.5107,
        "category": "高"
      },
      "geometry": {
        "type": "Point",
        "coordinates": [
          121.5107,
          25.06864
        ]
      }
    },
    {
      "type": "Feature",
      "properties": {
        "stop_id": "U103005",
        "stop_name": "重慶酒泉街口",
        "capacity": 44,
        "latitude": 25.07158,
        "longitude": 121.51368,
        "category": "高"
      },
      "geometry": {
        "type": "Point",
        "coordinates": [
          121.51368,
          25.07158
        ]
      }
    },
    {
      "type": "Feature",
      "properties": {
        "stop_id": "U103006",
        "stop_name": "樹德公園",
        "capacity": 14,
        "latitude": 25.06647,
        "longitude": 121.5165,
        "category": "高"
      },
      "geometry": {
        "type": "Point",
        "coordinates": [
          121.5165,
          25.06647
        ]
      }
    },
    {
      "type": "Feature",
      "properties": {
        "stop_id": "U103007",
        "stop_name": "陳天來故居",
        "capacity": 16,
        "latitude": 25.05601,
        "longitude": 121.50895,
        "category": "高"
      },
      "geometry": {
        "type": "Point",
        "coordinates": [
          121.50895,
          25.05601
        ]
      }
    },
    {
      "type": "Feature",
      "properties": {
        "stop_id": "U103008",
        "stop_name": "臺北孔廟",
        "capacity": 37,
        "latitude": 25.07378,
        "longitude": 121.51583,
        "category": "高"
      },
      "geometry": {
        "type": "Point",
        "coordinates": [
          121.51583,
          25.07378
        ]
      }
    },
    {
      "type": "Feature",
      "properties": {
        "stop_id": "U103009",
        "stop_name": "捷運圓山站(1號出口)",
        "capacity": 81,
        "latitude": 25.07133,
        "longitude": 121.52024,
        "category": "高"
      },
      "geometry": {
        "type": "Point",
        "coordinates": [
          121.52024,
          25.07133
        ]
      }
    },
    {
      "type": "Feature",
      "properties": {
        "stop_id": "U103010",
        "stop_name": "酒泉延平路口",
        "capacity": 17,
        "latitude": 25.0722,
        "longitude": 121.51057,
        "category": "高"
      },
      "geometry": {
        "type": "Point",
        "coordinates": [
          121.51057,
          25.0722
        ]
      }
    },
    {
      "type": "Feature",
      "properties": {
        "stop_id": "U103011",
        "stop_name": "重慶國中",
        "capacity": 64,
        "latitude": 25.07567,
        "longitude": 121.51862,
        "category": "高"
      },
      "geometry": {
        "type": "Point",
        "coordinates": [
          121.51862,
          25.07567
        ]
      }
    },
    {
      "type": "Feature",
      "properties": {
        "stop_id": "U103012",
        "stop_name": "重慶北路三段383巷口",
        "capacity": 34,
        "latitude": 25.07598,
        "longitude": 121.51409,
        "category": "高"
      },
      "geometry": {
        "type": "Point",
        "coordinates": [
          121.51409,
          25.07598
        ]
      }
    },
    {
      "type": "Feature",
      "properties": {
        "stop_id": "U103013",
        "stop_name": "台北數位產業園區",
        "capacity": 24,
        "latitude": 25.07447,
        "longitude": 121.52003,
        "category": "高"
      },
      "geometry": {
        "type": "Point",
        "coordinates": [
          121.52003,
          25.07447
        ]
      }
    },
    {
      "type": "Feature",
      "properties": {
        "stop_id": "U103019",
        "stop_name": "民權延平路口(西北側)",
        "capacity": 20,
        "latitude": 25.06326,
        "longitude": 121.51099,
        "category": "高"
      },
      "geometry": {
        "type": "Point",
        "coordinates": [
          121.51099,
          25.06326
        ]
      }
    },
    {
      "type": "Feature",
      "properties": {
        "stop_id": "U103020",
        "stop_name": "民權迪化街口",
        "capacity": 45,
        "latitude": 25.06327,
        "longitude": 121.50943,
        "category": "高"
      },
      "geometry": {
        "type": "Point",
        "coordinates": [
          121.50943,
          25.06327
        ]
      }
    },
    {
      "type": "Feature",
      "properties": {
        "stop_id": "U103021",
        "stop_name": "大稻埕公園",
        "capacity": 35,
        "latitude": 25.05915,
        "longitude": 121.51033,
        "category": "高"
      },
      "geometry": {
        "type": "Point",
        "coordinates": [
          121.51033,
          25.05915
        ]
      }
    },
    {
      "type": "Feature",
      "properties": {
        "stop_id": "U103022",
        "stop_name": "大龍老人住宅",
        "capacity": 14,
        "latitude": 25.06853,
        "longitude": 121.51729,
        "category": "高"
      },
      "geometry": {
        "type": "Point",
        "coordinates": [
          121.51729,
          25.06853
        ]
      }
    },
    {
      "type": "Feature",
      "properties": {
        "stop_id": "U103023",
        "stop_name": "大龍峒社會住宅",
        "capacity": 34,
        "latitude": 25.0708,
        "longitude": 121.51826,
        "category": "高"
      },
      "geometry": {
        "type": "Point",
        "coordinates": [
          121.51826,
          25.0708
        ]
      }
    },
    {
      "type": "Feature",
      "properties": {
        "stop_id": "U103024",
        "stop_name": "捷運大橋頭站(2號出口)",
        "capacity": 57,
        "latitude": 25.06314,
        "longitude": 121.51308,
        "category": "高"
      },
      "geometry": {
        "type": "Point",
        "coordinates": [
          121.51308,
          25.06314
        ]
      }
    },
    {
      "type": "Feature",
      "properties": {
        "stop_id": "U103025",
        "stop_name": "捷運大橋頭站(1A出口)",
        "capacity": 30,
        "latitude": 25.06325,
        "longitude": 121.51162,
        "category": "高"
      },
      "geometry": {
        "type": "Point",
        "coordinates": [
          121.51162,
          25.06325
        ]
      }
    },
    {
      "type": "Feature",
      "properties": {
        "stop_id": "U103026",
        "stop_name": "捷運民權西路站(2號出口)",
        "capacity": 25,
        "latitude": 25.06174,
        "longitude": 121.51969,
        "category": "中"
      },
      "geometry": {
        "type": "Point",
        "coordinates": [
          121.51969,
          25.06174
        ]
      }
    },
    {
      "type": "Feature",
      "properties": {
        "stop_id": "U103027",
        "stop_name": "捷運雙連站(2號出口)",
        "capacity": 41,
        "latitude": 25.05826,
        "longitude": 121.52063,
        "category": "高"
      },
      "geometry": {
        "type": "Point",
        "coordinates": [
          121.52063,
          25.05826
        ]
      }
    },
    {
      "type": "Feature",
      "properties": {
        "stop_id": "U103028",
        "stop_name": "捷運北門站(3號出口)",
        "capacity": 86,
        "latitude": 25.04991,
        "longitude": 121.5104,
        "category": "高"
      },
      "geometry": {
        "type": "Point",
        "coordinates": [
          121.5104,
          25.04991
        ]
      }
    },
    {
      "type": "Feature",
      "properties": {
        "stop_id": "U103029",
        "stop_name": "朝陽公園",
        "capacity": 10,
        "latitude": 25.05592,
        "longitude": 121.51367,
        "category": "高"
      },
      "geometry": {
        "type": "Point",
        "coordinates": [
          121.51367,
          25.05592
        ]
      }
    },
    {
      "type": "Feature",
      "properties": {
        "stop_id": "U103030",
        "stop_name": "永樂市場",
        "capacity": 36,
        "latitude": 25.05454,
        "longitude": 121.51052,
        "category": "高"
      },
      "geometry": {
        "type": "Point",
        "coordinates": [
          121.51052,
          25.05454
        ]
      }
    },
    {
      "type": "Feature",
      "properties": {
        "stop_id": "U103031",
        "stop_name": "大龍公園",
        "capacity": 26,
        "latitude": 25.07049,
        "longitude": 121.51596,
        "category": "高"
      },
      "geometry": {
        "type": "Point",
        "coordinates": [
          121.51596,
          25.07049
        ]
      }
    },
    {
      "type": "Feature",
      "properties": {
        "stop_id": "U103032",
        "stop_name": "重慶涼州街口",
        "capacity": 13,
        "latitude": 25.06054,
        "longitude": 121.51338,
        "category": "高"
      },
      "geometry": {
        "type": "Point",
        "coordinates": [
          121.51338,
          25.06054
        ]
      }
    },
    {
      "type": "Feature",
      "properties": {
        "stop_id": "U103033",
        "stop_name": "圓山線形公園",
        "capacity": 26,
        "latitude": 25.06867,
        "longitude": 121.51993,
        "category": "高"
      },
      "geometry": {
        "type": "Point",
        "coordinates": [
          121.51993,
          25.06867
        ]
      }
    },
    {
      "type": "Feature",
      "properties": {
        "stop_id": "U103034",
        "stop_name": "圓環站",
        "capacity": 31,
        "latitude": 25.05369,
        "longitude": 121.51418,
        "category": "高"
      },
      "geometry": {
        "type": "Point",
        "coordinates": [
          121.51418,
          25.05369
        ]
      }
    },
    {
      "type": "Feature",
      "properties": {
        "stop_id": "U103035",
        "stop_name": "重慶民族路口",
        "capacity": 32,
        "latitude": 25.06853,
        "longitude": 121.51359,
        "category": "高"
      },
      "geometry": {
        "type": "Point",
        "coordinates": [
          121.51359,
          25.06853
        ]
      }
    },
    {
      "type": "Feature",
      "properties": {
        "stop_id": "U103036",
        "stop_name": "承德路三段8巷口",
        "capacity": 21,
        "latitude": 25.06407,
        "longitude": 121.51822,
        "category": "高"
      },
      "geometry": {
        "type": "Point",
        "coordinates": [
          121.51822,
          25.06407
        ]
      }
    },
    {
      "type": "Feature",
      "properties": {
        "stop_id": "U103037",
        "stop_name": "太原廣場",
        "capacity": 31,
        "latitude": 25.04925,
        "longitude": 121.51468,
        "category": "高"
      },
      "geometry": {
        "type": "Point",
        "coordinates": [
          121.51468,
          25.04925
        ]
      }
    },
    {
      "type": "Feature",
      "properties": {
        "stop_id": "U103038",
        "stop_name": "國順公園",
        "capacity": 20,
        "latitude": 25.06594,
        "longitude": 121.51078,
        "category": "高"
      },
      "geometry": {
        "type": "Point",
        "coordinates": [
          121.51078,
          25.06594
        ]
      }
    },
    {
      "type": "Feature",
      "properties": {
        "stop_id": "U103039",
        "stop_name": "聯合醫院中興院區",
        "capacity": 48,
        "latitude": 25.05205,
        "longitude": 121.50818,
        "category": "高"
      },
      "geometry": {
        "type": "Point",
        "coordinates": [
          121.50818,
          25.05205
        ]
      }
    },
    {
      "type": "Feature",
      "properties": {
        "stop_id": "U103040",
        "stop_name": "蔣渭水紀念公園",
        "capacity": 47,
        "latitude": 25.06011,
        "longitude": 121.51729,
        "category": "高"
      },
      "geometry": {
        "type": "Point",
        "coordinates": [
          121.51729,
          25.06011
        ]
      }
    },
    {
      "type": "Feature",
      "properties": {
        "stop_id": "U103041",
        "stop_name": "迪化休閒運動公園",
        "capacity": 31,
        "latitude": 25.07491,
        "longitude": 121.5115,
        "category": "高"
      },
      "geometry": {
        "type": "Point",
        "coordinates": [
          121.5115,
          25.07491
        ]
      }
    },
    {
      "type": "Feature",
      "properties": {
        "stop_id": "U103042",
        "stop_name": "大同運動中心",
        "capacity": 16,
        "latitude": 25.06496,
        "longitude": 121.51608,
        "category": "高"
      },
      "geometry": {
        "type": "Point",
        "coordinates": [
          121.51608,
          25.06496
        ]
      }
    },
    {
      "type": "Feature",
      "properties": {
        "stop_id": "U103043",
        "stop_name": "重慶保安街口(家樂福重慶店)",
        "capacity": 20,
        "latitude": 25.05918,
        "longitude": 121.51373,
        "category": "高"
      },
      "geometry": {
        "type": "Point",
        "coordinates": [
          121.51373,
          25.05918
        ]
      }
    },
    {
      "type": "Feature",
      "properties": {
        "stop_id": "U103044",
        "stop_name": "大稻埕碼頭",
        "capacity": 52,
        "latitude": 25.05662,
        "longitude": 121.50783,
        "category": "高"
      },
      "geometry": {
        "type": "Point",
        "coordinates": [
          121.50783,
          25.05662
        ]
      }
    },
    {
      "type": "Feature",
      "properties": {
        "stop_id": "U103045",
        "stop_name": "歸綏戲曲公園",
        "capacity": 25,
        "latitude": 25.05805,
        "longitude": 121.51353,
        "category": "高"
      },
      "geometry": {
        "type": "Point",
        "coordinates": [
          121.51353,
          25.05805
        ]
      }
    },
    {
      "type": "Feature",
      "properties": {
        "stop_id": "U103046",
        "stop_name": "民權國中(民權西路)",
        "capacity": 25,
        "latitude": 25.06322,
        "longitude": 121.5144,
        "category": "高"
      },
      "geometry": {
        "type": "Point",
        "coordinates": [
          121.5144,
          25.06322
        ]
      }
    },
    {
      "type": "Feature",
      "properties": {
        "stop_id": "U103047",
        "stop_name": "承德民權路口",
        "capacity": 36,
        "latitude": 25.06247,
        "longitude": 121.51839,
        "category": "高"
      },
      "geometry": {
        "type": "Point",
        "coordinates": [
          121.51839,
          25.06247
        ]
      }
    },
    {
      "type": "Feature",
      "properties": {
        "stop_id": "U103048",
        "stop_name": "南京太原路口",
        "capacity": 29,
        "latitude": 25.05366,
        "longitude": 121.51638,
        "category": "高"
      },
      "geometry": {
        "type": "Point",
        "coordinates": [
          121.51638,
          25.05366
        ]
      }
    },
    {
      "type": "Feature",
      "properties": {
        "stop_id": "U103049",
        "stop_name": "承德民生西路口",
        "capacity": 19,
        "latitude": 25.05756,
        "longitude": 121.51828,
        "category": "高"
      },
      "geometry": {
        "type": "Point",
        "coordinates": [
          121.51828,
          25.05756
        ]
      }
    },
    {
      "type": "Feature",
      "properties": {
        "stop_id": "U103050",
        "stop_name": "太原五原路口",
        "capacity": 39,
        "latitude": 25.05646,
        "longitude": 121.51698,
        "category": "高"
      },
      "geometry": {
        "type": "Point",
        "coordinates": [
          121.51698,
          25.05646
        ]
      }
    },
    {
      "type": "Feature",
      "properties": {
        "stop_id": "U103051",
        "stop_name": "臺北轉運站(華陰街)",
        "capacity": 20,
        "latitude": 25.04937,
        "longitude": 121.51914,
        "category": "高"
      },
      "geometry": {
        "type": "Point",
        "coordinates": [
          121.51914,
          25.04937
        ]
      }
    },
    {
      "type": "Feature",
      "properties": {
        "stop_id": "U103052",
        "stop_name": "捷運民權西路站(3號出口)",
        "capacity": 50,
        "latitude": 25.06129,
        "longitude": 121.52021,
        "category": "高"
      },
      "geometry": {
        "type": "Point",
        "coordinates": [
          121.52021,
          25.06129
        ]
      }
    },
    {
      "type": "Feature",
      "properties": {
        "stop_id": "U103053",
        "stop_name": "捷運中山站(5號出口)",
        "capacity": 18,
        "latitude": 25.05296,
        "longitude": 121.51938,
        "category": "高"
      },
      "geometry": {
        "type": "Point",
        "coordinates": [
          121.51938,
          25.05296
        ]
      }
    },
    {
      "type": "Feature",
      "properties": {
        "stop_id": "U103054",
        "stop_name": "重慶長安路口",
        "capacity": 21,
        "latitude": 25.0515,
        "longitude": 121.51398,
        "category": "高"
      },
      "geometry": {
        "type": "Point",
        "coordinates": [
          121.51398,
          25.0515
        ]
      }
    },
    {
      "type": "Feature",
      "properties": {
        "stop_id": "U103055",
        "stop_name": "承德昌吉街口",
        "capacity": 18,
        "latitude": 25.06587,
        "longitude": 121.51847,
        "category": "高"
      },
      "geometry": {
        "type": "Point",
        "coordinates": [
          121.51847,
          25.06587
        ]
      }
    },
    {
      "type": "Feature",
      "properties": {
        "stop_id": "U103056",
        "stop_name": "大同16號廣場",
        "capacity": 14,
        "latitude": 25.05658,
        "longitude": 121.50826,
        "category": "高"
      },
      "geometry": {
        "type": "Point",
        "coordinates": [
          121.50826,
          25.05658
        ]
      }
    },
    {
      "type": "Feature",
      "properties": {
        "stop_id": "U103058",
        "stop_name": "樹德公園_1",
        "capacity": 40,
        "latitude": 25.06669,
        "longitude": 121.51615,
        "category": "高"
      },
      "geometry": {
        "type": "Point",
        "coordinates": [
          121.51615,
          25.06669
        ]
      }
    },
    {
      "type": "Feature",
      "properties": {
        "stop_id": "U103059",
        "stop_name": "承德鄭州路口(市民高架下)",
        "capacity": 38,
        "latitude": 25.04879,
        "longitude": 121.51626,
        "category": "高"
      },
      "geometry": {
        "type": "Point",
        "coordinates": [
          121.51626,
          25.04879
        ]
      }
    },
    {
      "type": "Feature",
      "properties": {
        "stop_id": "U103060",
        "stop_name": "成淵高中",
        "capacity": 25,
        "latitude": 25.06036,
        "longitude": 121.51996,
        "category": "高"
      },
      "geometry": {
        "type": "Point",
        "coordinates": [
          121.51996,
          25.06036
        ]
      }
    },
    {
      "type": "Feature",
      "properties": {
        "stop_id": "U103061",
        "stop_name": "雙蓮國小",
        "capacity": 20,
        "latitude": 25.06157,
        "longitude": 121.51683,
        "category": "高"
      },
      "geometry": {
        "type": "Point",
        "coordinates": [
          121.51683,
          25.06157
        ]
      }
    },
    {
      "type": "Feature",
      "properties": {
        "stop_id": "U103062",
        "stop_name": "寧夏涼州街口",
        "capacity": 15,
        "latitude": 25.06095,
        "longitude": 121.51428,
        "category": "高"
      },
      "geometry": {
        "type": "Point",
        "coordinates": [
          121.51428,
          25.06095
        ]
      }
    },
    {
      "type": "Feature",
      "properties": {
        "stop_id": "U103063",
        "stop_name": "延平涼州街口",
        "capacity": 14,
        "latitude": 25.06092,
        "longitude": 121.51126,
        "category": "高"
      },
      "geometry": {
        "type": "Point",
        "coordinates": [
          121.51126,
          25.06092
        ]
      }
    },
    {
      "type": "Feature",
      "properties": {
        "stop_id": "U103064",
        "stop_name": "大同行政中心",
        "capacity": 16,
        "latitude": 25.06603,
        "longitude": 121.51481,
        "category": "高"
      },
      "geometry": {
        "type": "Point",
        "coordinates": [
          121.51481,
          25.06603
        ]
      }
    },
    {
      "type": "Feature",
      "properties": {
        "stop_id": "U103065",
        "stop_name": "大龍市場",
        "capacity": 15,
        "latitude": 25.07473,
        "longitude": 121.51451,
        "category": "高"
      },
      "geometry": {
        "type": "Point",
        "coordinates": [
          121.51451,
          25.07473
        ]
      }
    },
    {
      "type": "Feature",
      "properties": {
        "stop_id": "U103066",
        "stop_name": "南京西寧北路口(西北側)",
        "capacity": 13,
        "latitude": 25.05348,
        "longitude": 121.50855,
        "category": "高"
      },
      "geometry": {
        "type": "Point",
        "coordinates": [
          121.50855,
          25.05348
        ]
      }
    },
    {
      "type": "Feature",
      "properties": {
        "stop_id": "U103068",
        "stop_name": "哈密街23巷19弄口",
        "capacity": 23,
        "latitude": 25.07563,
        "longitude": 121.51815,
        "category": "高"
      },
      "geometry": {
        "type": "Point",
        "coordinates": [
          121.51815,
          25.07563
        ]
      }
    },
    {
      "type": "Feature",
      "properties": {
        "stop_id": "U103069",
        "stop_name": "民權西路160巷口",
        "capacity": 15,
        "latitude": 25.06289,
        "longitude": 121.51544,
        "category": "高"
      },
      "geometry": {
        "type": "Point",
        "coordinates": [
          121.51544,
          25.06289
        ]
      }
    },
    {
      "type": "Feature",
      "properties": {
        "stop_id": "U103070",
        "stop_name": "重慶北路三段205巷口",
        "capacity": 19,
        "latitude": 25.06997,
        "longitude": 121.51388,
        "category": "高"
      },
      "geometry": {
        "type": "Point",
        "coordinates": [
          121.51388,
          25.06997
        ]
      }
    },
    {
      "type": "Feature",
      "properties": {
        "stop_id": "U103071",
        "stop_name": "承德路二段91巷口",
        "capacity": 20,
        "latitude": 25.05621,
        "longitude": 121.51847,
        "category": "高"
      },
      "geometry": {
        "type": "Point",
        "coordinates": [
          121.51847,
          25.05621
        ]
      }
    },
    {
      "type": "Feature",
      "properties": {
        "stop_id": "U103072",
        "stop_name": "酒泉庫倫街口",
        "capacity": 15,
        "latitude": 25.07194,
        "longitude": 121.51626,
        "category": "高"
      },